{
  "city": "qingdao",
  "cityNameZh": "青岛",
  "cityNameEn": "Qingdao",
  "source": "高德地图地铁数据（非官方接口）· 官方英文站名整理自 Wikipedia",
  "generatedAt": "2026-07-14T15:57:47.475Z",
  "lines": [
    {
      "id": "3702-1",
      "operatorId": "3702",
      "operatorName": "青岛地铁",
      "lineId": "1",
      "lineName": "1号线",
      "color": "#FCD600",
      "loop": false,
      "stations": [
        {
          "id": "900000073472009",
          "stationId": "900000073472009",
          "nameZh": "东郭庄",
          "nameEn": "Dongguozhuang",
          "target": "dongguozhuang",
          "pinyin": "dongguozhuang",
          "lat": 36.334834,
          "lon": 120.412004,
          "sequence": 1
        },
        {
          "id": "900000073472010",
          "stationId": "900000073472010",
          "nameZh": "沟岔",
          "nameEn": "Goucha",
          "target": "goucha",
          "pinyin": "goucha",
          "lat": 36.327025,
          "lon": 120.400078,
          "sequence": 2
        },
        {
          "id": "900000073472011",
          "stationId": "900000073472011",
          "nameZh": "农业大学",
          "nameEn": "Qingdao Agricultural University",
          "target": "qingdao agricultural university",
          "pinyin": "nongyedaxue",
          "lat": 36.315811,
          "lon": 120.390904,
          "sequence": 3
        },
        {
          "id": "900000073472012",
          "stationId": "900000073472012",
          "nameZh": "正阳中路",
          "nameEn": "Zhengyang Middle Road",
          "target": "zhengyang middle road",
          "pinyin": "zhengyangzhonglu",
          "lat": 36.306004,
          "lon": 120.390723,
          "sequence": 4
        },
        {
          "id": "900000073472013",
          "stationId": "900000073472013",
          "nameZh": "小寨子",
          "nameEn": "Xiaozhaizi",
          "target": "xiaozhaizi",
          "pinyin": "xiaozhaizi",
          "lat": 36.296519,
          "lon": 120.390192,
          "sequence": 5
        },
        {
          "id": "900000073472014",
          "stationId": "900000073472014",
          "nameZh": "凤岗路",
          "nameEn": "Fenggang Road",
          "target": "fenggang road",
          "pinyin": "fengganglu",
          "lat": 36.285973,
          "lon": 120.386132,
          "sequence": 6
        },
        {
          "id": "900000073472015",
          "stationId": "900000073472015",
          "nameZh": "流亭",
          "nameEn": "Liuting",
          "target": "liuting",
          "pinyin": "liuting",
          "lat": 36.268301,
          "lon": 120.388616,
          "sequence": 7
        },
        {
          "id": "900000073472016",
          "stationId": "900000073472016",
          "nameZh": "仙家寨(汽车北站)",
          "nameEn": "Xianjiazhai (qiche Beizhan)",
          "target": "xianjiazhai qiche beizhan",
          "pinyin": "xianjiazhaiqichebeizhan",
          "lat": 36.240025,
          "lon": 120.393189,
          "sequence": 8
        },
        {
          "id": "900000073472017",
          "stationId": "900000073472017",
          "nameZh": "瑞金路",
          "nameEn": "Ruijin Road",
          "target": "ruijin road",
          "pinyin": "ruijinlu",
          "lat": 36.227434,
          "lon": 120.395172,
          "sequence": 9
        },
        {
          "id": "900000073472018",
          "stationId": "900000073472018",
          "nameZh": "遵义路",
          "nameEn": "Zunyi Road",
          "target": "zunyi road",
          "pinyin": "zunyilu",
          "lat": 36.214525,
          "lon": 120.396876,
          "sequence": 10
        },
        {
          "id": "900000073472019",
          "stationId": "900000073472019",
          "nameZh": "南岭",
          "nameEn": "Nanling",
          "target": "nanling",
          "pinyin": "nanling",
          "lat": 36.201327,
          "lon": 120.39949,
          "sequence": 11
        },
        {
          "id": "900000073472020",
          "stationId": "900000073472020",
          "nameZh": "兴国路",
          "nameEn": "Xingguo Road",
          "target": "xingguo road",
          "pinyin": "xingguolu",
          "lat": 36.191035,
          "lon": 120.401527,
          "sequence": 12
        },
        {
          "id": "900000073472021",
          "stationId": "900000073472021",
          "nameZh": "永年路",
          "nameEn": "Yongnian Road",
          "target": "yongnian road",
          "pinyin": "yongnianlu",
          "lat": 36.181643,
          "lon": 120.396039,
          "sequence": 13
        },
        {
          "id": "900000073472022",
          "stationId": "900000073472022",
          "nameZh": "沧安路",
          "nameEn": "Cang'an Road",
          "target": "cang'an road",
          "pinyin": "canganlu",
          "lat": 36.180128,
          "lon": 120.382098,
          "sequence": 14
        },
        {
          "id": "900000030289001",
          "stationId": "900000030289001",
          "nameZh": "青岛北站",
          "nameEn": "Qingdao North Railway Station",
          "target": "qingdao north railway station",
          "pinyin": "qingdaobeizhan",
          "lat": 36.169798,
          "lon": 120.377367,
          "sequence": 15
        },
        {
          "id": "900000073472024",
          "stationId": "900000073472024",
          "nameZh": "安顺路",
          "nameEn": "Anshun Road",
          "target": "anshun road",
          "pinyin": "anshunlu",
          "lat": 36.159048,
          "lon": 120.375905,
          "sequence": 16
        },
        {
          "id": "900000073472025",
          "stationId": "900000073472025",
          "nameZh": "胜利桥(纺织谷)",
          "nameEn": "Shengliqiao (fangzhigu)",
          "target": "shengliqiao fangzhigu",
          "pinyin": "shengliqiaofangzhigu",
          "lat": 36.148467,
          "lon": 120.382247,
          "sequence": 17
        },
        {
          "id": "900000073472026",
          "stationId": "900000073472026",
          "nameZh": "中心医院",
          "nameEn": "Qingdao Central Hospital",
          "target": "qingdao central hospital",
          "pinyin": "zhongxinyiyuan",
          "lat": 36.141338,
          "lon": 120.374974,
          "sequence": 18
        },
        {
          "id": "900000073472027",
          "stationId": "900000073472027",
          "nameZh": "水清沟",
          "nameEn": "Shuiqinggou",
          "target": "shuiqinggou",
          "pinyin": "shuiqinggou",
          "lat": 36.127316,
          "lon": 120.370285,
          "sequence": 19
        },
        {
          "id": "900000073472028",
          "stationId": "900000073472028",
          "nameZh": "北岭",
          "nameEn": "Beiling",
          "target": "beiling",
          "pinyin": "beiling",
          "lat": 36.116323,
          "lon": 120.361089,
          "sequence": 20
        },
        {
          "id": "900000073472029",
          "stationId": "900000073472029",
          "nameZh": "小村庄",
          "nameEn": "Xiaocunzhuang",
          "target": "xiaocunzhuang",
          "pinyin": "xiaocunzhuang",
          "lat": 36.10547,
          "lon": 120.360967,
          "sequence": 21
        },
        {
          "id": "900000071917007",
          "stationId": "900000071917007",
          "nameZh": "海泊桥(海慈医疗)",
          "nameEn": "Haibo Qiao (haici Yiliao)",
          "target": "haibo qiao haici yiliao",
          "pinyin": "haiboqiaohaiciyiliao",
          "lat": 36.094558,
          "lon": 120.361391,
          "sequence": 22
        },
        {
          "id": "900000030291024",
          "stationId": "900000030291024",
          "nameZh": "台东",
          "nameEn": "Taidong",
          "target": "taidong",
          "pinyin": "taidong",
          "lat": 36.0822,
          "lon": 120.35412,
          "sequence": 23
        },
        {
          "id": "900000073472032",
          "stationId": "900000073472032",
          "nameZh": "广饶路",
          "nameEn": "Guangrao Road",
          "target": "guangrao road",
          "pinyin": "guangraolu",
          "lat": 36.075425,
          "lon": 120.34219,
          "sequence": 24
        },
        {
          "id": "900000071917003",
          "stationId": "900000071917003",
          "nameZh": "观象山(市立医院)",
          "nameEn": "Guan Xiangshan (shili Yiyuan)",
          "target": "guan xiangshan shili yiyuan",
          "pinyin": "guanxiangshanshiliyiyuan",
          "lat": 36.073089,
          "lon": 120.329802,
          "sequence": 25
        },
        {
          "id": "900000073472034",
          "stationId": "900000073472034",
          "nameZh": "中山路",
          "nameEn": "Zhongshan Road",
          "target": "zhongshan road",
          "pinyin": "zhongshanlu",
          "lat": 36.072149,
          "lon": 120.321608,
          "sequence": 26
        },
        {
          "id": "900000030289034",
          "stationId": "900000030289034",
          "nameZh": "青岛站",
          "nameEn": "Qingdao Railway Station",
          "target": "qingdao railway station",
          "pinyin": "qingdaozhan",
          "lat": 36.064191,
          "lon": 120.314566,
          "sequence": 27
        },
        {
          "id": "900000073472036",
          "stationId": "900000073472036",
          "nameZh": "西镇",
          "nameEn": "Xizhen",
          "target": "xizhen",
          "pinyin": "xizhen",
          "lat": 36.061162,
          "lon": 120.306328,
          "sequence": 28
        },
        {
          "id": "900000073472037",
          "stationId": "900000073472037",
          "nameZh": "团岛",
          "nameEn": "Tuandao",
          "target": "tuandao",
          "pinyin": "tuandao",
          "lat": 36.057387,
          "lon": 120.299188,
          "sequence": 29
        },
        {
          "id": "900000073472038",
          "stationId": "900000073472038",
          "nameZh": "凤凰岛",
          "nameEn": "Fenghuangdao",
          "target": "fenghuangdao",
          "pinyin": "fenghuangdao",
          "lat": 35.999539,
          "lon": 120.293328,
          "sequence": 30
        },
        {
          "id": "900000073472039",
          "stationId": "900000073472039",
          "nameZh": "山里",
          "nameEn": "Shanli",
          "target": "shanli",
          "pinyin": "shanli",
          "lat": 35.98627,
          "lon": 120.287829,
          "sequence": 31
        },
        {
          "id": "900000073472040",
          "stationId": "900000073472040",
          "nameZh": "南北屯",
          "nameEn": "Nanbeitun",
          "target": "nanbeitun",
          "pinyin": "nanbeitun",
          "lat": 35.977893,
          "lon": 120.263776,
          "sequence": 32
        },
        {
          "id": "900000073472041",
          "stationId": "900000073472041",
          "nameZh": "新港山路",
          "nameEn": "Xingangshan Road",
          "target": "xingangshan road",
          "pinyin": "xingangshanlu",
          "lat": 35.973076,
          "lon": 120.244127,
          "sequence": 33
        },
        {
          "id": "900000073472042",
          "stationId": "900000073472042",
          "nameZh": "安子",
          "nameEn": "Anzi",
          "target": "anzi",
          "pinyin": "anzi",
          "lat": 35.97155,
          "lon": 120.233599,
          "sequence": 34
        },
        {
          "id": "900000073472043",
          "stationId": "900000073472043",
          "nameZh": "天目山路",
          "nameEn": "Tianmushan Road",
          "target": "tianmushan road",
          "pinyin": "tianmushanlu",
          "lat": 35.964945,
          "lon": 120.228052,
          "sequence": 35
        },
        {
          "id": "900000073472044",
          "stationId": "900000073472044",
          "nameZh": "薛家岛",
          "nameEn": "Xuejiadao",
          "target": "xuejiadao",
          "pinyin": "xuejiadao",
          "lat": 35.961575,
          "lon": 120.219133,
          "sequence": 36
        },
        {
          "id": "900000073472045",
          "stationId": "900000073472045",
          "nameZh": "丁家河",
          "nameEn": "Dingjiahe",
          "target": "dingjiahe",
          "pinyin": "dingjiahe",
          "lat": 35.958302,
          "lon": 120.200792,
          "sequence": 37
        },
        {
          "id": "900000071736003",
          "stationId": "900000071736003",
          "nameZh": "井冈山路",
          "nameEn": "Jinggangshan Road",
          "target": "jinggangshan road",
          "pinyin": "jinggangshanlu",
          "lat": 35.953437,
          "lon": 120.18763,
          "sequence": 38
        },
        {
          "id": "900000073472047",
          "stationId": "900000073472047",
          "nameZh": "太行山路",
          "nameEn": "Taihangshan Road",
          "target": "taihangshan road",
          "pinyin": "taihangshanlu",
          "lat": 35.950198,
          "lon": 120.179811,
          "sequence": 39
        },
        {
          "id": "900000073472048",
          "stationId": "900000073472048",
          "nameZh": "石油大学",
          "nameEn": "China University of Petroleum",
          "target": "china university of petroleum",
          "pinyin": "shiyoudaxue",
          "lat": 35.94546,
          "lon": 120.171996,
          "sequence": 40
        },
        {
          "id": "900000073472049",
          "stationId": "900000073472049",
          "nameZh": "王家港",
          "nameEn": "Wangjiagang",
          "target": "wangjiagang",
          "pinyin": "wangjiagang",
          "lat": 35.942382,
          "lon": 120.161956,
          "sequence": 41
        }
      ],
      "segments": [
        [
          "900000073472009",
          "900000073472010",
          "900000073472011",
          "900000073472012",
          "900000073472013",
          "900000073472014",
          "900000073472015",
          "900000073472016",
          "900000073472017",
          "900000073472018",
          "900000073472019",
          "900000073472020",
          "900000073472021",
          "900000073472022",
          "900000030289001",
          "900000073472024",
          "900000073472025",
          "900000073472026",
          "900000073472027",
          "900000073472028",
          "900000073472029",
          "900000071917007",
          "900000030291024",
          "900000073472032",
          "900000071917003",
          "900000073472034",
          "900000030289034",
          "900000073472036",
          "900000073472037",
          "900000073472038",
          "900000073472039",
          "900000073472040",
          "900000073472041",
          "900000073472042",
          "900000073472043",
          "900000073472044",
          "900000073472045",
          "900000071736003",
          "900000073472047",
          "900000073472048",
          "900000073472049"
        ]
      ]
    },
    {
      "id": "3702-2",
      "operatorId": "3702",
      "operatorName": "青岛地铁",
      "lineId": "2",
      "lineName": "2号线",
      "color": "#CC0000",
      "loop": false,
      "stations": [
        {
          "id": "900000030291001",
          "stationId": "900000030291001",
          "nameZh": "李村公园",
          "nameEn": "Licun Park",
          "target": "licun park",
          "pinyin": "licungongyuan",
          "lat": 36.167794,
          "lon": 120.425954,
          "sequence": 1
        },
        {
          "id": "900000030289005",
          "stationId": "900000030289005",
          "nameZh": "李村",
          "nameEn": "Licun",
          "target": "licun",
          "pinyin": "licun",
          "lat": 36.159067,
          "lon": 120.424747,
          "sequence": 2
        },
        {
          "id": "900000030291003",
          "stationId": "900000030291003",
          "nameZh": "枣山路",
          "nameEn": "Zaoshan Road",
          "target": "zaoshan road",
          "pinyin": "zaoshanlu",
          "lat": 36.153862,
          "lon": 120.433459,
          "sequence": 3
        },
        {
          "id": "900000030291004",
          "stationId": "900000030291004",
          "nameZh": "华楼山路",
          "nameEn": "Hualoushan Road",
          "target": "hualoushan road",
          "pinyin": "hualoushanlu",
          "lat": 36.149334,
          "lon": 120.439516,
          "sequence": 4
        },
        {
          "id": "900000030291005",
          "stationId": "900000030291005",
          "nameZh": "东韩",
          "nameEn": "Donghan",
          "target": "donghan",
          "pinyin": "donghan",
          "lat": 36.128291,
          "lon": 120.441927,
          "sequence": 5
        },
        {
          "id": "900000030291006",
          "stationId": "900000030291006",
          "nameZh": "辽阳东路",
          "nameEn": "Liaoyang East Road",
          "target": "liaoyang east road",
          "pinyin": "liaoyangdonglu",
          "lat": 36.117494,
          "lon": 120.45025,
          "sequence": 6
        },
        {
          "id": "900000030291007",
          "stationId": "900000030291007",
          "nameZh": "同安路",
          "nameEn": "Tong'an Road",
          "target": "tong'an road",
          "pinyin": "tonganlu",
          "lat": 36.111315,
          "lon": 120.455361,
          "sequence": 7
        },
        {
          "id": "900000030291008",
          "stationId": "900000030291008",
          "nameZh": "苗岭路",
          "nameEn": "Miaoling Road",
          "target": "miaoling road",
          "pinyin": "miaolinglu",
          "lat": 36.100537,
          "lon": 120.465017,
          "sequence": 8
        },
        {
          "id": "900000030291009",
          "stationId": "900000030291009",
          "nameZh": "石老人浴场",
          "nameEn": "Shilaoren Beach",
          "target": "shilaoren beach",
          "pinyin": "shilaorenyuchang",
          "lat": 36.093228,
          "lon": 120.464463,
          "sequence": 9
        },
        {
          "id": "900000030291010",
          "stationId": "900000030291010",
          "nameZh": "海安路",
          "nameEn": "Hai'an Road",
          "target": "hai'an road",
          "pinyin": "haianlu",
          "lat": 36.085683,
          "lon": 120.450859,
          "sequence": 10
        },
        {
          "id": "900000030291011",
          "stationId": "900000030291011",
          "nameZh": "海川路",
          "nameEn": "Haichuan Road",
          "target": "haichuan road",
          "pinyin": "haichuanlu",
          "lat": 36.076445,
          "lon": 120.443405,
          "sequence": 11
        },
        {
          "id": "900000030291012",
          "stationId": "900000030291012",
          "nameZh": "海游路",
          "nameEn": "Haiyou Road",
          "target": "haiyou road",
          "pinyin": "haiyoulu",
          "lat": 36.071724,
          "lon": 120.434638,
          "sequence": 12
        },
        {
          "id": "900000030291013",
          "stationId": "900000030291013",
          "nameZh": "麦岛",
          "nameEn": "Maidao",
          "target": "maidao",
          "pinyin": "maidao",
          "lat": 36.066093,
          "lon": 120.423198,
          "sequence": 13
        },
        {
          "id": "900000030291014",
          "stationId": "900000030291014",
          "nameZh": "高雄路",
          "nameEn": "Gaoxiong Road",
          "target": "gaoxiong road",
          "pinyin": "gaoxionglu",
          "lat": 36.066133,
          "lon": 120.410706,
          "sequence": 14
        },
        {
          "id": "900000030291015",
          "stationId": "900000030291015",
          "nameZh": "燕儿岛路",
          "nameEn": "Yan'erdao Road",
          "target": "yan'erdao road",
          "pinyin": "yanerdaolu",
          "lat": 36.064963,
          "lon": 120.401596,
          "sequence": 15
        },
        {
          "id": "900000030291016",
          "stationId": "900000030291016",
          "nameZh": "浮山所",
          "nameEn": "Fushansuo",
          "target": "fushansuo",
          "pinyin": "fushansuo",
          "lat": 36.065735,
          "lon": 120.390666,
          "sequence": 16
        },
        {
          "id": "900000030289028",
          "stationId": "900000030289028",
          "nameZh": "五四广场",
          "nameEn": "May 4th Square",
          "target": "may 4th square",
          "pinyin": "wusiguangchang",
          "lat": 36.06475,
          "lon": 120.380343,
          "sequence": 17
        },
        {
          "id": "900000030291018",
          "stationId": "900000030291018",
          "nameZh": "芝泉路",
          "nameEn": "Zhiquan Road",
          "target": "zhiquan road",
          "pinyin": "zhiquanlu",
          "lat": 36.069496,
          "lon": 120.36859,
          "sequence": 18
        },
        {
          "id": "900000030291023",
          "stationId": "900000030291023",
          "nameZh": "海信桥",
          "nameEn": "Haixin Bridge",
          "target": "haixin bridge",
          "pinyin": "haixinqiao",
          "lat": 36.075828,
          "lon": 120.363368,
          "sequence": 19
        },
        {
          "id": "900000030291024",
          "stationId": "900000030291024",
          "nameZh": "台东",
          "nameEn": "Taidong",
          "target": "taidong",
          "pinyin": "taidong",
          "lat": 36.0822,
          "lon": 120.35412,
          "sequence": 20
        },
        {
          "id": "900000030291025",
          "stationId": "900000030291025",
          "nameZh": "利津路",
          "nameEn": "Lijin Road",
          "target": "lijin road",
          "pinyin": "lijinlu",
          "lat": 36.082639,
          "lon": 120.346366,
          "sequence": 21
        },
        {
          "id": "900000030291026",
          "stationId": "900000030291026",
          "nameZh": "泰山路",
          "nameEn": "Taishan Road",
          "target": "taishan road",
          "pinyin": "taishanlu",
          "lat": 36.082818,
          "lon": 120.333434,
          "sequence": 22
        },
        {
          "id": "900000030291027",
          "stationId": "900000030291027",
          "nameZh": "国际邮轮港",
          "nameEn": "Guoji Youlungang",
          "target": "guoji youlungang",
          "pinyin": "guojiyoulungang",
          "lat": 36.084751,
          "lon": 120.322822,
          "sequence": 23
        },
        {
          "id": "900000030291028",
          "stationId": "900000030291028",
          "nameZh": "小港",
          "nameEn": "Xiaogang",
          "target": "xiaogang",
          "pinyin": "xiaogang",
          "lat": 36.077849,
          "lon": 120.318877,
          "sequence": 24
        },
        {
          "id": "900000030291029",
          "stationId": "900000030291029",
          "nameZh": "四川路(轮渡)",
          "nameEn": "Sichuanlu (lundu)",
          "target": "sichuanlu lundu",
          "pinyin": "sichuanlulundu",
          "lat": 36.067406,
          "lon": 120.303666,
          "sequence": 25
        }
      ],
      "segments": [
        [
          "900000030291001",
          "900000030289005",
          "900000030291003",
          "900000030291004",
          "900000030291005",
          "900000030291006",
          "900000030291007",
          "900000030291008",
          "900000030291009",
          "900000030291010",
          "900000030291011",
          "900000030291012",
          "900000030291013",
          "900000030291014",
          "900000030291015",
          "900000030291016",
          "900000030289028",
          "900000030291018",
          "900000030291023",
          "900000030291024",
          "900000030291025",
          "900000030291026",
          "900000030291027",
          "900000030291028",
          "900000030291029"
        ]
      ]
    },
    {
      "id": "3702-3",
      "operatorId": "3702",
      "operatorName": "青岛地铁",
      "lineId": "3",
      "lineName": "3号线",
      "color": "#0065B3",
      "loop": false,
      "stations": [
        {
          "id": "900000030289001",
          "stationId": "900000030289001",
          "nameZh": "青岛北站",
          "nameEn": "Qingdao North Railway Station",
          "target": "qingdao north railway station",
          "pinyin": "qingdaobeizhan",
          "lat": 36.169798,
          "lon": 120.377367,
          "sequence": 1
        },
        {
          "id": "900000030289002",
          "stationId": "900000030289002",
          "nameZh": "永平路",
          "nameEn": "Yongping Road",
          "target": "yongping road",
          "pinyin": "yongpinglu",
          "lat": 36.172198,
          "lon": 120.393108,
          "sequence": 2
        },
        {
          "id": "900000030289003",
          "stationId": "900000030289003",
          "nameZh": "振华路",
          "nameEn": "Zhenhua Road",
          "target": "zhenhua road",
          "pinyin": "zhenhualu",
          "lat": 36.169204,
          "lon": 120.405921,
          "sequence": 3
        },
        {
          "id": "900000030289004",
          "stationId": "900000030289004",
          "nameZh": "君峰路",
          "nameEn": "Junfeng Road",
          "target": "junfeng road",
          "pinyin": "junfenglu",
          "lat": 36.164622,
          "lon": 120.414861,
          "sequence": 4
        },
        {
          "id": "900000030289005",
          "stationId": "900000030289005",
          "nameZh": "李村",
          "nameEn": "Licun",
          "target": "licun",
          "pinyin": "licun",
          "lat": 36.159067,
          "lon": 120.424747,
          "sequence": 5
        },
        {
          "id": "900000030289006",
          "stationId": "900000030289006",
          "nameZh": "万年泉路",
          "nameEn": "Wannianquan Road",
          "target": "wannianquan road",
          "pinyin": "wannianquanlu",
          "lat": 36.148605,
          "lon": 120.427661,
          "sequence": 6
        },
        {
          "id": "900000030289007",
          "stationId": "900000030289007",
          "nameZh": "海尔路",
          "nameEn": "Hai'er Road",
          "target": "hai'er road",
          "pinyin": "haierlu",
          "lat": 36.137111,
          "lon": 120.423208,
          "sequence": 7
        },
        {
          "id": "900000030289008",
          "stationId": "900000030289008",
          "nameZh": "地铁大厦",
          "nameEn": "Metro Building",
          "target": "metro building",
          "pinyin": "ditiedasha",
          "lat": 36.130893,
          "lon": 120.414359,
          "sequence": 8
        },
        {
          "id": "900000030289009",
          "stationId": "900000030289009",
          "nameZh": "长沙路",
          "nameEn": "Changsha Road",
          "target": "changsha road",
          "pinyin": "changshalu",
          "lat": 36.120809,
          "lon": 120.403261,
          "sequence": 9
        },
        {
          "id": "900000030289010",
          "stationId": "900000030289010",
          "nameZh": "双山",
          "nameEn": "Shuangshan",
          "target": "shuangshan",
          "pinyin": "shuangshan",
          "lat": 36.11428,
          "lon": 120.397406,
          "sequence": 10
        },
        {
          "id": "900000030289023",
          "stationId": "900000030289023",
          "nameZh": "清江路",
          "nameEn": "Qingjiang Road",
          "target": "qingjiang road",
          "pinyin": "qingjianglu",
          "lat": 36.106869,
          "lon": 120.387296,
          "sequence": 11
        },
        {
          "id": "900000030289024",
          "stationId": "900000030289024",
          "nameZh": "错埠岭",
          "nameEn": "Cuobuling",
          "target": "cuobuling",
          "pinyin": "cuobuling",
          "lat": 36.095896,
          "lon": 120.385383,
          "sequence": 12
        },
        {
          "id": "900000030289025",
          "stationId": "900000030289025",
          "nameZh": "敦化路",
          "nameEn": "Dunhua Road",
          "target": "dunhua road",
          "pinyin": "dunhualu",
          "lat": 36.088765,
          "lon": 120.385321,
          "sequence": 13
        },
        {
          "id": "900000030289026",
          "stationId": "900000030289026",
          "nameZh": "宁夏路",
          "nameEn": "Ningxia Road",
          "target": "ningxia road",
          "pinyin": "ningxialu",
          "lat": 36.081741,
          "lon": 120.385691,
          "sequence": 14
        },
        {
          "id": "900000030289027",
          "stationId": "900000030289027",
          "nameZh": "江西路",
          "nameEn": "Jiangxi Road",
          "target": "jiangxi road",
          "pinyin": "jiangxilu",
          "lat": 36.073635,
          "lon": 120.388271,
          "sequence": 15
        },
        {
          "id": "900000030289028",
          "stationId": "900000030289028",
          "nameZh": "五四广场",
          "nameEn": "May 4th Square",
          "target": "may 4th square",
          "pinyin": "wusiguangchang",
          "lat": 36.06475,
          "lon": 120.380343,
          "sequence": 16
        },
        {
          "id": "900000030289029",
          "stationId": "900000030289029",
          "nameZh": "延安三路",
          "nameEn": "Yan'an 3rd Road",
          "target": "yan'an 3rd road",
          "pinyin": "yanansanlu",
          "lat": 36.06074,
          "lon": 120.373767,
          "sequence": 17
        },
        {
          "id": "900000030289030",
          "stationId": "900000030289030",
          "nameZh": "太平角公园",
          "nameEn": "Taipingjiao Park",
          "target": "taipingjiao park",
          "pinyin": "taipingjiaogongyuan",
          "lat": 36.053773,
          "lon": 120.359654,
          "sequence": 18
        },
        {
          "id": "900000030289031",
          "stationId": "900000030289031",
          "nameZh": "中山公园",
          "nameEn": "Zhongshan Park",
          "target": "zhongshan park",
          "pinyin": "zhongshangongyuan",
          "lat": 36.058342,
          "lon": 120.351805,
          "sequence": 19
        },
        {
          "id": "900000030289032",
          "stationId": "900000030289032",
          "nameZh": "汇泉广场",
          "nameEn": "Huiquan Square",
          "target": "huiquan square",
          "pinyin": "huiquanguangchang",
          "lat": 36.059678,
          "lon": 120.3433,
          "sequence": 20
        },
        {
          "id": "900000030289033",
          "stationId": "900000030289033",
          "nameZh": "人民会堂",
          "nameEn": "Hall of the People",
          "target": "hall of the people",
          "pinyin": "renminhuitang",
          "lat": 36.059871,
          "lon": 120.329579,
          "sequence": 21
        },
        {
          "id": "900000030289034",
          "stationId": "900000030289034",
          "nameZh": "青岛站",
          "nameEn": "Qingdao Railway Station",
          "target": "qingdao railway station",
          "pinyin": "qingdaozhan",
          "lat": 36.064191,
          "lon": 120.314566,
          "sequence": 22
        }
      ],
      "segments": [
        [
          "900000030289001",
          "900000030289002",
          "900000030289003",
          "900000030289004",
          "900000030289005",
          "900000030289006",
          "900000030289007",
          "900000030289008",
          "900000030289009",
          "900000030289010",
          "900000030289023",
          "900000030289024",
          "900000030289025",
          "900000030289026",
          "900000030289027",
          "900000030289028",
          "900000030289029",
          "900000030289030",
          "900000030289031",
          "900000030289032",
          "900000030289033",
          "900000030289034"
        ]
      ]
    },
    {
      "id": "3702-4",
      "operatorId": "3702",
      "operatorName": "青岛地铁",
      "lineId": "4",
      "lineName": "4号线",
      "color": "#018237",
      "loop": false,
      "stations": [
        {
          "id": "900000030289033",
          "stationId": "900000030289033",
          "nameZh": "人民会堂",
          "nameEn": "Hall of the People",
          "target": "hall of the people",
          "pinyin": "renminhuitang",
          "lat": 36.059871,
          "lon": 120.329579,
          "sequence": 1
        },
        {
          "id": "900000071917002",
          "stationId": "900000071917002",
          "nameZh": "信号山(青大附院)",
          "nameEn": "Xinhaoshan (qingda Fuyuan)",
          "target": "xinhaoshan qingda fuyuan",
          "pinyin": "xinhaoshanqingdafuyuan",
          "lat": 36.065641,
          "lon": 120.32769,
          "sequence": 2
        },
        {
          "id": "900000071917003",
          "stationId": "900000071917003",
          "nameZh": "观象山(市立医院)",
          "nameEn": "Guan Xiangshan (shili Yiyuan)",
          "target": "guan xiangshan shili yiyuan",
          "pinyin": "guanxiangshanshiliyiyuan",
          "lat": 36.073089,
          "lon": 120.329802,
          "sequence": 3
        },
        {
          "id": "900000030291026",
          "stationId": "900000030291026",
          "nameZh": "泰山路",
          "nameEn": "Taishan Road",
          "target": "taishan road",
          "pinyin": "taishanlu",
          "lat": 36.082818,
          "lon": 120.333434,
          "sequence": 4
        },
        {
          "id": "900000071917005",
          "stationId": "900000071917005",
          "nameZh": "昌乐路",
          "nameEn": "Changle Road",
          "target": "changle road",
          "pinyin": "changlelu",
          "lat": 36.086601,
          "lon": 120.343407,
          "sequence": 5
        },
        {
          "id": "900000071917006",
          "stationId": "900000071917006",
          "nameZh": "海泊河公园",
          "nameEn": "Haipohe Park",
          "target": "haipohe park",
          "pinyin": "haibohegongyuan",
          "lat": 36.096556,
          "lon": 120.351285,
          "sequence": 6
        },
        {
          "id": "900000071917007",
          "stationId": "900000071917007",
          "nameZh": "海泊桥(海慈医疗)",
          "nameEn": "Haibo Qiao (haici Yiliao)",
          "target": "haibo qiao haici yiliao",
          "pinyin": "haiboqiaohaiciyiliao",
          "lat": 36.094558,
          "lon": 120.361391,
          "sequence": 7
        },
        {
          "id": "900000071917008",
          "stationId": "900000071917008",
          "nameZh": "西吴家村",
          "nameEn": "Xiwujiacun",
          "target": "xiwujiacun",
          "pinyin": "xiwujiacun",
          "lat": 36.095205,
          "lon": 120.371842,
          "sequence": 8
        },
        {
          "id": "900000030289024",
          "stationId": "900000030289024",
          "nameZh": "错埠岭",
          "nameEn": "Cuobuling",
          "target": "cuobuling",
          "pinyin": "cuobuling",
          "lat": 36.095896,
          "lon": 120.385383,
          "sequence": 9
        },
        {
          "id": "900000071917010",
          "stationId": "900000071917010",
          "nameZh": "福辽立交桥",
          "nameEn": "Fuliao Flyover",
          "target": "fuliao flyover",
          "pinyin": "fuliaolijiaoqiao",
          "lat": 36.096339,
          "lon": 120.395601,
          "sequence": 10
        },
        {
          "id": "900000071917011",
          "stationId": "900000071917011",
          "nameZh": "洪山坡(妇儿医院)",
          "nameEn": "Hongshan Po (fuer Yiyuan)",
          "target": "hongshan po fuer yiyuan",
          "pinyin": "hongshanpofueryiyuan",
          "lat": 36.099165,
          "lon": 120.403169,
          "sequence": 11
        },
        {
          "id": "900000071917012",
          "stationId": "900000071917012",
          "nameZh": "劲松三路",
          "nameEn": "Jingsong 3rd Road",
          "target": "jingsong 3rd road",
          "pinyin": "jingsongsanlu",
          "lat": 36.10511,
          "lon": 120.41637,
          "sequence": 12
        },
        {
          "id": "900000071917013",
          "stationId": "900000071917013",
          "nameZh": "埠西",
          "nameEn": "Buxi",
          "target": "buxi",
          "pinyin": "buxi",
          "lat": 36.106268,
          "lon": 120.425463,
          "sequence": 13
        },
        {
          "id": "900000071917014",
          "stationId": "900000071917014",
          "nameZh": "大埠东",
          "nameEn": "Dabudong",
          "target": "dabudong",
          "pinyin": "dabudong",
          "lat": 36.111578,
          "lon": 120.436536,
          "sequence": 14
        },
        {
          "id": "900000030291006",
          "stationId": "900000030291006",
          "nameZh": "辽阳东路",
          "nameEn": "Liaoyang East Road",
          "target": "liaoyang east road",
          "pinyin": "liaoyangdonglu",
          "lat": 36.117494,
          "lon": 120.45025,
          "sequence": 15
        },
        {
          "id": "900000071917016",
          "stationId": "900000071917016",
          "nameZh": "董家下庄",
          "nameEn": "Dongjia Xiazhuang",
          "target": "dongjia xiazhuang",
          "pinyin": "dongjiaxiazhuang",
          "lat": 36.125744,
          "lon": 120.461546,
          "sequence": 16
        },
        {
          "id": "900000071917017",
          "stationId": "900000071917017",
          "nameZh": "科苑经七路",
          "nameEn": "Keyuanjing 7th Road",
          "target": "keyuanjing 7th road",
          "pinyin": "keyuanjingqilu",
          "lat": 36.135277,
          "lon": 120.46657,
          "sequence": 17
        },
        {
          "id": "900000071655005",
          "stationId": "900000071655005",
          "nameZh": "张村",
          "nameEn": "Zhangcun",
          "target": "zhangcun",
          "pinyin": "zhangcun",
          "lat": 36.141194,
          "lon": 120.485492,
          "sequence": 18
        },
        {
          "id": "900000071917019",
          "stationId": "900000071917019",
          "nameZh": "彭家庄",
          "nameEn": "Pengjiazhuang",
          "target": "pengjiazhuang",
          "pinyin": "pengjiazhuang",
          "lat": 36.136495,
          "lon": 120.501989,
          "sequence": 19
        },
        {
          "id": "900000071917020",
          "stationId": "900000071917020",
          "nameZh": "南宅科",
          "nameEn": "Nanzhaike",
          "target": "nanzhaike",
          "pinyin": "nanzhaike",
          "lat": 36.131015,
          "lon": 120.521436,
          "sequence": 20
        },
        {
          "id": "900000071917021",
          "stationId": "900000071917021",
          "nameZh": "小崂山",
          "nameEn": "Xiaolaoshan",
          "target": "xiaolaoshan",
          "pinyin": "xiaolaoshan",
          "lat": 36.122696,
          "lon": 120.532597,
          "sequence": 21
        },
        {
          "id": "900000071917022",
          "stationId": "900000071917022",
          "nameZh": "沙子口",
          "nameEn": "Shazikou",
          "target": "shazikou",
          "pinyin": "shazikou",
          "lat": 36.118575,
          "lon": 120.544262,
          "sequence": 22
        },
        {
          "id": "900000071917023",
          "stationId": "900000071917023",
          "nameZh": "段家埠",
          "nameEn": "Duanjiabu",
          "target": "duanjiabu",
          "pinyin": "duanjiabu",
          "lat": 36.124311,
          "lon": 120.555723,
          "sequence": 23
        },
        {
          "id": "900000071917024",
          "stationId": "900000071917024",
          "nameZh": "登瀛",
          "nameEn": "Dengying",
          "target": "dengying",
          "pinyin": "dengying",
          "lat": 36.133254,
          "lon": 120.574385,
          "sequence": 24
        },
        {
          "id": "900000071917025",
          "stationId": "900000071917025",
          "nameZh": "大河东",
          "nameEn": "Dahedong",
          "target": "dahedong",
          "pinyin": "dahedong",
          "lat": 36.131374,
          "lon": 120.585956,
          "sequence": 25
        }
      ],
      "segments": [
        [
          "900000030289033",
          "900000071917002",
          "900000071917003",
          "900000030291026",
          "900000071917005",
          "900000071917006",
          "900000071917007",
          "900000071917008",
          "900000030289024",
          "900000071917010",
          "900000071917011",
          "900000071917012",
          "900000071917013",
          "900000071917014",
          "900000030291006",
          "900000071917016",
          "900000071917017",
          "900000071655005",
          "900000071917019",
          "900000071917020",
          "900000071917021",
          "900000071917022",
          "900000071917023",
          "900000071917024",
          "900000071917025"
        ]
      ]
    },
    {
      "id": "3702-6",
      "operatorId": "3702",
      "operatorName": "青岛地铁",
      "lineId": "6",
      "lineName": "6号线",
      "color": "#3080B7",
      "loop": false,
      "stations": [
        {
          "id": "900000156786001",
          "stationId": "900000156786001",
          "nameZh": "灵山湾",
          "nameEn": "Lingshan Bay",
          "target": "lingshan bay",
          "pinyin": "lingshanwan",
          "lat": 35.891973,
          "lon": 120.082194,
          "sequence": 1
        },
        {
          "id": "900000071736008",
          "stationId": "900000071736008",
          "nameZh": "辛屯",
          "nameEn": "Xintun",
          "target": "xintun",
          "pinyin": "xintun",
          "lat": 35.899779,
          "lon": 120.087138,
          "sequence": 2
        },
        {
          "id": "900000156786003",
          "stationId": "900000156786003",
          "nameZh": "华山",
          "nameEn": "Huashan",
          "target": "huashan",
          "pinyin": "huashan",
          "lat": 35.908847,
          "lon": 120.080803,
          "sequence": 3
        },
        {
          "id": "900000156786004",
          "stationId": "900000156786004",
          "nameZh": "星海滩路",
          "nameEn": "Xinghaitan Road",
          "target": "xinghaitan road",
          "pinyin": "xinghaitanlu",
          "lat": 35.916699,
          "lon": 120.083701,
          "sequence": 4
        },
        {
          "id": "900000156786005",
          "stationId": "900000156786005",
          "nameZh": "赵家庙(影视产业园)",
          "nameEn": "Zhaojiamiao (yingshi Chanyeyuan)",
          "target": "zhaojiamiao yingshi chanyeyuan",
          "pinyin": "zhaojiamiaoyingshichanyeyuan",
          "lat": 35.924911,
          "lon": 120.102373,
          "sequence": 5
        },
        {
          "id": "900000156786006",
          "stationId": "900000156786006",
          "nameZh": "毛家山(黄海学院)",
          "nameEn": "Maojia Shan (huanghai Xueyuan)",
          "target": "maojia shan huanghai xueyuan",
          "pinyin": "maojiashanhuanghaixueyuan",
          "lat": 35.928434,
          "lon": 120.114334,
          "sequence": 6
        },
        {
          "id": "900000156786007",
          "stationId": "900000156786007",
          "nameZh": "西门外",
          "nameEn": "Ximenwai",
          "target": "ximenwai",
          "pinyin": "ximenwai",
          "lat": 35.934633,
          "lon": 120.124969,
          "sequence": 7
        },
        {
          "id": "900000156786008",
          "stationId": "900000156786008",
          "nameZh": "北门外",
          "nameEn": "Beimenwai",
          "target": "beimenwai",
          "pinyin": "beimenwai",
          "lat": 35.937635,
          "lon": 120.136703,
          "sequence": 8
        },
        {
          "id": "900000073472049",
          "stationId": "900000073472049",
          "nameZh": "王家港",
          "nameEn": "Wangjiagang",
          "target": "wangjiagang",
          "pinyin": "wangjiagang",
          "lat": 35.942382,
          "lon": 120.161956,
          "sequence": 9
        },
        {
          "id": "900000156786010",
          "stationId": "900000156786010",
          "nameZh": "九顶山",
          "nameEn": "Jiudingshan",
          "target": "jiudingshan",
          "pinyin": "jiudingshan",
          "lat": 35.953758,
          "lon": 120.16611,
          "sequence": 10
        },
        {
          "id": "900000156786011",
          "stationId": "900000156786011",
          "nameZh": "钱塘江路(青职学院)",
          "nameEn": "Qiantangjiang Lu (qingzhi Xueyuan)",
          "target": "qiantangjiang lu qingzhi xueyuan",
          "pinyin": "qiantangjiangluqingzhixueyuan",
          "lat": 35.968049,
          "lon": 120.16329,
          "sequence": 11
        },
        {
          "id": "900000156786012",
          "stationId": "900000156786012",
          "nameZh": "扒山(滨海学院)",
          "nameEn": "Ba Shan (binhai Xueyuan)",
          "target": "ba shan binhai xueyuan",
          "pinyin": "bashanbinhaixueyuan",
          "lat": 35.980485,
          "lon": 120.159899,
          "sequence": 12
        },
        {
          "id": "900000156786013",
          "stationId": "900000156786013",
          "nameZh": "青大附院西海岸院区",
          "nameEn": "West Coast Campus of the Affiliated Hospital of Qingdao University",
          "target": "west coast campus of the affiliated hospital of qingdao university",
          "pinyin": "qingdafuyuanxihaianyuanqu",
          "lat": 35.988205,
          "lon": 120.158053,
          "sequence": 13
        },
        {
          "id": "900000156786014",
          "stationId": "900000156786014",
          "nameZh": "港头",
          "nameEn": "Gangtou",
          "target": "gangtou",
          "pinyin": "gangtou",
          "lat": 36.006132,
          "lon": 120.165134,
          "sequence": 14
        },
        {
          "id": "900000156786015",
          "stationId": "900000156786015",
          "nameZh": "薛家泊子",
          "nameEn": "Xuejiapozi",
          "target": "xuejiapozi",
          "pinyin": "xuejiapozi",
          "lat": 36.022032,
          "lon": 120.161798,
          "sequence": 15
        },
        {
          "id": "900000156786016",
          "stationId": "900000156786016",
          "nameZh": "马家楼",
          "nameEn": "Majialou",
          "target": "majialou",
          "pinyin": "majialou",
          "lat": 36.036069,
          "lon": 120.162481,
          "sequence": 16
        },
        {
          "id": "900000156786017",
          "stationId": "900000156786017",
          "nameZh": "抓马山",
          "nameEn": "Zhuamashan",
          "target": "zhuamashan",
          "pinyin": "zhuamashan",
          "lat": 36.047969,
          "lon": 120.152599,
          "sequence": 17
        },
        {
          "id": "900000156786018",
          "stationId": "900000156786018",
          "nameZh": "青岛九中(幸福小镇)",
          "nameEn": "Qingdao Jiuzhong (xingfu Xiaozhen)",
          "target": "qingdao jiuzhong xingfu xiaozhen",
          "pinyin": "qingdaojiuzhongxingfuxiaozhen",
          "lat": 36.057647,
          "lon": 120.144524,
          "sequence": 18
        },
        {
          "id": "900000156786019",
          "stationId": "900000156786019",
          "nameZh": "河洛埠(中德生态园)",
          "nameEn": "Heluobu (zhongde Shengtaiyuan)",
          "target": "heluobu zhongde shengtaiyuan",
          "pinyin": "heluobuzhongdeshengtaiyuan",
          "lat": 36.061656,
          "lon": 120.124682,
          "sequence": 19
        },
        {
          "id": "900000156786020",
          "stationId": "900000156786020",
          "nameZh": "山王河(福莱社区)",
          "nameEn": "Shan Wanghe (fulai Shequ)",
          "target": "shan wanghe fulai shequ",
          "pinyin": "shanwanghefulaishequ",
          "lat": 36.06308,
          "lon": 120.113314,
          "sequence": 20
        },
        {
          "id": "900000156786021",
          "stationId": "900000156786021",
          "nameZh": "横云山路",
          "nameEn": "Hengyunshan Road",
          "target": "hengyunshan road",
          "pinyin": "hengyunshanlu",
          "lat": 36.066882,
          "lon": 120.096601,
          "sequence": 21
        }
      ],
      "segments": [
        [
          "900000156786001",
          "900000071736008",
          "900000156786003",
          "900000156786004",
          "900000156786005",
          "900000156786006",
          "900000156786007",
          "900000156786008",
          "900000073472049",
          "900000156786010",
          "900000156786011",
          "900000156786012",
          "900000156786013",
          "900000156786014",
          "900000156786015",
          "900000156786016",
          "900000156786017",
          "900000156786018",
          "900000156786019",
          "900000156786020",
          "900000156786021"
        ]
      ]
    },
    {
      "id": "3702-8",
      "operatorId": "3702",
      "operatorName": "青岛地铁",
      "lineId": "8",
      "lineName": "8号线",
      "color": "#D10195",
      "loop": false,
      "stations": [
        {
          "id": "900000154759001",
          "stationId": "900000154759001",
          "nameZh": "胶州北站",
          "nameEn": "Jiaozhou North Railway Station",
          "target": "jiaozhou north railway station",
          "pinyin": "jiaozhoubeizhan",
          "lat": 36.395171,
          "lon": 120.054984,
          "sequence": 1
        },
        {
          "id": "900000154759002",
          "stationId": "900000154759002",
          "nameZh": "胶东机场",
          "nameEn": "Jiaodong International Airport",
          "target": "jiaodong international airport",
          "pinyin": "jiaodongjichang",
          "lat": 36.359524,
          "lon": 120.095157,
          "sequence": 2
        },
        {
          "id": "900000154759003",
          "stationId": "900000154759003",
          "nameZh": "胶东",
          "nameEn": "Jiaodong",
          "target": "jiaodong",
          "pinyin": "jiaodong",
          "lat": 36.313674,
          "lon": 120.117612,
          "sequence": 3
        },
        {
          "id": "900000154759004",
          "stationId": "900000154759004",
          "nameZh": "大涧",
          "nameEn": "Dajian",
          "target": "dajian",
          "pinyin": "dajian",
          "lat": 36.258791,
          "lon": 120.161375,
          "sequence": 4
        },
        {
          "id": "900000154759005",
          "stationId": "900000154759005",
          "nameZh": "红岛火车站",
          "nameEn": "Hongdao Railway Station",
          "target": "hongdao railway station",
          "pinyin": "hongdaohuochezhan",
          "lat": 36.248873,
          "lon": 120.19088,
          "sequence": 5
        },
        {
          "id": "900000154759006",
          "stationId": "900000154759006",
          "nameZh": "健康中心",
          "nameEn": "Health Center",
          "target": "health center",
          "pinyin": "jiankangzhongxin",
          "lat": 36.23092,
          "lon": 120.199717,
          "sequence": 6
        },
        {
          "id": "900000154759007",
          "stationId": "900000154759007",
          "nameZh": "健身中心(红岛会展)",
          "nameEn": "Jianshen Zhongxin (hongdao Huizhan)",
          "target": "jianshen zhongxin hongdao huizhan",
          "pinyin": "jianshenzhongxinhongdaohuizhan",
          "lat": 36.233597,
          "lon": 120.215413,
          "sequence": 7
        },
        {
          "id": "900000154759008",
          "stationId": "900000154759008",
          "nameZh": "观涛",
          "nameEn": "Guantao",
          "target": "guantao",
          "pinyin": "guantao",
          "lat": 36.208281,
          "lon": 120.244075,
          "sequence": 8
        },
        {
          "id": "900000154759009",
          "stationId": "900000154759009",
          "nameZh": "红岛科技馆(方特)",
          "nameEn": "Hongdao Kejiguan (fangte)",
          "target": "hongdao kejiguan fangte",
          "pinyin": "hongdaokejiguanfangte",
          "lat": 36.200805,
          "lon": 120.272952,
          "sequence": 9
        },
        {
          "id": "900000154759010",
          "stationId": "900000154759010",
          "nameZh": "大洋",
          "nameEn": "Dayang",
          "target": "dayang",
          "pinyin": "dayang",
          "lat": 36.193053,
          "lon": 120.288786,
          "sequence": 10
        },
        {
          "id": "900000030289001",
          "stationId": "900000030289001",
          "nameZh": "青岛北站",
          "nameEn": "Qingdao North Railway Station",
          "target": "qingdao north railway station",
          "pinyin": "qingdaobeizhan",
          "lat": 36.169798,
          "lon": 120.377367,
          "sequence": 11
        }
      ],
      "segments": [
        [
          "900000154759001",
          "900000154759002",
          "900000154759003",
          "900000154759004",
          "900000154759005",
          "900000154759006",
          "900000154759007",
          "900000154759008",
          "900000154759009",
          "900000154759010",
          "900000030289001"
        ]
      ]
    },
    {
      "id": "3702-蓝谷",
      "operatorId": "3702",
      "operatorName": "青岛地铁",
      "lineId": "蓝谷",
      "lineName": "蓝谷快线",
      "color": "#2249A3",
      "loop": false,
      "stations": [
        {
          "id": "900000030291008",
          "stationId": "900000030291008",
          "nameZh": "苗岭路",
          "nameEn": "Miaoling Road",
          "target": "miaoling road",
          "pinyin": "miaolinglu",
          "lat": 36.100537,
          "lon": 120.465017,
          "sequence": 1
        },
        {
          "id": "900000071655002",
          "stationId": "900000071655002",
          "nameZh": "会展中心",
          "nameEn": "Huizhan Zhongxin",
          "target": "huizhan zhongxin",
          "pinyin": "huizhanzhongxin",
          "lat": 36.102982,
          "lon": 120.474342,
          "sequence": 2
        },
        {
          "id": "900000071655003",
          "stationId": "900000071655003",
          "nameZh": "青岛二中",
          "nameEn": "Qingdao Erzhong",
          "target": "qingdao erzhong",
          "pinyin": "qingdaoerzhong",
          "lat": 36.110488,
          "lon": 120.480684,
          "sequence": 3
        },
        {
          "id": "900000071655004",
          "stationId": "900000071655004",
          "nameZh": "青岛科大",
          "nameEn": "Qingdao Keda",
          "target": "qingdao keda",
          "pinyin": "qingdaokeda",
          "lat": 36.124174,
          "lon": 120.485288,
          "sequence": 4
        },
        {
          "id": "900000071655005",
          "stationId": "900000071655005",
          "nameZh": "张村",
          "nameEn": "Zhangcun",
          "target": "zhangcun",
          "pinyin": "zhangcun",
          "lat": 36.141194,
          "lon": 120.485492,
          "sequence": 5
        },
        {
          "id": "900000071655006",
          "stationId": "900000071655006",
          "nameZh": "枯桃",
          "nameEn": "Ku Tao",
          "target": "ku tao",
          "pinyin": "kutao",
          "lat": 36.148082,
          "lon": 120.487154,
          "sequence": 6
        },
        {
          "id": "900000071655007",
          "stationId": "900000071655007",
          "nameZh": "海洋大学",
          "nameEn": "Haiyang Daxue",
          "target": "haiyang daxue",
          "pinyin": "haiyangdaxue",
          "lat": 36.165085,
          "lon": 120.49475,
          "sequence": 7
        },
        {
          "id": "900000071655008",
          "stationId": "900000071655008",
          "nameZh": "世博园",
          "nameEn": "International Horticulture Expo Garden",
          "target": "international horticulture expo garden",
          "pinyin": "shiboyuan",
          "lat": 36.185499,
          "lon": 120.511371,
          "sequence": 8
        },
        {
          "id": "900000071655009",
          "stationId": "900000071655009",
          "nameZh": "北宅",
          "nameEn": "Beizhai",
          "target": "beizhai",
          "pinyin": "beizhai",
          "lat": 36.213769,
          "lon": 120.534674,
          "sequence": 9
        },
        {
          "id": "900000071655010",
          "stationId": "900000071655010",
          "nameZh": "北九水",
          "nameEn": "Beijiushui",
          "target": "beijiushui",
          "pinyin": "beijiushui",
          "lat": 36.238526,
          "lon": 120.558835,
          "sequence": 10
        },
        {
          "id": "900000071655011",
          "stationId": "900000071655011",
          "nameZh": "庙石",
          "nameEn": "Miaoshi",
          "target": "miaoshi",
          "pinyin": "miaoshi",
          "lat": 36.284339,
          "lon": 120.606377,
          "sequence": 11
        },
        {
          "id": "900000071655012",
          "stationId": "900000071655012",
          "nameZh": "浦里",
          "nameEn": "Puli",
          "target": "puli",
          "pinyin": "puli",
          "lat": 36.306308,
          "lon": 120.628101,
          "sequence": 12
        },
        {
          "id": "900000071655013",
          "stationId": "900000071655013",
          "nameZh": "鳌山卫",
          "nameEn": "Ao Shan Wei",
          "target": "ao shan wei",
          "pinyin": "aoshanwei",
          "lat": 36.34899,
          "lon": 120.660868,
          "sequence": 13
        },
        {
          "id": "900000071655014",
          "stationId": "900000071655014",
          "nameZh": "山东大学",
          "nameEn": "Shandong Daxue",
          "target": "shandong daxue",
          "pinyin": "shandongdaxue",
          "lat": 36.368994,
          "lon": 120.678584,
          "sequence": 14
        },
        {
          "id": "900000071655015",
          "stationId": "900000071655015",
          "nameZh": "蓝色硅谷",
          "nameEn": "Lanse Guigu",
          "target": "lanse guigu",
          "pinyin": "lanseguigu",
          "lat": 36.385219,
          "lon": 120.679277,
          "sequence": 15
        },
        {
          "id": "900000071655016",
          "stationId": "900000071655016",
          "nameZh": "水泊",
          "nameEn": "Shuipo",
          "target": "shuipo",
          "pinyin": "shuipo",
          "lat": 36.405207,
          "lon": 120.679767,
          "sequence": 16
        },
        {
          "id": "900000071655017",
          "stationId": "900000071655017",
          "nameZh": "博览中心",
          "nameEn": "Bolan Zhongxin",
          "target": "bolan zhongxin",
          "pinyin": "bolanzhongxin",
          "lat": 36.421087,
          "lon": 120.704481,
          "sequence": 17
        },
        {
          "id": "900000071655018",
          "stationId": "900000071655018",
          "nameZh": "温泉东",
          "nameEn": "Wenquan Dong",
          "target": "wenquan dong",
          "pinyin": "wenquandong",
          "lat": 36.444221,
          "lon": 120.702905,
          "sequence": 18
        },
        {
          "id": "900000071655019",
          "stationId": "900000071655019",
          "nameZh": "皋虞",
          "nameEn": "Gaoyu",
          "target": "gaoyu",
          "pinyin": "gaoyu",
          "lat": 36.464104,
          "lon": 120.710804,
          "sequence": 19
        },
        {
          "id": "900000071655020",
          "stationId": "900000071655020",
          "nameZh": "臧村",
          "nameEn": "Zangcun",
          "target": "zangcun",
          "pinyin": "zangcun",
          "lat": 36.468003,
          "lon": 120.73252,
          "sequence": 20
        },
        {
          "id": "900000071655021",
          "stationId": "900000071655021",
          "nameZh": "钱谷山",
          "nameEn": "Qian Gushan",
          "target": "qian gushan",
          "pinyin": "qiangushan",
          "lat": 36.479099,
          "lon": 120.760354,
          "sequence": 21
        }
      ],
      "segments": [
        [
          "900000030291008",
          "900000071655002",
          "900000071655003",
          "900000071655004",
          "900000071655005",
          "900000071655006",
          "900000071655007",
          "900000071655008",
          "900000071655009",
          "900000071655010",
          "900000071655011",
          "900000071655012",
          "900000071655013",
          "900000071655014",
          "900000071655015",
          "900000071655016",
          "900000071655017",
          "900000071655018",
          "900000071655019",
          "900000071655020",
          "900000071655021"
        ]
      ]
    },
    {
      "id": "3702-西海",
      "operatorId": "3702",
      "operatorName": "青岛地铁",
      "lineId": "西海",
      "lineName": "西海岸快线",
      "color": "#00AD8E",
      "loop": false,
      "stations": [
        {
          "id": "900000071736024",
          "stationId": "900000071736024",
          "nameZh": "嘉陵江西路",
          "nameEn": "Jialingjiang Xilu",
          "target": "jialingjiang xilu",
          "pinyin": "jialingjiangxilu",
          "lat": 35.975156,
          "lon": 120.178791,
          "sequence": 1
        },
        {
          "id": "900000071736025",
          "stationId": "900000071736025",
          "nameZh": "香江路",
          "nameEn": "Xiangjiang Lu",
          "target": "xiangjiang lu",
          "pinyin": "xiangjianglu",
          "lat": 35.966405,
          "lon": 120.186382,
          "sequence": 2
        },
        {
          "id": "900000071736003",
          "stationId": "900000071736003",
          "nameZh": "井冈山路",
          "nameEn": "Jinggangshan Road",
          "target": "jinggangshan road",
          "pinyin": "jinggangshanlu",
          "lat": 35.953437,
          "lon": 120.18763,
          "sequence": 3
        },
        {
          "id": "900000071736004",
          "stationId": "900000071736004",
          "nameZh": "积米崖",
          "nameEn": "Jimiya",
          "target": "jimiya",
          "pinyin": "jimiya",
          "lat": 35.93096,
          "lon": 120.164905,
          "sequence": 4
        },
        {
          "id": "900000071736005",
          "stationId": "900000071736005",
          "nameZh": "灵山卫",
          "nameEn": "Lingshan Wei",
          "target": "lingshan wei",
          "pinyin": "lingshanwei",
          "lat": 35.92576,
          "lon": 120.138472,
          "sequence": 5
        },
        {
          "id": "900000071736006",
          "stationId": "900000071736006",
          "nameZh": "学院路",
          "nameEn": "Xueyuan Lu",
          "target": "xueyuan lu",
          "pinyin": "xueyuanlu",
          "lat": 35.9196,
          "lon": 120.119096,
          "sequence": 6
        },
        {
          "id": "900000071736007",
          "stationId": "900000071736007",
          "nameZh": "朝阳山",
          "nameEn": "Chaoyangshan",
          "target": "chaoyangshan",
          "pinyin": "chaoyangshan",
          "lat": 35.908319,
          "lon": 120.10195,
          "sequence": 7
        },
        {
          "id": "900000071736008",
          "stationId": "900000071736008",
          "nameZh": "辛屯",
          "nameEn": "Xintun",
          "target": "xintun",
          "pinyin": "xintun",
          "lat": 35.899779,
          "lon": 120.087138,
          "sequence": 8
        },
        {
          "id": "900000071736009",
          "stationId": "900000071736009",
          "nameZh": "两河",
          "nameEn": "Lianghe",
          "target": "lianghe",
          "pinyin": "lianghe",
          "lat": 35.894161,
          "lon": 120.066772,
          "sequence": 9
        },
        {
          "id": "900000071736010",
          "stationId": "900000071736010",
          "nameZh": "隐珠",
          "nameEn": "Yinzhu",
          "target": "yinzhu",
          "pinyin": "yinzhu",
          "lat": 35.892216,
          "lon": 120.034854,
          "sequence": 10
        },
        {
          "id": "900000071736011",
          "stationId": "900000071736011",
          "nameZh": "凤凰山路",
          "nameEn": "Fenghuangshan Road",
          "target": "fenghuangshan road",
          "pinyin": "fenghuangshanlu",
          "lat": 35.890085,
          "lon": 120.022689,
          "sequence": 11
        },
        {
          "id": "900000071736012",
          "stationId": "900000071736012",
          "nameZh": "双珠路",
          "nameEn": "Shuangzhu Road",
          "target": "shuangzhu road",
          "pinyin": "shuangzhulu",
          "lat": 35.871423,
          "lon": 120.016561,
          "sequence": 12
        },
        {
          "id": "900000071736013",
          "stationId": "900000071736013",
          "nameZh": "世纪大道",
          "nameEn": "Shiji Dadao",
          "target": "shiji dadao",
          "pinyin": "shijidadao",
          "lat": 35.849688,
          "lon": 120.002406,
          "sequence": 13
        },
        {
          "id": "900000071736014",
          "stationId": "900000071736014",
          "nameZh": "盛海路(世博城)",
          "nameEn": "Shenghai Lu (shibocheng)",
          "target": "shenghai lu shibocheng",
          "pinyin": "shenghailushibocheng",
          "lat": 35.827597,
          "lon": 120.002987,
          "sequence": 14
        },
        {
          "id": "900000071736015",
          "stationId": "900000071736015",
          "nameZh": "大珠山",
          "nameEn": "Da Zhushan",
          "target": "da zhushan",
          "pinyin": "dazhushan",
          "lat": 35.815786,
          "lon": 119.989209,
          "sequence": 15
        },
        {
          "id": "900000071736016",
          "stationId": "900000071736016",
          "nameZh": "张家楼",
          "nameEn": "Zhangjialou",
          "target": "zhangjialou",
          "pinyin": "zhangjialou",
          "lat": 35.793926,
          "lon": 119.926292,
          "sequence": 16
        },
        {
          "id": "900000071736017",
          "stationId": "900000071736017",
          "nameZh": "古镇口",
          "nameEn": "Guzhen Kou",
          "target": "guzhen kou",
          "pinyin": "guzhenkou",
          "lat": 35.750828,
          "lon": 119.893752,
          "sequence": 17
        },
        {
          "id": "900000071736018",
          "stationId": "900000071736018",
          "nameZh": "龙湾",
          "nameEn": "Longwan",
          "target": "longwan",
          "pinyin": "longwan",
          "lat": 35.690119,
          "lon": 119.902138,
          "sequence": 18
        },
        {
          "id": "900000071736019",
          "stationId": "900000071736019",
          "nameZh": "琅琊",
          "nameEn": "Langya",
          "target": "langya",
          "pinyin": "langya",
          "lat": 35.670802,
          "lon": 119.875127,
          "sequence": 19
        },
        {
          "id": "900000071736020",
          "stationId": "900000071736020",
          "nameZh": "贡口湾",
          "nameEn": "Gongkouwan",
          "target": "gongkouwan",
          "pinyin": "gongkouwan",
          "lat": 35.676627,
          "lon": 119.837421,
          "sequence": 20
        },
        {
          "id": "900000071736021",
          "stationId": "900000071736021",
          "nameZh": "董家口港",
          "nameEn": "Dongjia Kougang",
          "target": "dongjia kougang",
          "pinyin": "dongjiakougang",
          "lat": 35.685106,
          "lon": 119.797359,
          "sequence": 21
        },
        {
          "id": "900000071736022",
          "stationId": "900000071736022",
          "nameZh": "泊里",
          "nameEn": "Poli",
          "target": "poli",
          "pinyin": "poli",
          "lat": 35.687125,
          "lon": 119.767181,
          "sequence": 22
        },
        {
          "id": "900000071736023",
          "stationId": "900000071736023",
          "nameZh": "董家口火车站",
          "nameEn": "Dongjiakou Huochezhan",
          "target": "dongjiakou huochezhan",
          "pinyin": "dongjiakouhuochezhan",
          "lat": 35.67559,
          "lon": 119.71585,
          "sequence": 23
        }
      ],
      "segments": [
        [
          "900000071736024",
          "900000071736025",
          "900000071736003",
          "900000071736004",
          "900000071736005",
          "900000071736006",
          "900000071736007",
          "900000071736008",
          "900000071736009",
          "900000071736010",
          "900000071736011",
          "900000071736012",
          "900000071736013",
          "900000071736014",
          "900000071736015",
          "900000071736016",
          "900000071736017",
          "900000071736018",
          "900000071736019",
          "900000071736020",
          "900000071736021",
          "900000071736022",
          "900000071736023"
        ]
      ]
    }
  ]
}