{
  "city": "shenyang",
  "cityNameZh": "沈阳",
  "cityNameEn": "Shenyang",
  "source": "高德地图地铁数据（非官方接口）· 官方英文站名整理自 Wikipedia",
  "generatedAt": "2026-07-14T16:01:48.860Z",
  "lines": [
    {
      "id": "2101-1",
      "operatorId": "2101",
      "operatorName": "沈阳地铁",
      "lineId": "1",
      "lineName": "1号线",
      "color": "#FC0601",
      "loop": false,
      "stations": [
        {
          "id": "210100020752024",
          "stationId": "210100020752024",
          "nameZh": "双马",
          "nameEn": "Shuangma",
          "target": "shuangma",
          "pinyin": "shuangma",
          "lat": 41.85526,
          "lon": 123.658486,
          "sequence": 1
        },
        {
          "id": "210100020752025",
          "stationId": "210100020752025",
          "nameZh": "植物园",
          "nameEn": "Zhiwuyuan",
          "target": "zhiwuyuan",
          "pinyin": "zhiwuyuan",
          "lat": 41.853839,
          "lon": 123.639085,
          "sequence": 2
        },
        {
          "id": "210100020752026",
          "stationId": "210100020752026",
          "nameZh": "伯官北大街",
          "nameEn": "Boguanbeidajie",
          "target": "boguanbeidajie",
          "pinyin": "boguanbeidajie",
          "lat": 41.854981,
          "lon": 123.626221,
          "sequence": 3
        },
        {
          "id": "210100020752027",
          "stationId": "210100020752027",
          "nameZh": "水泉",
          "nameEn": "Shuiquan",
          "target": "shuiquan",
          "pinyin": "shuiquan",
          "lat": 41.845586,
          "lon": 123.615499,
          "sequence": 4
        },
        {
          "id": "210100020752028",
          "stationId": "210100020752028",
          "nameZh": "东陵公园",
          "nameEn": "Donglinggongyuan",
          "target": "donglinggongyuan",
          "pinyin": "donglinggongyuan",
          "lat": 41.829638,
          "lon": 123.595618,
          "sequence": 5
        },
        {
          "id": "210100020752029",
          "stationId": "210100020752029",
          "nameZh": "前陵",
          "nameEn": "Qianling",
          "target": "qianling",
          "pinyin": "qianling",
          "lat": 41.822596,
          "lon": 123.579731,
          "sequence": 6
        },
        {
          "id": "210100020752030",
          "stationId": "210100020752030",
          "nameZh": "农业大学",
          "nameEn": "Nongyedaxue",
          "target": "nongyedaxue",
          "pinyin": "nongyedaxue",
          "lat": 41.821708,
          "lon": 123.564477,
          "sequence": 7
        },
        {
          "id": "210100020752031",
          "stationId": "210100020752031",
          "nameZh": "东大营街",
          "nameEn": "Dongdayingjie",
          "target": "dongdayingjie",
          "pinyin": "dongdayingjie",
          "lat": 41.818504,
          "lon": 123.545359,
          "sequence": 8
        },
        {
          "id": "210100020752032",
          "stationId": "210100020752032",
          "nameZh": "新宁街",
          "nameEn": "Xinningjie",
          "target": "xinningjie",
          "pinyin": "xinningjie",
          "lat": 41.813171,
          "lon": 123.53113,
          "sequence": 9
        },
        {
          "id": "210100020752033",
          "stationId": "210100020752033",
          "nameZh": "新惠街",
          "nameEn": "Xinhuijie",
          "target": "xinhuijie",
          "pinyin": "xinhuijie",
          "lat": 41.806543,
          "lon": 123.521484,
          "sequence": 10
        },
        {
          "id": "210100020752002",
          "stationId": "210100020752002",
          "nameZh": "黎明广场",
          "nameEn": "Limingguangchang",
          "target": "limingguangchang",
          "pinyin": "limingguangchang",
          "lat": 41.80812,
          "lon": 123.504308,
          "sequence": 11
        },
        {
          "id": "210100020752003",
          "stationId": "210100020752003",
          "nameZh": "滂江街",
          "nameEn": "Pangjiangjie",
          "target": "pangjiangjie",
          "pinyin": "pangjiangjie",
          "lat": 41.808405,
          "lon": 123.488594,
          "sequence": 12
        },
        {
          "id": "210100020752004",
          "stationId": "210100020752004",
          "nameZh": "东中街",
          "nameEn": "Dongzhongjie",
          "target": "dongzhongjie",
          "pinyin": "dongzhongjie",
          "lat": 41.802831,
          "lon": 123.470596,
          "sequence": 13
        },
        {
          "id": "210100020752005",
          "stationId": "210100020752005",
          "nameZh": "中街",
          "nameEn": "Zhongjie",
          "target": "zhongjie",
          "pinyin": "zhongjie",
          "lat": 41.801344,
          "lon": 123.461001,
          "sequence": 14
        },
        {
          "id": "210100020752006",
          "stationId": "210100020752006",
          "nameZh": "怀远门",
          "nameEn": "Huaiyuanmen",
          "target": "huaiyuanmen",
          "pinyin": "huaiyuanmen",
          "lat": 41.796947,
          "lon": 123.447255,
          "sequence": 15
        },
        {
          "id": "210100020748011",
          "stationId": "210100020748011",
          "nameZh": "青年大街",
          "nameEn": "Qingniandajie",
          "target": "qingniandajie",
          "pinyin": "qingniandajie",
          "lat": 41.792236,
          "lon": 123.432863,
          "sequence": 16
        },
        {
          "id": "210100020752008",
          "stationId": "210100020752008",
          "nameZh": "南市场",
          "nameEn": "Nanshichang",
          "target": "nanshichang",
          "pinyin": "nanshichang",
          "lat": 41.789396,
          "lon": 123.419906,
          "sequence": 17
        },
        {
          "id": "210100020752009",
          "stationId": "210100020752009",
          "nameZh": "太原街",
          "nameEn": "Taiyuanjie",
          "target": "taiyuanjie",
          "pinyin": "taiyuanjie",
          "lat": 41.789655,
          "lon": 123.406455,
          "sequence": 18
        },
        {
          "id": "210100020752010",
          "stationId": "210100020752010",
          "nameZh": "沈阳站",
          "nameEn": "Shenyangzhan",
          "target": "shenyangzhan",
          "pinyin": "shenyangzhan",
          "lat": 41.793772,
          "lon": 123.396798,
          "sequence": 19
        },
        {
          "id": "210100020752011",
          "stationId": "210100020752011",
          "nameZh": "云峰北街",
          "nameEn": "Yunfengbeijie",
          "target": "yunfengbeijie",
          "pinyin": "yunfengbeijie",
          "lat": 41.79657,
          "lon": 123.38056,
          "sequence": 20
        },
        {
          "id": "210100020752012",
          "stationId": "210100020752012",
          "nameZh": "铁西广场",
          "nameEn": "Tiexiguangchang",
          "target": "tiexiguangchang",
          "pinyin": "tiexiguangchang",
          "lat": 41.79416,
          "lon": 123.370666,
          "sequence": 21
        },
        {
          "id": "210100020752013",
          "stationId": "210100020752013",
          "nameZh": "保工街",
          "nameEn": "Baogongjie",
          "target": "baogongjie",
          "pinyin": "baogongjie",
          "lat": 41.800291,
          "lon": 123.356113,
          "sequence": 22
        },
        {
          "id": "210100020752014",
          "stationId": "210100020752014",
          "nameZh": "启工街",
          "nameEn": "Qigongjie",
          "target": "qigongjie",
          "pinyin": "qigongjie",
          "lat": 41.803726,
          "lon": 123.343559,
          "sequence": 23
        },
        {
          "id": "210100020752015",
          "stationId": "210100020752015",
          "nameZh": "重工街",
          "nameEn": "Zhonggongjie",
          "target": "zhonggongjie",
          "pinyin": "zhonggongjie",
          "lat": 41.805072,
          "lon": 123.331973,
          "sequence": 24
        },
        {
          "id": "210100020752016",
          "stationId": "210100020752016",
          "nameZh": "迎宾路",
          "nameEn": "Yingbinlu",
          "target": "yingbinlu",
          "pinyin": "yingbinlu",
          "lat": 41.801583,
          "lon": 123.309668,
          "sequence": 25
        },
        {
          "id": "210100020752017",
          "stationId": "210100020752017",
          "nameZh": "于洪广场",
          "nameEn": "Yuhongguangchang",
          "target": "yuhongguangchang",
          "pinyin": "yuhongguangchang",
          "lat": 41.794186,
          "lon": 123.305686,
          "sequence": 26
        },
        {
          "id": "210100020752018",
          "stationId": "210100020752018",
          "nameZh": "开发大道",
          "nameEn": "Kaifadadao",
          "target": "kaifadadao",
          "pinyin": "kaifadadao",
          "lat": 41.781118,
          "lon": 123.305135,
          "sequence": 27
        },
        {
          "id": "210100020752019",
          "stationId": "210100020752019",
          "nameZh": "张士",
          "nameEn": "Zhangshi",
          "target": "zhangshi",
          "pinyin": "zhangshi",
          "lat": 41.771936,
          "lon": 123.294099,
          "sequence": 28
        },
        {
          "id": "210100020752020",
          "stationId": "210100020752020",
          "nameZh": "四号街",
          "nameEn": "Sihaojie",
          "target": "sihaojie",
          "pinyin": "sihaojie",
          "lat": 41.766026,
          "lon": 123.277277,
          "sequence": 29
        },
        {
          "id": "210100020752021",
          "stationId": "210100020752021",
          "nameZh": "七号街",
          "nameEn": "Qihaojie",
          "target": "qihaojie",
          "pinyin": "qihaojie",
          "lat": 41.765381,
          "lon": 123.25934,
          "sequence": 30
        },
        {
          "id": "210100020752022",
          "stationId": "210100020752022",
          "nameZh": "中央大街",
          "nameEn": "Zhongyangdajie",
          "target": "zhongyangdajie",
          "pinyin": "zhongyangdajie",
          "lat": 41.765395,
          "lon": 123.242537,
          "sequence": 31
        },
        {
          "id": "210100020752023",
          "stationId": "210100020752023",
          "nameZh": "十三号街",
          "nameEn": "Shisanhaojie",
          "target": "shisanhaojie",
          "pinyin": "shisanhaojie",
          "lat": 41.765462,
          "lon": 123.230509,
          "sequence": 32
        }
      ],
      "segments": [
        [
          "210100020752024",
          "210100020752025",
          "210100020752026",
          "210100020752027",
          "210100020752028",
          "210100020752029",
          "210100020752030",
          "210100020752031",
          "210100020752032",
          "210100020752033",
          "210100020752002",
          "210100020752003",
          "210100020752004",
          "210100020752005",
          "210100020752006",
          "210100020748011",
          "210100020752008",
          "210100020752009",
          "210100020752010",
          "210100020752011",
          "210100020752012",
          "210100020752013",
          "210100020752014",
          "210100020752015",
          "210100020752016",
          "210100020752017",
          "210100020752018",
          "210100020752019",
          "210100020752020",
          "210100020752021",
          "210100020752022",
          "210100020752023"
        ]
      ]
    },
    {
      "id": "2101-2",
      "operatorId": "2101",
      "operatorName": "沈阳地铁",
      "lineId": "2",
      "lineName": "2号线",
      "color": "#EE782E",
      "loop": false,
      "stations": [
        {
          "id": "210100020748027",
          "stationId": "210100020748027",
          "nameZh": "蒲田路",
          "nameEn": "Putianlu",
          "target": "putianlu",
          "pinyin": "putianlu",
          "lat": 41.956447,
          "lon": 123.405529,
          "sequence": 1
        },
        {
          "id": "210100020748026",
          "stationId": "210100020748026",
          "nameZh": "蒲河路",
          "nameEn": "Puhelu",
          "target": "puhelu",
          "pinyin": "puhelu",
          "lat": 41.946825,
          "lon": 123.408584,
          "sequence": 2
        },
        {
          "id": "210100020748025",
          "stationId": "210100020748025",
          "nameZh": "人杰湖公园",
          "nameEn": "Renjiehugongyuan",
          "target": "renjiehugongyuan",
          "pinyin": "renjiehugongyuan",
          "lat": 41.93661,
          "lon": 123.398316,
          "sequence": 3
        },
        {
          "id": "210100020748024",
          "stationId": "210100020748024",
          "nameZh": "辽宁大学",
          "nameEn": "Liaoningdaxue",
          "target": "liaoningdaxue",
          "pinyin": "liaoningdaxue",
          "lat": 41.929389,
          "lon": 123.393711,
          "sequence": 4
        },
        {
          "id": "210100020748023",
          "stationId": "210100020748023",
          "nameZh": "航空航天大学",
          "nameEn": "Hangkonghangtiandaxue",
          "target": "hangkonghangtiandaxue",
          "pinyin": "hangkonghangtiandaxue",
          "lat": 41.917793,
          "lon": 123.40308,
          "sequence": 5
        },
        {
          "id": "210100020748022",
          "stationId": "210100020748022",
          "nameZh": "师范大学",
          "nameEn": "Shifandaxue",
          "target": "shifandaxue",
          "pinyin": "shifandaxue",
          "lat": 41.907692,
          "lon": 123.409145,
          "sequence": 6
        },
        {
          "id": "210100020748021",
          "stationId": "210100020748021",
          "nameZh": "医学院",
          "nameEn": "Yixueyuan",
          "target": "yixueyuan",
          "pinyin": "yixueyuan",
          "lat": 41.8864,
          "lon": 123.415607,
          "sequence": 7
        },
        {
          "id": "210100020748020",
          "stationId": "210100020748020",
          "nameZh": "三台子",
          "nameEn": "Santaizi",
          "target": "santaizi",
          "pinyin": "santaizi",
          "lat": 41.868337,
          "lon": 123.417133,
          "sequence": 8
        },
        {
          "id": "210100020748019",
          "stationId": "210100020748019",
          "nameZh": "陵西",
          "nameEn": "Lingxi",
          "target": "lingxi",
          "pinyin": "lingxi",
          "lat": 41.855421,
          "lon": 123.418239,
          "sequence": 9
        },
        {
          "id": "210100020748018",
          "stationId": "210100020748018",
          "nameZh": "新乐遗址",
          "nameEn": "Xinleyizhi",
          "target": "xinleyizhi",
          "pinyin": "xinleyizhi",
          "lat": 41.847476,
          "lon": 123.418892,
          "sequence": 10
        },
        {
          "id": "210100020748017",
          "stationId": "210100020748017",
          "nameZh": "北陵公园",
          "nameEn": "Beilinggongyuan",
          "target": "beilinggongyuan",
          "pinyin": "beilinggongyuan",
          "lat": 41.839395,
          "lon": 123.42424,
          "sequence": 11
        },
        {
          "id": "210100020748016",
          "stationId": "210100020748016",
          "nameZh": "中医药大学",
          "nameEn": "Zhongyiyaodaxue",
          "target": "zhongyiyaodaxue",
          "pinyin": "zhongyiyaodaxue",
          "lat": 41.833626,
          "lon": 123.42906,
          "sequence": 12
        },
        {
          "id": "210100020748015",
          "stationId": "210100020748015",
          "nameZh": "岐山路",
          "nameEn": "Qishanlu",
          "target": "qishanlu",
          "pinyin": "qishanlu",
          "lat": 41.822728,
          "lon": 123.429258,
          "sequence": 13
        },
        {
          "id": "210100020748014",
          "stationId": "210100020748014",
          "nameZh": "沈阳北站",
          "nameEn": "Shenyangbeizhan",
          "target": "shenyangbeizhan",
          "pinyin": "shenyangbeizhan",
          "lat": 41.817355,
          "lon": 123.435977,
          "sequence": 14
        },
        {
          "id": "210100020748013",
          "stationId": "210100020748013",
          "nameZh": "金融中心",
          "nameEn": "Jinrongzhongxin",
          "target": "jinrongzhongxin",
          "pinyin": "jinrongzhongxin",
          "lat": 41.811745,
          "lon": 123.438257,
          "sequence": 15
        },
        {
          "id": "210100020748012",
          "stationId": "210100020748012",
          "nameZh": "人民广场",
          "nameEn": "Renminguangchang",
          "target": "renminguangchang",
          "pinyin": "renminguangchang",
          "lat": 41.804497,
          "lon": 123.434229,
          "sequence": 16
        },
        {
          "id": "210100020748011",
          "stationId": "210100020748011",
          "nameZh": "青年大街",
          "nameEn": "Qingniandajie",
          "target": "qingniandajie",
          "pinyin": "qingniandajie",
          "lat": 41.792236,
          "lon": 123.432863,
          "sequence": 17
        },
        {
          "id": "210100020748010",
          "stationId": "210100020748010",
          "nameZh": "青年公园",
          "nameEn": "Qingniangongyuan",
          "target": "qingniangongyuan",
          "pinyin": "qingniangongyuan",
          "lat": 41.784718,
          "lon": 123.435871,
          "sequence": 18
        },
        {
          "id": "210100020748009",
          "stationId": "210100020748009",
          "nameZh": "工业展览馆",
          "nameEn": "Gongyezhanlanguan",
          "target": "gongyezhanlanguan",
          "pinyin": "gongyezhanlanguan",
          "lat": 41.773283,
          "lon": 123.435077,
          "sequence": 19
        },
        {
          "id": "210100020748008",
          "stationId": "210100020748008",
          "nameZh": "市图书馆",
          "nameEn": "Shitushuguan",
          "target": "shitushuguan",
          "pinyin": "shitushuguan",
          "lat": 41.760047,
          "lon": 123.435895,
          "sequence": 20
        },
        {
          "id": "210100020748007",
          "stationId": "210100020748007",
          "nameZh": "五里河",
          "nameEn": "Wulihe",
          "target": "wulihe",
          "pinyin": "wulihe",
          "lat": 41.753209,
          "lon": 123.441016,
          "sequence": 21
        },
        {
          "id": "210100020748006",
          "stationId": "210100020748006",
          "nameZh": "奥体中心",
          "nameEn": "Aotizhongxin",
          "target": "aotizhongxin",
          "pinyin": "aotizhongxin",
          "lat": 41.743061,
          "lon": 123.453579,
          "sequence": 22
        },
        {
          "id": "210100020748005",
          "stationId": "210100020748005",
          "nameZh": "营盘街",
          "nameEn": "Yingpanjie",
          "target": "yingpanjie",
          "pinyin": "yingpanjie",
          "lat": 41.731345,
          "lon": 123.456491,
          "sequence": 23
        },
        {
          "id": "210100020748004",
          "stationId": "210100020748004",
          "nameZh": "世纪大厦",
          "nameEn": "Shijidasha",
          "target": "shijidasha",
          "pinyin": "shijidasha",
          "lat": 41.719789,
          "lon": 123.461955,
          "sequence": 24
        },
        {
          "id": "210100020748003",
          "stationId": "210100020748003",
          "nameZh": "白塔河路",
          "nameEn": "Baitahelu",
          "target": "baitahelu",
          "pinyin": "baitahelu",
          "lat": 41.709422,
          "lon": 123.47168,
          "sequence": 25
        },
        {
          "id": "210100020748002",
          "stationId": "210100020748002",
          "nameZh": "全运路",
          "nameEn": "Quanyunlu",
          "target": "quanyunlu",
          "pinyin": "quanyunlu",
          "lat": 41.707485,
          "lon": 123.482502,
          "sequence": 26
        },
        {
          "id": "210100020748034",
          "stationId": "210100020748034",
          "nameZh": "沈本大街",
          "nameEn": "Shenbendajie",
          "target": "shenbendajie",
          "pinyin": "shenbendajie",
          "lat": 41.693361,
          "lon": 123.479464,
          "sequence": 27
        },
        {
          "id": "210100020748033",
          "stationId": "210100020748033",
          "nameZh": "沈中大街",
          "nameEn": "Shenzhongdajie",
          "target": "shenzhongdajie",
          "pinyin": "shenzhongdajie",
          "lat": 41.68815,
          "lon": 123.464915,
          "sequence": 28
        },
        {
          "id": "210100020748032",
          "stationId": "210100020748032",
          "nameZh": "省博物馆",
          "nameEn": "Shengbowuguan",
          "target": "shengbowuguan",
          "pinyin": "shengbowuguan",
          "lat": 41.678921,
          "lon": 123.458162,
          "sequence": 29
        },
        {
          "id": "210100020748031",
          "stationId": "210100020748031",
          "nameZh": "中央公园",
          "nameEn": "Zhongyanggongyuan",
          "target": "zhongyanggongyuan",
          "pinyin": "zhongyanggongyuan",
          "lat": 41.666533,
          "lon": 123.458026,
          "sequence": 30
        },
        {
          "id": "210100020748030",
          "stationId": "210100020748030",
          "nameZh": "创新一路",
          "nameEn": "Chuangxinyilu",
          "target": "chuangxinyilu",
          "pinyin": "chuangxinyilu",
          "lat": 41.651078,
          "lon": 123.457904,
          "sequence": 31
        },
        {
          "id": "210100020748029",
          "stationId": "210100020748029",
          "nameZh": "综合保税区",
          "nameEn": "Zonghebaoshuiqu",
          "target": "zonghebaoshuiqu",
          "pinyin": "zonghebaoshuiqu",
          "lat": 41.640113,
          "lon": 123.457828,
          "sequence": 32
        },
        {
          "id": "210100020748028",
          "stationId": "210100020748028",
          "nameZh": "桃仙机场",
          "nameEn": "Taoxianjichang",
          "target": "taoxianjichang",
          "pinyin": "taoxianjichang",
          "lat": 41.633617,
          "lon": 123.494471,
          "sequence": 33
        }
      ],
      "segments": [
        [
          "210100020748027",
          "210100020748026",
          "210100020748025",
          "210100020748024",
          "210100020748023",
          "210100020748022",
          "210100020748021",
          "210100020748020",
          "210100020748019",
          "210100020748018",
          "210100020748017",
          "210100020748016",
          "210100020748015",
          "210100020748014",
          "210100020748013",
          "210100020748012",
          "210100020748011",
          "210100020748010",
          "210100020748009",
          "210100020748008",
          "210100020748007",
          "210100020748006",
          "210100020748005",
          "210100020748004",
          "210100020748003",
          "210100020748002",
          "210100020748034",
          "210100020748033",
          "210100020748032",
          "210100020748031",
          "210100020748030",
          "210100020748029",
          "210100020748028"
        ]
      ]
    },
    {
      "id": "2101-3",
      "operatorId": "2101",
      "operatorName": "沈阳地铁",
      "lineId": "3",
      "lineName": "3号线",
      "color": "#EB81B9",
      "loop": false,
      "stations": [
        {
          "id": "900000095078032",
          "stationId": "900000095078032",
          "nameZh": "李达",
          "nameEn": "Lida",
          "target": "lida",
          "pinyin": "lida",
          "lat": 41.667762,
          "lon": 123.141468,
          "sequence": 1
        },
        {
          "id": "900000095078001",
          "stationId": "900000095078001",
          "nameZh": "铁西汽车工厂",
          "nameEn": "Tiexiqichegongchang",
          "target": "tiexiqichegongchang",
          "pinyin": "tiexiqichegongchang",
          "lat": 41.681757,
          "lon": 123.152064,
          "sequence": 2
        },
        {
          "id": "900000095078002",
          "stationId": "900000095078002",
          "nameZh": "马贝",
          "nameEn": "Mabei",
          "target": "mabei",
          "pinyin": "mabei",
          "lat": 41.695553,
          "lon": 123.172382,
          "sequence": 3
        },
        {
          "id": "900000095078003",
          "stationId": "900000095078003",
          "nameZh": "中德大街",
          "nameEn": "Zhongdedajie",
          "target": "zhongdedajie",
          "pinyin": "zhongdedajie",
          "lat": 41.700018,
          "lon": 123.190315,
          "sequence": 4
        },
        {
          "id": "900000095078004",
          "stationId": "900000095078004",
          "nameZh": "细河悠谷",
          "nameEn": "Xiheyougu",
          "target": "xiheyougu",
          "pinyin": "xiheyougu",
          "lat": 41.711265,
          "lon": 123.218309,
          "sequence": 5
        },
        {
          "id": "900000095078005",
          "stationId": "900000095078005",
          "nameZh": "翟家",
          "nameEn": "Zhaijia",
          "target": "zhaijia",
          "pinyin": "zhaijia",
          "lat": 41.720381,
          "lon": 123.237135,
          "sequence": 6
        },
        {
          "id": "900000095078006",
          "stationId": "900000095078006",
          "nameZh": "工业大学",
          "nameEn": "Gongyedaxue",
          "target": "gongyedaxue",
          "pinyin": "gongyedaxue",
          "lat": 41.730043,
          "lon": 123.262086,
          "sequence": 7
        },
        {
          "id": "900000095078007",
          "stationId": "900000095078007",
          "nameZh": "宁官",
          "nameEn": "Ningguan",
          "target": "ningguan",
          "pinyin": "ningguan",
          "lat": 41.738233,
          "lon": 123.274286,
          "sequence": 8
        },
        {
          "id": "900000095078008",
          "stationId": "900000095078008",
          "nameZh": "余良",
          "nameEn": "Yuliang",
          "target": "yuliang",
          "pinyin": "yuliang",
          "lat": 41.73995,
          "lon": 123.283356,
          "sequence": 9
        },
        {
          "id": "900000095078009",
          "stationId": "900000095078009",
          "nameZh": "甘官",
          "nameEn": "Ganguan",
          "target": "ganguan",
          "pinyin": "ganguan",
          "lat": 41.746429,
          "lon": 123.307683,
          "sequence": 10
        },
        {
          "id": "900000095078010",
          "stationId": "900000095078010",
          "nameZh": "千岛湖街",
          "nameEn": "Qiandaohujie",
          "target": "qiandaohujie",
          "pinyin": "qiandaohujie",
          "lat": 41.743475,
          "lon": 123.323528,
          "sequence": 11
        },
        {
          "id": "900000095078011",
          "stationId": "900000095078011",
          "nameZh": "南阳湖街",
          "nameEn": "Nanyanghujie",
          "target": "nanyanghujie",
          "pinyin": "nanyanghujie",
          "lat": 41.748332,
          "lon": 123.333152,
          "sequence": 12
        },
        {
          "id": "900000039632011",
          "stationId": "900000039632011",
          "nameZh": "大通湖街",
          "nameEn": "Datonghujie",
          "target": "datonghujie",
          "pinyin": "datonghujie",
          "lat": 41.750949,
          "lon": 123.347148,
          "sequence": 13
        },
        {
          "id": "900000095078013",
          "stationId": "900000095078013",
          "nameZh": "南李官",
          "nameEn": "Nanliguan",
          "target": "nanliguan",
          "pinyin": "nanliguan",
          "lat": 41.757914,
          "lon": 123.362173,
          "sequence": 14
        },
        {
          "id": "900000095078033",
          "stationId": "900000095078033",
          "nameZh": "凌空",
          "nameEn": "Lingkong",
          "target": "lingkong",
          "pinyin": "lingkong",
          "lat": 41.769428,
          "lon": 123.376709,
          "sequence": 15
        },
        {
          "id": "900000071786014",
          "stationId": "900000071786014",
          "nameZh": "砂阳",
          "nameEn": "Shayang",
          "target": "shayang",
          "pinyin": "shayang",
          "lat": 41.768381,
          "lon": 123.392753,
          "sequence": 16
        },
        {
          "id": "900000095078035",
          "stationId": "900000095078035",
          "nameZh": "南八马路",
          "nameEn": "Nanbamalu",
          "target": "nanbamalu",
          "pinyin": "nanbamalu",
          "lat": 41.774542,
          "lon": 123.401498,
          "sequence": 17
        },
        {
          "id": "900000095078036",
          "stationId": "900000095078036",
          "nameZh": "嘉兴街",
          "nameEn": "Jiaxingjie",
          "target": "jiaxingjie",
          "pinyin": "jiaxingjie",
          "lat": 41.776948,
          "lon": 123.411193,
          "sequence": 18
        },
        {
          "id": "900000095078037",
          "stationId": "900000095078037",
          "nameZh": "方型广场",
          "nameEn": "Fangxingguangchang",
          "target": "fangxingguangchang",
          "pinyin": "fangxingguangchang",
          "lat": 41.774675,
          "lon": 123.41665,
          "sequence": 19
        },
        {
          "id": "900000095078038",
          "stationId": "900000095078038",
          "nameZh": "三好街",
          "nameEn": "Sanhaojie",
          "target": "sanhaojie",
          "pinyin": "sanhaojie",
          "lat": 41.771558,
          "lon": 123.428129,
          "sequence": 20
        },
        {
          "id": "210100020748009",
          "stationId": "210100020748009",
          "nameZh": "工业展览馆",
          "nameEn": "Gongyezhanlanguan",
          "target": "gongyezhanlanguan",
          "pinyin": "gongyezhanlanguan",
          "lat": 41.773283,
          "lon": 123.435077,
          "sequence": 21
        },
        {
          "id": "900000095078040",
          "stationId": "900000095078040",
          "nameZh": "中科院金属所",
          "nameEn": "Zhongkeyuanjinshusuo",
          "target": "zhongkeyuanjinshusuo",
          "pinyin": "zhongkeyuanjinshusuo",
          "lat": 41.771012,
          "lon": 123.444559,
          "sequence": 22
        },
        {
          "id": "900000095078041",
          "stationId": "900000095078041",
          "nameZh": "南塔",
          "nameEn": "Nanta",
          "target": "nanta",
          "pinyin": "nanta",
          "lat": 41.770852,
          "lon": 123.452325,
          "sequence": 23
        },
        {
          "id": "900000095078042",
          "stationId": "900000095078042",
          "nameZh": "文富路",
          "nameEn": "Wenfulu",
          "target": "wenfulu",
          "pinyin": "wenfulu",
          "lat": 41.769267,
          "lon": 123.462915,
          "sequence": 24
        },
        {
          "id": "900000095078043",
          "stationId": "900000095078043",
          "nameZh": "富民街",
          "nameEn": "Fuminjie",
          "target": "fuminjie",
          "pinyin": "fuminjie",
          "lat": 41.768913,
          "lon": 123.473275,
          "sequence": 25
        },
        {
          "id": "900000039634017",
          "stationId": "900000039634017",
          "nameZh": "江东街",
          "nameEn": "Jiangdongjie",
          "target": "jiangdongjie",
          "pinyin": "jiangdongjie",
          "lat": 41.769458,
          "lon": 123.487878,
          "sequence": 26
        },
        {
          "id": "900000095078045",
          "stationId": "900000095078045",
          "nameZh": "方家栏",
          "nameEn": "Fangjialan",
          "target": "fangjialan",
          "pinyin": "fangjialan",
          "lat": 41.777732,
          "lon": 123.495252,
          "sequence": 27
        }
      ],
      "segments": [
        [
          "900000095078032",
          "900000095078001",
          "900000095078002",
          "900000095078003",
          "900000095078004",
          "900000095078005",
          "900000095078006",
          "900000095078007",
          "900000095078008",
          "900000095078009",
          "900000095078010",
          "900000095078011",
          "900000039632011",
          "900000095078013",
          "900000095078033",
          "900000071786014",
          "900000095078035",
          "900000095078036",
          "900000095078037",
          "900000095078038",
          "210100020748009",
          "900000095078040",
          "900000095078041",
          "900000095078042",
          "900000095078043",
          "900000039634017",
          "900000095078045"
        ]
      ]
    },
    {
      "id": "2101-4",
      "operatorId": "2101",
      "operatorName": "沈阳地铁",
      "lineId": "4",
      "lineName": "4号线",
      "color": "#793E8C",
      "loop": false,
      "stations": [
        {
          "id": "900000071786001",
          "stationId": "900000071786001",
          "nameZh": "正新路",
          "nameEn": "Zhengxinlu",
          "target": "zhengxinlu",
          "pinyin": "zhengxinlu",
          "lat": 41.882695,
          "lon": 123.480026,
          "sequence": 1
        },
        {
          "id": "900000071786002",
          "stationId": "900000071786002",
          "nameZh": "文官街",
          "nameEn": "Wenguanjie",
          "target": "wenguanjie",
          "pinyin": "wenguanjie",
          "lat": 41.871122,
          "lon": 123.486687,
          "sequence": 2
        },
        {
          "id": "900000071786003",
          "stationId": "900000071786003",
          "nameZh": "望花",
          "nameEn": "Wanghua",
          "target": "wanghua",
          "pinyin": "wanghua",
          "lat": 41.864304,
          "lon": 123.491101,
          "sequence": 3
        },
        {
          "id": "900000071786004",
          "stationId": "900000071786004",
          "nameZh": "观泉路",
          "nameEn": "Guanquanlu",
          "target": "guanquanlu",
          "pinyin": "guanquanlu",
          "lat": 41.848096,
          "lon": 123.482836,
          "sequence": 4
        },
        {
          "id": "900000071786005",
          "stationId": "900000071786005",
          "nameZh": "北大营",
          "nameEn": "Beidaying",
          "target": "beidaying",
          "pinyin": "beidaying",
          "lat": 41.839075,
          "lon": 123.477792,
          "sequence": 5
        },
        {
          "id": "900000039634011",
          "stationId": "900000039634011",
          "nameZh": "合作街",
          "nameEn": "Hezuojie",
          "target": "hezuojie",
          "pinyin": "hezuojie",
          "lat": 41.829362,
          "lon": 123.473976,
          "sequence": 6
        },
        {
          "id": "900000071786007",
          "stationId": "900000071786007",
          "nameZh": "洮昌街",
          "nameEn": "Taochangjie",
          "target": "taochangjie",
          "pinyin": "taochangjie",
          "lat": 41.822262,
          "lon": 123.467487,
          "sequence": 7
        },
        {
          "id": "900000071786008",
          "stationId": "900000071786008",
          "nameZh": "沈阳大学",
          "nameEn": "Shenyangdaxue",
          "target": "shenyangdaxue",
          "pinyin": "shenyangdaxue",
          "lat": 41.818659,
          "lon": 123.457002,
          "sequence": 8
        },
        {
          "id": "210100020748014",
          "stationId": "210100020748014",
          "nameZh": "沈阳北站",
          "nameEn": "Shenyangbeizhan",
          "target": "shenyangbeizhan",
          "pinyin": "shenyangbeizhan",
          "lat": 41.817355,
          "lon": 123.435977,
          "sequence": 9
        },
        {
          "id": "900000071786010",
          "stationId": "900000071786010",
          "nameZh": "皇寺路",
          "nameEn": "Huangsilu",
          "target": "huangsilu",
          "pinyin": "huangsilu",
          "lat": 41.811313,
          "lon": 123.420526,
          "sequence": 10
        },
        {
          "id": "900000071786011",
          "stationId": "900000071786011",
          "nameZh": "市府大路",
          "nameEn": "Shifudalu",
          "target": "shifudalu",
          "pinyin": "shifudalu",
          "lat": 41.803959,
          "lon": 123.415932,
          "sequence": 11
        },
        {
          "id": "210100020752009",
          "stationId": "210100020752009",
          "nameZh": "太原街",
          "nameEn": "Taiyuanjie",
          "target": "taiyuanjie",
          "pinyin": "taiyuanjie",
          "lat": 41.789655,
          "lon": 123.406455,
          "sequence": 12
        },
        {
          "id": "900000071786013",
          "stationId": "900000071786013",
          "nameZh": "南五马路",
          "nameEn": "Nanwumalu",
          "target": "nanwumalu",
          "pinyin": "nanwumalu",
          "lat": 41.783224,
          "lon": 123.400206,
          "sequence": 13
        },
        {
          "id": "900000071786014",
          "stationId": "900000071786014",
          "nameZh": "砂阳",
          "nameEn": "Shayang",
          "target": "shayang",
          "pinyin": "shayang",
          "lat": 41.768381,
          "lon": 123.392753,
          "sequence": 14
        },
        {
          "id": "900000071786015",
          "stationId": "900000071786015",
          "nameZh": "南京桥",
          "nameEn": "Nanjingqiao",
          "target": "nanjingqiao",
          "pinyin": "nanjingqiao",
          "lat": 41.751665,
          "lon": 123.399134,
          "sequence": 15
        },
        {
          "id": "900000071786016",
          "stationId": "900000071786016",
          "nameZh": "长白岛",
          "nameEn": "Changbaidao",
          "target": "changbaidao",
          "pinyin": "changbaidao",
          "lat": 41.741284,
          "lon": 123.403299,
          "sequence": 16
        },
        {
          "id": "900000039632015",
          "stationId": "900000039632015",
          "nameZh": "长白南",
          "nameEn": "Changbainan",
          "target": "changbainan",
          "pinyin": "changbainan",
          "lat": 41.727497,
          "lon": 123.410401,
          "sequence": 17
        },
        {
          "id": "900000071786018",
          "stationId": "900000071786018",
          "nameZh": "金仓路",
          "nameEn": "Jincanglu",
          "target": "jincanglu",
          "pinyin": "jincanglu",
          "lat": 41.710403,
          "lon": 123.406145,
          "sequence": 18
        },
        {
          "id": "900000071786019",
          "stationId": "900000071786019",
          "nameZh": "云杉路",
          "nameEn": "Yunshanlu",
          "target": "yunshanlu",
          "pinyin": "yunshanlu",
          "lat": 41.698287,
          "lon": 123.399188,
          "sequence": 19
        },
        {
          "id": "900000071786020",
          "stationId": "900000071786020",
          "nameZh": "红椿路",
          "nameEn": "Hongchunlu",
          "target": "hongchunlu",
          "pinyin": "hongchunlu",
          "lat": 41.690233,
          "lon": 123.403126,
          "sequence": 20
        },
        {
          "id": "900000071786021",
          "stationId": "900000071786021",
          "nameZh": "城建学院",
          "nameEn": "Chengjianxueyuan",
          "target": "chengjianxueyuan",
          "pinyin": "chengjianxueyuan",
          "lat": 41.681526,
          "lon": 123.415798,
          "sequence": 21
        },
        {
          "id": "900000071786022",
          "stationId": "900000071786022",
          "nameZh": "沈阳南站",
          "nameEn": "Shenyangnanzhan",
          "target": "shenyangnanzhan",
          "pinyin": "shenyangnanzhan",
          "lat": 41.668356,
          "lon": 123.409546,
          "sequence": 22
        },
        {
          "id": "900000071786023",
          "stationId": "900000071786023",
          "nameZh": "创新路",
          "nameEn": "Chuangxinlu",
          "target": "chuangxinlu",
          "pinyin": "chuangxinlu",
          "lat": 41.655496,
          "lon": 123.413347,
          "sequence": 23
        }
      ],
      "segments": [
        [
          "900000071786001",
          "900000071786002",
          "900000071786003",
          "900000071786004",
          "900000071786005",
          "900000039634011",
          "900000071786007",
          "900000071786008",
          "210100020748014",
          "900000071786010",
          "900000071786011",
          "210100020752009",
          "900000071786013",
          "900000071786014",
          "900000071786015",
          "900000071786016",
          "900000039632015",
          "900000071786018",
          "900000071786019",
          "900000071786020",
          "900000071786021",
          "900000071786022",
          "900000071786023"
        ]
      ]
    },
    {
      "id": "2101-9",
      "operatorId": "2101",
      "operatorName": "沈阳地铁",
      "lineId": "9",
      "lineName": "9号线",
      "color": "#027CFF",
      "loop": false,
      "stations": [
        {
          "id": "900000039632001",
          "stationId": "900000039632001",
          "nameZh": "怒江公园",
          "nameEn": "Nujianggongyuan",
          "target": "nujianggongyuan",
          "pinyin": "nujianggongyuan",
          "lat": 41.842252,
          "lon": 123.388938,
          "sequence": 1
        },
        {
          "id": "900000039632002",
          "stationId": "900000039632002",
          "nameZh": "淮河街沈医二院",
          "nameEn": "Huaihejieshenyieryuan",
          "target": "huaihejieshenyieryuan",
          "pinyin": "huaihejieshenyieryuan",
          "lat": 41.829941,
          "lon": 123.390537,
          "sequence": 2
        },
        {
          "id": "900000039632003",
          "stationId": "900000039632003",
          "nameZh": "皇姑屯站",
          "nameEn": "Huanggutunzhan",
          "target": "huanggutunzhan",
          "pinyin": "huanggutunzhan",
          "lat": 41.821366,
          "lon": 123.386749,
          "sequence": 3
        },
        {
          "id": "900000039632004",
          "stationId": "900000039632004",
          "nameZh": "重型文化广场",
          "nameEn": "Zhongxingwenhuaguangchang",
          "target": "zhongxingwenhuaguangchang",
          "pinyin": "zhongxingwenhuaguangchang",
          "lat": 41.81322,
          "lon": 123.383861,
          "sequence": 4
        },
        {
          "id": "900000039632005",
          "stationId": "900000039632005",
          "nameZh": "北二路",
          "nameEn": "Beierlu",
          "target": "beierlu",
          "pinyin": "beierlu",
          "lat": 41.804706,
          "lon": 123.378755,
          "sequence": 5
        },
        {
          "id": "210100020752012",
          "stationId": "210100020752012",
          "nameZh": "铁西广场",
          "nameEn": "Tiexiguangchang",
          "target": "tiexiguangchang",
          "pinyin": "tiexiguangchang",
          "lat": 41.79416,
          "lon": 123.370666,
          "sequence": 6
        },
        {
          "id": "900000039632007",
          "stationId": "900000039632007",
          "nameZh": "兴华公园",
          "nameEn": "Xinghuagongyuan",
          "target": "xinghuagongyuan",
          "pinyin": "xinghuagongyuan",
          "lat": 41.787634,
          "lon": 123.365836,
          "sequence": 7
        },
        {
          "id": "900000039632008",
          "stationId": "900000039632008",
          "nameZh": "沈辽路",
          "nameEn": "Shenliaolu",
          "target": "shenliaolu",
          "pinyin": "shenliaolu",
          "lat": 41.781587,
          "lon": 123.36126,
          "sequence": 8
        },
        {
          "id": "900000039632009",
          "stationId": "900000039632009",
          "nameZh": "滑翔",
          "nameEn": "Huaxiang",
          "target": "huaxiang",
          "pinyin": "huaxiang",
          "lat": 41.772247,
          "lon": 123.358797,
          "sequence": 9
        },
        {
          "id": "900000039632010",
          "stationId": "900000039632010",
          "nameZh": "吉力湖街",
          "nameEn": "Jilihujie",
          "target": "jilihujie",
          "pinyin": "jilihujie",
          "lat": 41.760797,
          "lon": 123.344612,
          "sequence": 10
        },
        {
          "id": "900000039632011",
          "stationId": "900000039632011",
          "nameZh": "大通湖街",
          "nameEn": "Datonghujie",
          "target": "datonghujie",
          "pinyin": "datonghujie",
          "lat": 41.750949,
          "lon": 123.347148,
          "sequence": 11
        },
        {
          "id": "900000039632012",
          "stationId": "900000039632012",
          "nameZh": "曹仲",
          "nameEn": "Caozhong",
          "target": "caozhong",
          "pinyin": "caozhong",
          "lat": 41.732254,
          "lon": 123.361366,
          "sequence": 12
        },
        {
          "id": "900000039632013",
          "stationId": "900000039632013",
          "nameZh": "浑河站",
          "nameEn": "Hunhezhan",
          "target": "hunhezhan",
          "pinyin": "hunhezhan",
          "lat": 41.726716,
          "lon": 123.372388,
          "sequence": 13
        },
        {
          "id": "900000039632014",
          "stationId": "900000039632014",
          "nameZh": "胜利南街",
          "nameEn": "Shenglinanjie",
          "target": "shenglinanjie",
          "pinyin": "shenglinanjie",
          "lat": 41.724467,
          "lon": 123.398266,
          "sequence": 14
        },
        {
          "id": "900000039632015",
          "stationId": "900000039632015",
          "nameZh": "长白南",
          "nameEn": "Changbainan",
          "target": "changbainan",
          "pinyin": "changbainan",
          "lat": 41.727497,
          "lon": 123.410401,
          "sequence": 15
        },
        {
          "id": "900000039632016",
          "stationId": "900000039632016",
          "nameZh": "榆树台",
          "nameEn": "Yushutai",
          "target": "yushutai",
          "pinyin": "yushutai",
          "lat": 41.729802,
          "lon": 123.421603,
          "sequence": 16
        },
        {
          "id": "900000039632017",
          "stationId": "900000039632017",
          "nameZh": "金阳大街",
          "nameEn": "Jinyangdajie",
          "target": "jinyangdajie",
          "pinyin": "jinyangdajie",
          "lat": 41.731686,
          "lon": 123.430201,
          "sequence": 17
        },
        {
          "id": "900000039632018",
          "stationId": "900000039632018",
          "nameZh": "彩霞街",
          "nameEn": "Caixiajie",
          "target": "caixiajie",
          "pinyin": "caixiajie",
          "lat": 41.734121,
          "lon": 123.441295,
          "sequence": 18
        },
        {
          "id": "210100020748006",
          "stationId": "210100020748006",
          "nameZh": "奥体中心",
          "nameEn": "Aotizhongxin",
          "target": "aotizhongxin",
          "pinyin": "aotizhongxin",
          "lat": 41.743061,
          "lon": 123.453579,
          "sequence": 19
        },
        {
          "id": "900000039632020",
          "stationId": "900000039632020",
          "nameZh": "天成街",
          "nameEn": "Tianchengjie",
          "target": "tianchengjie",
          "pinyin": "tianchengjie",
          "lat": 41.743596,
          "lon": 123.467941,
          "sequence": 20
        },
        {
          "id": "900000039632021",
          "stationId": "900000039632021",
          "nameZh": "朗日街",
          "nameEn": "Langrijie",
          "target": "langrijie",
          "pinyin": "langrijie",
          "lat": 41.741192,
          "lon": 123.485068,
          "sequence": 21
        },
        {
          "id": "900000039632022",
          "stationId": "900000039632022",
          "nameZh": "长青南街",
          "nameEn": "Changqingnanjie",
          "target": "changqingnanjie",
          "pinyin": "changqingnanjie",
          "lat": 41.744319,
          "lon": 123.501572,
          "sequence": 22
        },
        {
          "id": "900000039632023",
          "stationId": "900000039632023",
          "nameZh": "建筑大学",
          "nameEn": "Jianzhudaxue",
          "target": "jianzhudaxue",
          "pinyin": "jianzhudaxue",
          "lat": 41.747294,
          "lon": 123.516113,
          "sequence": 23
        }
      ],
      "segments": [
        [
          "900000039632001",
          "900000039632002",
          "900000039632003",
          "900000039632004",
          "900000039632005",
          "210100020752012",
          "900000039632007",
          "900000039632008",
          "900000039632009",
          "900000039632010",
          "900000039632011",
          "900000039632012",
          "900000039632013",
          "900000039632014",
          "900000039632015",
          "900000039632016",
          "900000039632017",
          "900000039632018",
          "210100020748006",
          "900000039632020",
          "900000039632021",
          "900000039632022",
          "900000039632023"
        ]
      ]
    },
    {
      "id": "2101-10",
      "operatorId": "2101",
      "operatorName": "沈阳地铁",
      "lineId": "10",
      "lineName": "10号线",
      "color": "#6CB46B",
      "loop": false,
      "stations": [
        {
          "id": "900000039634001",
          "stationId": "900000039634001",
          "nameZh": "丁香湖",
          "nameEn": "Dingxianghu",
          "target": "dingxianghu",
          "pinyin": "dingxianghu",
          "lat": 41.863905,
          "lon": 123.348284,
          "sequence": 1
        },
        {
          "id": "900000039634002",
          "stationId": "900000039634002",
          "nameZh": "元江街",
          "nameEn": "Yuanjiangjie",
          "target": "yuanjiangjie",
          "pinyin": "yuanjiangjie",
          "lat": 41.851337,
          "lon": 123.356381,
          "sequence": 2
        },
        {
          "id": "900000039634003",
          "stationId": "900000039634003",
          "nameZh": "向工街",
          "nameEn": "Xianggongjie",
          "target": "xianggongjie",
          "pinyin": "xianggongjie",
          "lat": 41.835836,
          "lon": 123.363829,
          "sequence": 3
        },
        {
          "id": "900000039634004",
          "stationId": "900000039634004",
          "nameZh": "塔湾街",
          "nameEn": "Tawanjie",
          "target": "tawanjie",
          "pinyin": "tawanjie",
          "lat": 41.82887,
          "lon": 123.374484,
          "sequence": 4
        },
        {
          "id": "900000039632002",
          "stationId": "900000039632002",
          "nameZh": "淮河街沈医二院",
          "nameEn": "Huaihejieshenyieryuan",
          "target": "huaihejieshenyieryuan",
          "pinyin": "huaihejieshenyieryuan",
          "lat": 41.829941,
          "lon": 123.390537,
          "sequence": 5
        },
        {
          "id": "900000039634006",
          "stationId": "900000039634006",
          "nameZh": "百鸟公园",
          "nameEn": "Bainiaogongyuan",
          "target": "bainiaogongyuan",
          "pinyin": "bainiaogongyuan",
          "lat": 41.831138,
          "lon": 123.40114,
          "sequence": 6
        },
        {
          "id": "900000039634007",
          "stationId": "900000039634007",
          "nameZh": "长江街",
          "nameEn": "Changjiangjie",
          "target": "changjiangjie",
          "pinyin": "changjiangjie",
          "lat": 41.831726,
          "lon": 123.413113,
          "sequence": 7
        },
        {
          "id": "210100020748016",
          "stationId": "210100020748016",
          "nameZh": "中医药大学",
          "nameEn": "Zhongyiyaodaxue",
          "target": "zhongyiyaodaxue",
          "pinyin": "zhongyiyaodaxue",
          "lat": 41.833626,
          "lon": 123.42906,
          "sequence": 8
        },
        {
          "id": "900000039634009",
          "stationId": "900000039634009",
          "nameZh": "陵东街",
          "nameEn": "Lingdongjie",
          "target": "lingdongjie",
          "pinyin": "lingdongjie",
          "lat": 41.833166,
          "lon": 123.444589,
          "sequence": 9
        },
        {
          "id": "900000039634010",
          "stationId": "900000039634010",
          "nameZh": "北塔",
          "nameEn": "Beita",
          "target": "beita",
          "pinyin": "beita",
          "lat": 41.833678,
          "lon": 123.455667,
          "sequence": 10
        },
        {
          "id": "900000039634011",
          "stationId": "900000039634011",
          "nameZh": "合作街",
          "nameEn": "Hezuojie",
          "target": "hezuojie",
          "pinyin": "hezuojie",
          "lat": 41.829362,
          "lon": 123.473976,
          "sequence": 11
        },
        {
          "id": "900000039634012",
          "stationId": "900000039634012",
          "nameZh": "东北大马路",
          "nameEn": "Dongbeidamalu",
          "target": "dongbeidamalu",
          "pinyin": "dongbeidamalu",
          "lat": 41.820634,
          "lon": 123.481886,
          "sequence": 12
        },
        {
          "id": "210100020752003",
          "stationId": "210100020752003",
          "nameZh": "滂江街",
          "nameEn": "Pangjiangjie",
          "target": "pangjiangjie",
          "pinyin": "pangjiangjie",
          "lat": 41.808405,
          "lon": 123.488594,
          "sequence": 13
        },
        {
          "id": "900000039634014",
          "stationId": "900000039634014",
          "nameZh": "长安路",
          "nameEn": "Chang'anlu",
          "target": "chang'anlu",
          "pinyin": "changanlu",
          "lat": 41.798948,
          "lon": 123.485925,
          "sequence": 14
        },
        {
          "id": "900000039634015",
          "stationId": "900000039634015",
          "nameZh": "万莲",
          "nameEn": "Wanlian",
          "target": "wanlian",
          "pinyin": "wanlian",
          "lat": 41.790153,
          "lon": 123.483277,
          "sequence": 15
        },
        {
          "id": "900000039634016",
          "stationId": "900000039634016",
          "nameZh": "泉园",
          "nameEn": "Quanyuan",
          "target": "quanyuan",
          "pinyin": "quanyuan",
          "lat": 41.777588,
          "lon": 123.478432,
          "sequence": 16
        },
        {
          "id": "900000039634017",
          "stationId": "900000039634017",
          "nameZh": "江东街",
          "nameEn": "Jiangdongjie",
          "target": "jiangdongjie",
          "pinyin": "jiangdongjie",
          "lat": 41.769458,
          "lon": 123.487878,
          "sequence": 17
        },
        {
          "id": "900000039634018",
          "stationId": "900000039634018",
          "nameZh": "长青桥",
          "nameEn": "Changqingqiao",
          "target": "changqingqiao",
          "pinyin": "changqingqiao",
          "lat": 41.760952,
          "lon": 123.495686,
          "sequence": 18
        },
        {
          "id": "900000039632022",
          "stationId": "900000039632022",
          "nameZh": "长青南街",
          "nameEn": "Changqingnanjie",
          "target": "changqingnanjie",
          "pinyin": "changqingnanjie",
          "lat": 41.744319,
          "lon": 123.501572,
          "sequence": 19
        },
        {
          "id": "900000039634020",
          "stationId": "900000039634020",
          "nameZh": "理工大学",
          "nameEn": "Ligongdaxue",
          "target": "ligongdaxue",
          "pinyin": "ligongdaxue",
          "lat": 41.733153,
          "lon": 123.505348,
          "sequence": 20
        },
        {
          "id": "900000039634021",
          "stationId": "900000039634021",
          "nameZh": "张沙布",
          "nameEn": "Zhangshabu",
          "target": "zhangshabu",
          "pinyin": "zhangshabu",
          "lat": 41.721276,
          "lon": 123.513012,
          "sequence": 21
        }
      ],
      "segments": [
        [
          "900000039634001",
          "900000039634002",
          "900000039634003",
          "900000039634004",
          "900000039632002",
          "900000039634006",
          "900000039634007",
          "210100020748016",
          "900000039634009",
          "900000039634010",
          "900000039634011",
          "900000039634012",
          "210100020752003",
          "900000039634014",
          "900000039634015",
          "900000039634016",
          "900000039634017",
          "900000039634018",
          "900000039632022",
          "900000039634020",
          "900000039634021"
        ]
      ]
    }
  ]
}