{
  "city": "nanchang",
  "cityNameZh": "南昌",
  "cityNameEn": "Nanchang",
  "source": "高德地图地铁数据（非官方接口）· 官方英文站名整理自 Wikipedia",
  "generatedAt": "2026-07-14T14:48:50.288Z",
  "lines": [
    {
      "id": "3601-1",
      "operatorId": "3601",
      "operatorName": "南昌地铁",
      "lineId": "1",
      "lineName": "1号线",
      "color": "#E3002A",
      "loop": false,
      "stations": [
        {
          "id": "360100020431026",
          "stationId": "360100020431026",
          "nameZh": "昌北机场",
          "nameEn": "Changbei Jichang",
          "target": "changbei jichang",
          "pinyin": "changbeijichang",
          "lat": 28.855564,
          "lon": 115.918586,
          "sequence": 1
        },
        {
          "id": "360100020431027",
          "stationId": "360100020431027",
          "nameZh": "汇贤大道",
          "nameEn": "Huixian Dadao",
          "target": "huixian dadao",
          "pinyin": "huixiandadao",
          "lat": 28.806308,
          "lon": 115.882005,
          "sequence": 2
        },
        {
          "id": "360100020431028",
          "stationId": "360100020431028",
          "nameZh": "建业大道",
          "nameEn": "Jianye Dadao",
          "target": "jianye dadao",
          "pinyin": "jianyedadao",
          "lat": 28.792796,
          "lon": 115.880506,
          "sequence": 3
        },
        {
          "id": "360100020431029",
          "stationId": "360100020431029",
          "nameZh": "定子山",
          "nameEn": "Dingzi Shan",
          "target": "dingzi shan",
          "pinyin": "dingzishan",
          "lat": 28.772147,
          "lon": 115.874417,
          "sequence": 4
        },
        {
          "id": "360100020431030",
          "stationId": "360100020431030",
          "nameZh": "冠山",
          "nameEn": "Guanshan",
          "target": "guanshan",
          "pinyin": "guanshan",
          "lat": 28.772526,
          "lon": 115.861531,
          "sequence": 5
        },
        {
          "id": "360100020431031",
          "stationId": "360100020431031",
          "nameZh": "南齿",
          "nameEn": "Nanchi",
          "target": "nanchi",
          "pinyin": "nanchi",
          "lat": 28.765791,
          "lon": 115.851141,
          "sequence": 6
        },
        {
          "id": "360100020431032",
          "stationId": "360100020431032",
          "nameZh": "方志敏大道",
          "nameEn": "Fangzhimin Dadao",
          "target": "fangzhimin dadao",
          "pinyin": "fangzhimindadao",
          "lat": 28.75894,
          "lon": 115.855573,
          "sequence": 7
        },
        {
          "id": "360100020431033",
          "stationId": "360100020431033",
          "nameZh": "蛟桥",
          "nameEn": "Jiaoqiao",
          "target": "jiaoqiao",
          "pinyin": "jiaoqiao",
          "lat": 28.751591,
          "lon": 115.858957,
          "sequence": 8
        },
        {
          "id": "360100020431002",
          "stationId": "360100020431002",
          "nameZh": "双港",
          "nameEn": "Shuanggang",
          "target": "shuanggang",
          "pinyin": "shuanggang",
          "lat": 28.743126,
          "lon": 115.86114,
          "sequence": 9
        },
        {
          "id": "360100020431003",
          "stationId": "360100020431003",
          "nameZh": "孔目湖",
          "nameEn": "Kongmuhu",
          "target": "kongmuhu",
          "pinyin": "kongmuhu",
          "lat": 28.732878,
          "lon": 115.857961,
          "sequence": 10
        },
        {
          "id": "360100020431004",
          "stationId": "360100020431004",
          "nameZh": "长江路",
          "nameEn": "Changjiang Lu",
          "target": "changjiang lu",
          "pinyin": "changjianglu",
          "lat": 28.717481,
          "lon": 115.879619,
          "sequence": 11
        },
        {
          "id": "360100020431005",
          "stationId": "360100020431005",
          "nameZh": "珠江路",
          "nameEn": "Zhujiang Lu",
          "target": "zhujiang lu",
          "pinyin": "zhujianglu",
          "lat": 28.707524,
          "lon": 115.875913,
          "sequence": 12
        },
        {
          "id": "360100020431006",
          "stationId": "360100020431006",
          "nameZh": "庐山南大道",
          "nameEn": "Lushan Nan Dadao",
          "target": "lushan nan dadao",
          "pinyin": "lushannandadao",
          "lat": 28.701409,
          "lon": 115.865669,
          "sequence": 13
        },
        {
          "id": "360100020431007",
          "stationId": "360100020431007",
          "nameZh": "绿茵路",
          "nameEn": "Lvyin Lu",
          "target": "lvyin lu",
          "pinyin": "lvyinlu",
          "lat": 28.697587,
          "lon": 115.858056,
          "sequence": 14
        },
        {
          "id": "360100020431008",
          "stationId": "360100020431008",
          "nameZh": "卫东",
          "nameEn": "Weidong",
          "target": "weidong",
          "pinyin": "weidong",
          "lat": 28.690856,
          "lon": 115.848986,
          "sequence": 15
        },
        {
          "id": "360100020431009",
          "stationId": "360100020431009",
          "nameZh": "地铁大厦",
          "nameEn": "Ditie Dasha",
          "target": "ditie dasha",
          "pinyin": "ditiedasha",
          "lat": 28.684076,
          "lon": 115.852386,
          "sequence": 16
        },
        {
          "id": "360100020431010",
          "stationId": "360100020431010",
          "nameZh": "秋水广场",
          "nameEn": "Qiushui Guangchang",
          "target": "qiushui guangchang",
          "pinyin": "qiushuiguangchang",
          "lat": 28.681095,
          "lon": 115.859973,
          "sequence": 17
        },
        {
          "id": "360100020431011",
          "stationId": "360100020431011",
          "nameZh": "滕王阁",
          "nameEn": "Tengwangge",
          "target": "tengwangge",
          "pinyin": "tengwangge",
          "lat": 28.673301,
          "lon": 115.877788,
          "sequence": 18
        },
        {
          "id": "360100020431012",
          "stationId": "360100020431012",
          "nameZh": "万寿宫",
          "nameEn": "Wanshougong",
          "target": "wanshougong",
          "pinyin": "wanshougong",
          "lat": 28.675086,
          "lon": 115.885883,
          "sequence": 19
        },
        {
          "id": "360100020431013",
          "stationId": "360100020431013",
          "nameZh": "八一馆",
          "nameEn": "Bayi Guan",
          "target": "bayi guan",
          "pinyin": "bayiguan",
          "lat": 28.675662,
          "lon": 115.891587,
          "sequence": 20
        },
        {
          "id": "360100020431014",
          "stationId": "360100020431014",
          "nameZh": "八一广场",
          "nameEn": "Bayi Guangchang",
          "target": "bayi guangchang",
          "pinyin": "bayiguangchang",
          "lat": 28.67514,
          "lon": 115.902665,
          "sequence": 21
        },
        {
          "id": "360100020431015",
          "stationId": "360100020431015",
          "nameZh": "丁公路北",
          "nameEn": "Ding Gonglu Bei",
          "target": "ding gonglu bei",
          "pinyin": "dinggonglubei",
          "lat": 28.673932,
          "lon": 115.913333,
          "sequence": 22
        },
        {
          "id": "360100020431016",
          "stationId": "360100020431016",
          "nameZh": "师大南路",
          "nameEn": "Shida Nanlu",
          "target": "shida nanlu",
          "pinyin": "shidananlu",
          "lat": 28.674034,
          "lon": 115.924203,
          "sequence": 23
        },
        {
          "id": "360100020431017",
          "stationId": "360100020431017",
          "nameZh": "彭家桥",
          "nameEn": "Pengjiaqiao",
          "target": "pengjiaqiao",
          "pinyin": "pengjiaqiao",
          "lat": 28.674227,
          "lon": 115.933419,
          "sequence": 24
        },
        {
          "id": "360100020431018",
          "stationId": "360100020431018",
          "nameZh": "谢家村",
          "nameEn": "Xiejiacun",
          "target": "xiejiacun",
          "pinyin": "xiejiacun",
          "lat": 28.674256,
          "lon": 115.9407,
          "sequence": 25
        },
        {
          "id": "360100020431019",
          "stationId": "360100020431019",
          "nameZh": "青山湖大道",
          "nameEn": "Qingshanhu Dadao",
          "target": "qingshanhu dadao",
          "pinyin": "qingshanhudadao",
          "lat": 28.674362,
          "lon": 115.948839,
          "sequence": 26
        },
        {
          "id": "360100020431020",
          "stationId": "360100020431020",
          "nameZh": "高新大道",
          "nameEn": "Gaoxin Dadao",
          "target": "gaoxin dadao",
          "pinyin": "gaoxindadao",
          "lat": 28.674424,
          "lon": 115.960385,
          "sequence": 27
        },
        {
          "id": "360100020431021",
          "stationId": "360100020431021",
          "nameZh": "艾溪湖西",
          "nameEn": "Aixi Huxi",
          "target": "aixi huxi",
          "pinyin": "aixihuxi",
          "lat": 28.674424,
          "lon": 115.973691,
          "sequence": 28
        },
        {
          "id": "360100020431022",
          "stationId": "360100020431022",
          "nameZh": "艾溪湖东",
          "nameEn": "Aixi Hudong",
          "target": "aixi hudong",
          "pinyin": "aixihudong",
          "lat": 28.674697,
          "lon": 115.993481,
          "sequence": 29
        },
        {
          "id": "360100020431023",
          "stationId": "360100020431023",
          "nameZh": "太子殿",
          "nameEn": "Taizidian",
          "target": "taizidian",
          "pinyin": "taizidian",
          "lat": 28.67501,
          "lon": 116.011198,
          "sequence": 30
        },
        {
          "id": "360100020431024",
          "stationId": "360100020431024",
          "nameZh": "奥体中心",
          "nameEn": "Aoti Zhongxin",
          "target": "aoti zhongxin",
          "pinyin": "aotizhongxin",
          "lat": 28.674482,
          "lon": 116.024731,
          "sequence": 31
        },
        {
          "id": "360100020431025",
          "stationId": "360100020431025",
          "nameZh": "瑶湖西",
          "nameEn": "Yao Huxi",
          "target": "yao huxi",
          "pinyin": "yaohuxi",
          "lat": 28.672109,
          "lon": 116.038354,
          "sequence": 32
        },
        {
          "id": "360100020431034",
          "stationId": "360100020431034",
          "nameZh": "瑶湖东",
          "nameEn": "Yao Hudong",
          "target": "yao hudong",
          "pinyin": "yaohudong",
          "lat": 28.666177,
          "lon": 116.061335,
          "sequence": 33
        },
        {
          "id": "360100020431035",
          "stationId": "360100020431035",
          "nameZh": "麻丘",
          "nameEn": "Maqiu",
          "target": "maqiu",
          "pinyin": "maqiu",
          "lat": 28.66657,
          "lon": 116.078631,
          "sequence": 34
        }
      ],
      "segments": [
        [
          "360100020431026",
          "360100020431027",
          "360100020431028",
          "360100020431029",
          "360100020431030",
          "360100020431031",
          "360100020431032",
          "360100020431033",
          "360100020431002",
          "360100020431003",
          "360100020431004",
          "360100020431005",
          "360100020431006",
          "360100020431007",
          "360100020431008",
          "360100020431009",
          "360100020431010",
          "360100020431011",
          "360100020431012",
          "360100020431013",
          "360100020431014",
          "360100020431015",
          "360100020431016",
          "360100020431017",
          "360100020431018",
          "360100020431019",
          "360100020431020",
          "360100020431021",
          "360100020431022",
          "360100020431023",
          "360100020431024",
          "360100020431025",
          "360100020431034",
          "360100020431035"
        ]
      ]
    },
    {
      "id": "3601-2",
      "operatorId": "3601",
      "operatorName": "南昌地铁",
      "lineId": "2",
      "lineName": "2号线",
      "color": "#FFA500",
      "loop": false,
      "stations": [
        {
          "id": "360100020563023",
          "stationId": "360100020563023",
          "nameZh": "南路",
          "nameEn": "Nanlu",
          "target": "nanlu",
          "pinyin": "nanlu",
          "lat": 28.552708,
          "lon": 115.789286,
          "sequence": 1
        },
        {
          "id": "360100020563024",
          "stationId": "360100020563024",
          "nameZh": "南昌中学",
          "nameEn": "Nanchang Zhongxue",
          "target": "nanchang zhongxue",
          "pinyin": "nanchangzhongxue",
          "lat": 28.56059,
          "lon": 115.789363,
          "sequence": 2
        },
        {
          "id": "360100020563025",
          "stationId": "360100020563025",
          "nameZh": "生米",
          "nameEn": "Shengmi",
          "target": "shengmi",
          "pinyin": "shengmi",
          "lat": 28.571832,
          "lon": 115.790844,
          "sequence": 3
        },
        {
          "id": "360100020563026",
          "stationId": "360100020563026",
          "nameZh": "九龙湖南",
          "nameEn": "Jiulong Hunan",
          "target": "jiulong hunan",
          "pinyin": "jiulonghunan",
          "lat": 28.579703,
          "lon": 115.793412,
          "sequence": 4
        },
        {
          "id": "360100020563027",
          "stationId": "360100020563027",
          "nameZh": "市民中心",
          "nameEn": "Shimin Zhongxin",
          "target": "shimin zhongxin",
          "pinyin": "shiminzhongxin",
          "lat": 28.593435,
          "lon": 115.79619,
          "sequence": 5
        },
        {
          "id": "360100020563028",
          "stationId": "360100020563028",
          "nameZh": "鹰潭街",
          "nameEn": "Yingtan Jie",
          "target": "yingtan jie",
          "pinyin": "yingtanjie",
          "lat": 28.599043,
          "lon": 115.799006,
          "sequence": 6
        },
        {
          "id": "360100020563029",
          "stationId": "360100020563029",
          "nameZh": "国博",
          "nameEn": "Guobo",
          "target": "guobo",
          "pinyin": "guobo",
          "lat": 28.608219,
          "lon": 115.79587,
          "sequence": 7
        },
        {
          "id": "360100020563022",
          "stationId": "360100020563022",
          "nameZh": "西站南广场",
          "nameEn": "Xizhan Nan Guangchang",
          "target": "xizhan nan guangchang",
          "pinyin": "xizhannanguangchang",
          "lat": 28.618386,
          "lon": 115.790539,
          "sequence": 8
        },
        {
          "id": "360100020563002",
          "stationId": "360100020563002",
          "nameZh": "南昌西站",
          "nameEn": "Nanchang Xizhan",
          "target": "nanchang xizhan",
          "pinyin": "nanchangxizhan",
          "lat": 28.623431,
          "lon": 115.793362,
          "sequence": 9
        },
        {
          "id": "360100020563003",
          "stationId": "360100020563003",
          "nameZh": "龙岗",
          "nameEn": "Longgang",
          "target": "longgang",
          "pinyin": "longgang",
          "lat": 28.623161,
          "lon": 115.802987,
          "sequence": 10
        },
        {
          "id": "360100020563004",
          "stationId": "360100020563004",
          "nameZh": "国体中心",
          "nameEn": "Guoti Zhongxin",
          "target": "guoti zhongxin",
          "pinyin": "guotizhongxin",
          "lat": 28.622378,
          "lon": 115.816739,
          "sequence": 11
        },
        {
          "id": "360100020563005",
          "stationId": "360100020563005",
          "nameZh": "卧龙山",
          "nameEn": "Wo Longshan",
          "target": "wo longshan",
          "pinyin": "wolongshan",
          "lat": 28.631606,
          "lon": 115.822477,
          "sequence": 12
        },
        {
          "id": "360100020563006",
          "stationId": "360100020563006",
          "nameZh": "岭北",
          "nameEn": "Lingbei",
          "target": "lingbei",
          "pinyin": "lingbei",
          "lat": 28.641038,
          "lon": 115.830145,
          "sequence": 13
        },
        {
          "id": "360100020563007",
          "stationId": "360100020563007",
          "nameZh": "前湖大道",
          "nameEn": "Qianhu Dadao",
          "target": "qianhu dadao",
          "pinyin": "qianhudadao",
          "lat": 28.651869,
          "lon": 115.834939,
          "sequence": 14
        },
        {
          "id": "360100020563008",
          "stationId": "360100020563008",
          "nameZh": "学府大道东",
          "nameEn": "Xuefu Dadao Dong",
          "target": "xuefu dadao dong",
          "pinyin": "xuefudadaodong",
          "lat": 28.659244,
          "lon": 115.839123,
          "sequence": 15
        },
        {
          "id": "360100020563009",
          "stationId": "360100020563009",
          "nameZh": "翠苑路",
          "nameEn": "Cuiyuan Lu",
          "target": "cuiyuan lu",
          "pinyin": "cuiyuanlu",
          "lat": 28.67262,
          "lon": 115.846675,
          "sequence": 16
        },
        {
          "id": "360100020431009",
          "stationId": "360100020431009",
          "nameZh": "地铁大厦",
          "nameEn": "Ditie Dasha",
          "target": "ditie dasha",
          "pinyin": "ditiedasha",
          "lat": 28.684076,
          "lon": 115.852386,
          "sequence": 17
        },
        {
          "id": "360100020563030",
          "stationId": "360100020563030",
          "nameZh": "雅苑路",
          "nameEn": "Yayuan Lu",
          "target": "yayuan lu",
          "pinyin": "yayuanlu",
          "lat": 28.692061,
          "lon": 115.857386,
          "sequence": 18
        },
        {
          "id": "360100020563031",
          "stationId": "360100020563031",
          "nameZh": "红谷中大道",
          "nameEn": "Honggu Zhong Dadao",
          "target": "honggu zhong dadao",
          "pinyin": "hongguzhongdadao",
          "lat": 28.691703,
          "lon": 115.867006,
          "sequence": 19
        },
        {
          "id": "360100020563032",
          "stationId": "360100020563032",
          "nameZh": "阳明公园",
          "nameEn": "Yangming Gongyuan",
          "target": "yangming gongyuan",
          "pinyin": "yangminggongyuan",
          "lat": 28.687954,
          "lon": 115.891286,
          "sequence": 20
        },
        {
          "id": "360100020563033",
          "stationId": "360100020563033",
          "nameZh": "青山路口",
          "nameEn": "Qingshan Lukou",
          "target": "qingshan lukou",
          "pinyin": "qingshanlukou",
          "lat": 28.687249,
          "lon": 115.902096,
          "sequence": 21
        },
        {
          "id": "360100020563034",
          "stationId": "360100020563034",
          "nameZh": "福州路",
          "nameEn": "Fuzhou Lu",
          "target": "fuzhou lu",
          "pinyin": "fuzhoulu",
          "lat": 28.680642,
          "lon": 115.903284,
          "sequence": 22
        },
        {
          "id": "360100020431014",
          "stationId": "360100020431014",
          "nameZh": "八一广场",
          "nameEn": "Bayi Guangchang",
          "target": "bayi guangchang",
          "pinyin": "bayiguangchang",
          "lat": 28.67514,
          "lon": 115.902665,
          "sequence": 23
        },
        {
          "id": "360100020563036",
          "stationId": "360100020563036",
          "nameZh": "永叔路",
          "nameEn": "Yongshu Lu",
          "target": "yongshu lu",
          "pinyin": "yongshulu",
          "lat": 28.666803,
          "lon": 115.90533,
          "sequence": 24
        },
        {
          "id": "360100020563037",
          "stationId": "360100020563037",
          "nameZh": "丁公路南",
          "nameEn": "Ding Gonglu Nan",
          "target": "ding gonglu nan",
          "pinyin": "dinggonglunan",
          "lat": 28.663235,
          "lon": 115.912587,
          "sequence": 25
        },
        {
          "id": "360100020563038",
          "stationId": "360100020563038",
          "nameZh": "南昌火车站",
          "nameEn": "Nanchang Huochezhan",
          "target": "nanchang huochezhan",
          "pinyin": "nanchanghuochezhan",
          "lat": 28.663184,
          "lon": 115.921001,
          "sequence": 26
        },
        {
          "id": "360100020563039",
          "stationId": "360100020563039",
          "nameZh": "顺外",
          "nameEn": "Shunwai",
          "target": "shunwai",
          "pinyin": "shunwai",
          "lat": 28.663683,
          "lon": 115.928124,
          "sequence": 27
        },
        {
          "id": "360100020563040",
          "stationId": "360100020563040",
          "nameZh": "辛家庵",
          "nameEn": "Xinjiaan",
          "target": "xinjiaan",
          "pinyin": "xinjiaan",
          "lat": 28.659337,
          "lon": 115.93957,
          "sequence": 28
        },
        {
          "id": "360100020563041",
          "stationId": "360100020563041",
          "nameZh": "楞上",
          "nameEn": "Lengshang",
          "target": "lengshang",
          "pinyin": "lengshang",
          "lat": 28.650701,
          "lon": 115.942831,
          "sequence": 29
        },
        {
          "id": "360100020563042",
          "stationId": "360100020563042",
          "nameZh": "北罗",
          "nameEn": "Beiluo",
          "target": "beiluo",
          "pinyin": "beiluo",
          "lat": 28.647897,
          "lon": 115.949706,
          "sequence": 30
        },
        {
          "id": "360100020563043",
          "stationId": "360100020563043",
          "nameZh": "李巷",
          "nameEn": "Lixiang",
          "target": "lixiang",
          "pinyin": "lixiang",
          "lat": 28.643979,
          "lon": 115.957776,
          "sequence": 31
        },
        {
          "id": "360100020563044",
          "stationId": "360100020563044",
          "nameZh": "沈桥",
          "nameEn": "Shenqiao",
          "target": "shenqiao",
          "pinyin": "shenqiao",
          "lat": 28.640865,
          "lon": 115.97193,
          "sequence": 32
        },
        {
          "id": "360100020563045",
          "stationId": "360100020563045",
          "nameZh": "观田",
          "nameEn": "Guantian",
          "target": "guantian",
          "pinyin": "guantian",
          "lat": 28.638231,
          "lon": 115.980876,
          "sequence": 33
        },
        {
          "id": "360100020563046",
          "stationId": "360100020563046",
          "nameZh": "罗家集",
          "nameEn": "Luojiaji",
          "target": "luojiaji",
          "pinyin": "luojiaji",
          "lat": 28.633385,
          "lon": 115.989514,
          "sequence": 34
        },
        {
          "id": "360100020563047",
          "stationId": "360100020563047",
          "nameZh": "枫下",
          "nameEn": "Fengxia",
          "target": "fengxia",
          "pinyin": "fengxia",
          "lat": 28.622442,
          "lon": 115.997133,
          "sequence": 35
        },
        {
          "id": "360100020563048",
          "stationId": "360100020563048",
          "nameZh": "国展中心",
          "nameEn": "Guozhan Zhongxin",
          "target": "guozhan zhongxin",
          "pinyin": "guozhanzhongxin",
          "lat": 28.616119,
          "lon": 116.006438,
          "sequence": 36
        },
        {
          "id": "360100020563049",
          "stationId": "360100020563049",
          "nameZh": "南昌东站",
          "nameEn": "Nanchang Dongzhan",
          "target": "nanchang dongzhan",
          "pinyin": "nanchangdongzhan",
          "lat": 28.614108,
          "lon": 116.018241,
          "sequence": 37
        }
      ],
      "segments": [
        [
          "360100020563023",
          "360100020563024",
          "360100020563025",
          "360100020563026",
          "360100020563027",
          "360100020563028",
          "360100020563029",
          "360100020563022",
          "360100020563002",
          "360100020563003",
          "360100020563004",
          "360100020563005",
          "360100020563006",
          "360100020563007",
          "360100020563008",
          "360100020563009",
          "360100020431009",
          "360100020563030",
          "360100020563031",
          "360100020563032",
          "360100020563033",
          "360100020563034",
          "360100020431014",
          "360100020563036",
          "360100020563037",
          "360100020563038",
          "360100020563039",
          "360100020563040",
          "360100020563041",
          "360100020563042",
          "360100020563043",
          "360100020563044",
          "360100020563045",
          "360100020563046",
          "360100020563047",
          "360100020563048",
          "360100020563049"
        ]
      ]
    },
    {
      "id": "3601-3",
      "operatorId": "3601",
      "operatorName": "南昌地铁",
      "lineId": "3",
      "lineName": "3号线",
      "color": "#0065B3",
      "loop": false,
      "stations": [
        {
          "id": "900000057035001",
          "stationId": "900000057035001",
          "nameZh": "京东大道",
          "nameEn": "Jingdong Dadao",
          "target": "jingdong dadao",
          "pinyin": "jingdongdadao",
          "lat": 28.692445,
          "lon": 115.972495,
          "sequence": 1
        },
        {
          "id": "900000057035002",
          "stationId": "900000057035002",
          "nameZh": "梁万",
          "nameEn": "Liangwan",
          "target": "liangwan",
          "pinyin": "liangwan",
          "lat": 28.690277,
          "lon": 115.960352,
          "sequence": 2
        },
        {
          "id": "900000057035003",
          "stationId": "900000057035003",
          "nameZh": "火炬广场",
          "nameEn": "Huoju Guangchang",
          "target": "huoju guangchang",
          "pinyin": "huojuguangchang",
          "lat": 28.688182,
          "lon": 115.949586,
          "sequence": 3
        },
        {
          "id": "900000057035004",
          "stationId": "900000057035004",
          "nameZh": "国威路",
          "nameEn": "Guowei Lu",
          "target": "guowei lu",
          "pinyin": "guoweilu",
          "lat": 28.687168,
          "lon": 115.941806,
          "sequence": 4
        },
        {
          "id": "900000057035005",
          "stationId": "900000057035005",
          "nameZh": "青山湖西",
          "nameEn": "Qingshan Huxi",
          "target": "qingshan huxi",
          "pinyin": "qingshanhuxi",
          "lat": 28.693267,
          "lon": 115.923339,
          "sequence": 5
        },
        {
          "id": "900000057035006",
          "stationId": "900000057035006",
          "nameZh": "上沙沟",
          "nameEn": "Shangshagou",
          "target": "shangshagou",
          "pinyin": "shangshagou",
          "lat": 28.694437,
          "lon": 115.911541,
          "sequence": 6
        },
        {
          "id": "360100020563033",
          "stationId": "360100020563033",
          "nameZh": "青山路口",
          "nameEn": "Qingshan Lukou",
          "target": "qingshan lukou",
          "pinyin": "qingshanlukou",
          "lat": 28.687249,
          "lon": 115.902096,
          "sequence": 7
        },
        {
          "id": "900000057035008",
          "stationId": "900000057035008",
          "nameZh": "墩子塘",
          "nameEn": "Dunzitang",
          "target": "dunzitang",
          "pinyin": "dunzitang",
          "lat": 28.684957,
          "lon": 115.894791,
          "sequence": 8
        },
        {
          "id": "360100020431013",
          "stationId": "360100020431013",
          "nameZh": "八一馆",
          "nameEn": "Bayi Guan",
          "target": "bayi guan",
          "pinyin": "bayiguan",
          "lat": 28.675662,
          "lon": 115.891587,
          "sequence": 9
        },
        {
          "id": "900000057035010",
          "stationId": "900000057035010",
          "nameZh": "六眼井",
          "nameEn": "Liuyanjing",
          "target": "liuyanjing",
          "pinyin": "liuyanjing",
          "lat": 28.669774,
          "lon": 115.893928,
          "sequence": 10
        },
        {
          "id": "900000057035011",
          "stationId": "900000057035011",
          "nameZh": "绳金塔",
          "nameEn": "Shengjinta",
          "target": "shengjinta",
          "pinyin": "shengjinta",
          "lat": 28.658241,
          "lon": 115.901415,
          "sequence": 11
        },
        {
          "id": "900000057035012",
          "stationId": "900000057035012",
          "nameZh": "十字街",
          "nameEn": "Shizijie",
          "target": "shizijie",
          "pinyin": "shizijie",
          "lat": 28.654019,
          "lon": 115.905827,
          "sequence": 12
        },
        {
          "id": "900000057035013",
          "stationId": "900000057035013",
          "nameZh": "京家山",
          "nameEn": "Jingjia Shan",
          "target": "jingjia shan",
          "pinyin": "jingjiashan",
          "lat": 28.638918,
          "lon": 115.90652,
          "sequence": 13
        },
        {
          "id": "900000057035014",
          "stationId": "900000057035014",
          "nameZh": "江铃",
          "nameEn": "Jiangling",
          "target": "jiangling",
          "pinyin": "jiangling",
          "lat": 28.62428,
          "lon": 115.907392,
          "sequence": 14
        },
        {
          "id": "900000057035015",
          "stationId": "900000057035015",
          "nameZh": "施尧",
          "nameEn": "Shiyao",
          "target": "shiyao",
          "pinyin": "shiyao",
          "lat": 28.615223,
          "lon": 115.907844,
          "sequence": 15
        },
        {
          "id": "900000057035016",
          "stationId": "900000057035016",
          "nameZh": "八大山人",
          "nameEn": "Bada Shanren",
          "target": "bada shanren",
          "pinyin": "badashanren",
          "lat": 28.601805,
          "lon": 115.908447,
          "sequence": 16
        },
        {
          "id": "900000057035017",
          "stationId": "900000057035017",
          "nameZh": "邓埠",
          "nameEn": "Dengbu",
          "target": "dengbu",
          "pinyin": "dengbu",
          "lat": 28.589895,
          "lon": 115.909837,
          "sequence": 17
        },
        {
          "id": "900000057035018",
          "stationId": "900000057035018",
          "nameZh": "复兴大道东",
          "nameEn": "Fuxing Dadao Dong",
          "target": "fuxing dadao dong",
          "pinyin": "fuxingdadaodong",
          "lat": 28.576072,
          "lon": 115.912332,
          "sequence": 18
        },
        {
          "id": "900000057035019",
          "stationId": "900000057035019",
          "nameZh": "沥山",
          "nameEn": "Li Shan",
          "target": "li shan",
          "pinyin": "lishan",
          "lat": 28.556331,
          "lon": 115.915972,
          "sequence": 19
        },
        {
          "id": "900000057035020",
          "stationId": "900000057035020",
          "nameZh": "柏岗",
          "nameEn": "Baigang",
          "target": "baigang",
          "pinyin": "baigang",
          "lat": 28.544366,
          "lon": 115.91819,
          "sequence": 20
        },
        {
          "id": "900000057035021",
          "stationId": "900000057035021",
          "nameZh": "斗门",
          "nameEn": "Doumen",
          "target": "doumen",
          "pinyin": "doumen",
          "lat": 28.528927,
          "lon": 115.927796,
          "sequence": 21
        },
        {
          "id": "900000057035022",
          "stationId": "900000057035022",
          "nameZh": "银三角北",
          "nameEn": "Yin Sanjiao Bei",
          "target": "yin sanjiao bei",
          "pinyin": "yinsanjiaobei",
          "lat": 28.520919,
          "lon": 115.934838,
          "sequence": 22
        }
      ],
      "segments": [
        [
          "900000057035001",
          "900000057035002",
          "900000057035003",
          "900000057035004",
          "900000057035005",
          "900000057035006",
          "360100020563033",
          "900000057035008",
          "360100020431013",
          "900000057035010",
          "900000057035011",
          "900000057035012",
          "900000057035013",
          "900000057035014",
          "900000057035015",
          "900000057035016",
          "900000057035017",
          "900000057035018",
          "900000057035019",
          "900000057035020",
          "900000057035021",
          "900000057035022"
        ]
      ]
    },
    {
      "id": "3601-4",
      "operatorId": "3601",
      "operatorName": "南昌地铁",
      "lineId": "4",
      "lineName": "4号线",
      "color": "#00AD8E",
      "loop": false,
      "stations": [
        {
          "id": "900000068673001",
          "stationId": "900000068673001",
          "nameZh": "白马山",
          "nameEn": "Baimashan",
          "target": "baimashan",
          "pinyin": "baimashan",
          "lat": 28.630675,
          "lon": 115.722486,
          "sequence": 1
        },
        {
          "id": "900000068673002",
          "stationId": "900000068673002",
          "nameZh": "裕丰街",
          "nameEn": "Yufeng Jie",
          "target": "yufeng jie",
          "pinyin": "yufengjie",
          "lat": 28.620635,
          "lon": 115.730482,
          "sequence": 2
        },
        {
          "id": "900000068673003",
          "stationId": "900000068673003",
          "nameZh": "璜溪",
          "nameEn": "Huangxi",
          "target": "huangxi",
          "pinyin": "huangxi",
          "lat": 28.620206,
          "lon": 115.740447,
          "sequence": 3
        },
        {
          "id": "900000068673004",
          "stationId": "900000068673004",
          "nameZh": "中堡",
          "nameEn": "Zhongbu",
          "target": "zhongbu",
          "pinyin": "zhongbu",
          "lat": 28.62331,
          "lon": 115.753264,
          "sequence": 4
        },
        {
          "id": "900000068673005",
          "stationId": "900000068673005",
          "nameZh": "礼庄山",
          "nameEn": "Li Zhuangshan",
          "target": "li zhuangshan",
          "pinyin": "lizhuangshan",
          "lat": 28.62549,
          "lon": 115.771718,
          "sequence": 5
        },
        {
          "id": "360100020563022",
          "stationId": "360100020563022",
          "nameZh": "西站南广场",
          "nameEn": "Xizhan Nan Guangchang",
          "target": "xizhan nan guangchang",
          "pinyin": "xizhannanguangchang",
          "lat": 28.618386,
          "lon": 115.790539,
          "sequence": 6
        },
        {
          "id": "900000068673007",
          "stationId": "900000068673007",
          "nameZh": "怀玉山大道",
          "nameEn": "Huai Yushan Dadao",
          "target": "huai yushan dadao",
          "pinyin": "huaiyushandadao",
          "lat": 28.615132,
          "lon": 115.799433,
          "sequence": 7
        },
        {
          "id": "900000068673008",
          "stationId": "900000068673008",
          "nameZh": "安丰",
          "nameEn": "Anfeng",
          "target": "anfeng",
          "pinyin": "anfeng",
          "lat": 28.610946,
          "lon": 115.809017,
          "sequence": 8
        },
        {
          "id": "900000068673009",
          "stationId": "900000068673009",
          "nameZh": "东新",
          "nameEn": "Dongxin",
          "target": "dongxin",
          "pinyin": "dongxin",
          "lat": 28.597913,
          "lon": 115.839267,
          "sequence": 9
        },
        {
          "id": "900000068673010",
          "stationId": "900000068673010",
          "nameZh": "新洪城大市场",
          "nameEn": "Xinhongcheng Dashichang",
          "target": "xinhongcheng dashichang",
          "pinyin": "xinhongchengdashichang",
          "lat": 28.606035,
          "lon": 115.850686,
          "sequence": 10
        },
        {
          "id": "900000068673011",
          "stationId": "900000068673011",
          "nameZh": "丁家洲",
          "nameEn": "Ding Jiazhou",
          "target": "ding jiazhou",
          "pinyin": "dingjiazhou",
          "lat": 28.622645,
          "lon": 115.856715,
          "sequence": 11
        },
        {
          "id": "900000068673012",
          "stationId": "900000068673012",
          "nameZh": "观洲",
          "nameEn": "Guanzhou",
          "target": "guanzhou",
          "pinyin": "guanzhou",
          "lat": 28.632342,
          "lon": 115.863173,
          "sequence": 12
        },
        {
          "id": "900000068673013",
          "stationId": "900000068673013",
          "nameZh": "云天路",
          "nameEn": "Yuntian Lu",
          "target": "yuntian lu",
          "pinyin": "yuntianlu",
          "lat": 28.639402,
          "lon": 115.867984,
          "sequence": 13
        },
        {
          "id": "900000068673014",
          "stationId": "900000068673014",
          "nameZh": "灌婴路",
          "nameEn": "Guanying Lu",
          "target": "guanying lu",
          "pinyin": "guanyinglu",
          "lat": 28.648037,
          "lon": 115.872805,
          "sequence": 14
        },
        {
          "id": "900000068673015",
          "stationId": "900000068673015",
          "nameZh": "南昌大桥东",
          "nameEn": "Nanchang Daqiao Dong",
          "target": "nanchang daqiao dong",
          "pinyin": "nanchangdaqiaodong",
          "lat": 28.65544,
          "lon": 115.877592,
          "sequence": 15
        },
        {
          "id": "900000068673016",
          "stationId": "900000068673016",
          "nameZh": "桃苑",
          "nameEn": "Taoyuan",
          "target": "taoyuan",
          "pinyin": "taoyuan",
          "lat": 28.659672,
          "lon": 115.890374,
          "sequence": 16
        },
        {
          "id": "900000057035011",
          "stationId": "900000057035011",
          "nameZh": "绳金塔",
          "nameEn": "Shengjinta",
          "target": "shengjinta",
          "pinyin": "shengjinta",
          "lat": 28.658241,
          "lon": 115.901415,
          "sequence": 17
        },
        {
          "id": "900000068673018",
          "stationId": "900000068673018",
          "nameZh": "坛子口",
          "nameEn": "Tanzikou",
          "target": "tanzikou",
          "pinyin": "tanzikou",
          "lat": 28.657195,
          "lon": 115.909834,
          "sequence": 18
        },
        {
          "id": "360100020563037",
          "stationId": "360100020563037",
          "nameZh": "丁公路南",
          "nameEn": "Ding Gonglu Nan",
          "target": "ding gonglu nan",
          "pinyin": "dinggonglunan",
          "lat": 28.663235,
          "lon": 115.912587,
          "sequence": 19
        },
        {
          "id": "360100020431015",
          "stationId": "360100020431015",
          "nameZh": "丁公路北",
          "nameEn": "Ding Gonglu Bei",
          "target": "ding gonglu bei",
          "pinyin": "dinggonglubei",
          "lat": 28.673932,
          "lon": 115.913333,
          "sequence": 20
        },
        {
          "id": "900000068673021",
          "stationId": "900000068673021",
          "nameZh": "人民公园",
          "nameEn": "Renmin Gongyuan",
          "target": "renmin gongyuan",
          "pinyin": "renmingongyuan",
          "lat": 28.684019,
          "lon": 115.912328,
          "sequence": 21
        },
        {
          "id": "900000057035006",
          "stationId": "900000057035006",
          "nameZh": "上沙沟",
          "nameEn": "Shangshagou",
          "target": "shangshagou",
          "pinyin": "shangshagou",
          "lat": 28.694437,
          "lon": 115.911541,
          "sequence": 22
        },
        {
          "id": "900000068673023",
          "stationId": "900000068673023",
          "nameZh": "起凤路",
          "nameEn": "Qifeng Lu",
          "target": "qifeng lu",
          "pinyin": "qifenglu",
          "lat": 28.702316,
          "lon": 115.916931,
          "sequence": 23
        },
        {
          "id": "900000068673024",
          "stationId": "900000068673024",
          "nameZh": "七里",
          "nameEn": "Qili",
          "target": "qili",
          "pinyin": "qili",
          "lat": 28.709415,
          "lon": 115.927472,
          "sequence": 24
        },
        {
          "id": "900000068673025",
          "stationId": "900000068673025",
          "nameZh": "民园路西",
          "nameEn": "Minyuan Lu Xi",
          "target": "minyuan lu xi",
          "pinyin": "minyuanluxi",
          "lat": 28.718601,
          "lon": 115.947587,
          "sequence": 25
        },
        {
          "id": "900000068673026",
          "stationId": "900000068673026",
          "nameZh": "火炬",
          "nameEn": "Huoju",
          "target": "huoju",
          "pinyin": "huoju",
          "lat": 28.716502,
          "lon": 115.960268,
          "sequence": 26
        },
        {
          "id": "900000068673027",
          "stationId": "900000068673027",
          "nameZh": "北沥",
          "nameEn": "Beili",
          "target": "beili",
          "pinyin": "beili",
          "lat": 28.715457,
          "lon": 115.972525,
          "sequence": 27
        },
        {
          "id": "900000068673030",
          "stationId": "900000068673030",
          "nameZh": "科技城",
          "nameEn": "Kejicheng",
          "target": "kejicheng",
          "pinyin": "kejicheng",
          "lat": 28.715406,
          "lon": 115.982102,
          "sequence": 28
        },
        {
          "id": "900000068673029",
          "stationId": "900000068673029",
          "nameZh": "鱼尾洲",
          "nameEn": "Yuweizhou",
          "target": "yuweizhou",
          "pinyin": "yuweizhou",
          "lat": 28.709616,
          "lon": 116.001967,
          "sequence": 29
        }
      ],
      "segments": [
        [
          "900000068673001",
          "900000068673002",
          "900000068673003",
          "900000068673004",
          "900000068673005",
          "360100020563022",
          "900000068673007",
          "900000068673008",
          "900000068673009",
          "900000068673010",
          "900000068673011",
          "900000068673012",
          "900000068673013",
          "900000068673014",
          "900000068673015",
          "900000068673016",
          "900000057035011",
          "900000068673018",
          "360100020563037",
          "360100020431015",
          "900000068673021",
          "900000057035006",
          "900000068673023",
          "900000068673024",
          "900000068673025",
          "900000068673026",
          "900000068673027",
          "900000068673030",
          "900000068673029"
        ]
      ]
    }
  ]
}