{
  "city": "chengdu",
  "cityNameZh": "成都",
  "cityNameEn": "Chengdu",
  "source": "高德地图地铁数据（非官方接口）· 官方英文站名整理自 Wikipedia",
  "generatedAt": "2026-07-14T15:53:16.670Z",
  "lines": [
    {
      "id": "5101-1",
      "operatorId": "5101",
      "operatorName": "成都地铁",
      "lineId": "1",
      "lineName": "1号线",
      "color": "#2249A3",
      "loop": false,
      "stations": [
        {
          "id": "900000071951012",
          "stationId": "900000071951012",
          "nameZh": "科学城",
          "nameEn": "Science City",
          "target": "science city",
          "pinyin": "kexuecheng",
          "lat": 30.391243,
          "lon": 104.072328,
          "sequence": 1
        },
        {
          "id": "900000071951011",
          "stationId": "900000071951011",
          "nameZh": "兴隆湖",
          "nameEn": "Xinglong Lake",
          "target": "xinglong lake",
          "pinyin": "xinglonghu",
          "lat": 30.405196,
          "lon": 104.076412,
          "sequence": 2
        },
        {
          "id": "900000071951010",
          "stationId": "900000071951010",
          "nameZh": "广州路",
          "nameEn": "Guangzhou Road",
          "target": "guangzhou road",
          "pinyin": "guangzhoulu",
          "lat": 30.419021,
          "lon": 104.077269,
          "sequence": 3
        },
        {
          "id": "900000061908045",
          "stationId": "900000061908045",
          "nameZh": "西博城",
          "nameEn": "Western China Int'l Expo City",
          "target": "western china int'l expo city",
          "pinyin": "xibocheng",
          "lat": 30.424349,
          "lon": 104.074399,
          "sequence": 4
        },
        {
          "id": "900000071951008",
          "stationId": "900000071951008",
          "nameZh": "天府公园",
          "nameEn": "Tianfu Park",
          "target": "tianfu park",
          "pinyin": "tianfugongyuan",
          "lat": 30.432976,
          "lon": 104.077748,
          "sequence": 5
        },
        {
          "id": "900000071951007",
          "stationId": "900000071951007",
          "nameZh": "武汉路",
          "nameEn": "Wuhan Road",
          "target": "wuhan road",
          "pinyin": "wuhanlu",
          "lat": 30.441619,
          "lon": 104.07291,
          "sequence": 6
        },
        {
          "id": "900000071951006",
          "stationId": "900000071951006",
          "nameZh": "麓湖",
          "nameEn": "Luhu Lake",
          "target": "luhu lake",
          "pinyin": "luhu",
          "lat": 30.454527,
          "lon": 104.073293,
          "sequence": 7
        },
        {
          "id": "900000071951005",
          "stationId": "900000071951005",
          "nameZh": "红石公园",
          "nameEn": "Hongshi Park",
          "target": "hongshi park",
          "pinyin": "hongshigongyuan",
          "lat": 30.464257,
          "lon": 104.073007,
          "sequence": 8
        },
        {
          "id": "900000071951004",
          "stationId": "900000071951004",
          "nameZh": "广福",
          "nameEn": "Guangfu",
          "target": "guangfu",
          "pinyin": "guangfu",
          "lat": 30.478693,
          "lon": 104.069325,
          "sequence": 9
        },
        {
          "id": "900000068815005",
          "stationId": "900000068815005",
          "nameZh": "海昌路",
          "nameEn": "Haichang Road",
          "target": "haichang road",
          "pinyin": "haichanglu",
          "lat": 30.492778,
          "lon": 104.071583,
          "sequence": 10
        },
        {
          "id": "900000071951002",
          "stationId": "900000071951002",
          "nameZh": "华阳",
          "nameEn": "Huayang",
          "target": "huayang",
          "pinyin": "huayang",
          "lat": 30.503167,
          "lon": 104.070521,
          "sequence": 11
        },
        {
          "id": "510100022320022",
          "stationId": "510100022320022",
          "nameZh": "四河",
          "nameEn": "Sihe",
          "target": "sihe",
          "pinyin": "sihe",
          "lat": 30.516133,
          "lon": 104.070125,
          "sequence": 12
        },
        {
          "id": "510100022320021",
          "stationId": "510100022320021",
          "nameZh": "华府大道",
          "nameEn": "Huafu Avenue",
          "target": "huafu avenue",
          "pinyin": "huafudadao",
          "lat": 30.525746,
          "lon": 104.069836,
          "sequence": 13
        },
        {
          "id": "510100022320020",
          "stationId": "510100022320020",
          "nameZh": "天府五街",
          "nameEn": "5th Tianfu Street",
          "target": "5th tianfu street",
          "pinyin": "tianfuwujie",
          "lat": 30.537107,
          "lon": 104.06951,
          "sequence": 14
        },
        {
          "id": "510100022320019",
          "stationId": "510100022320019",
          "nameZh": "天府三街",
          "nameEn": "3rd Tianfu Street",
          "target": "3rd tianfu street",
          "pinyin": "tianfusanjie",
          "lat": 30.546203,
          "lon": 104.069204,
          "sequence": 15
        },
        {
          "id": "510100022320018",
          "stationId": "510100022320018",
          "nameZh": "世纪城",
          "nameEn": "Century City",
          "target": "century city",
          "pinyin": "shijicheng",
          "lat": 30.55487,
          "lon": 104.06893,
          "sequence": 16
        },
        {
          "id": "510100022320017",
          "stationId": "510100022320017",
          "nameZh": "锦城广场",
          "nameEn": "Jincheng Plaza",
          "target": "jincheng plaza",
          "pinyin": "jinchengguangchang",
          "lat": 30.567722,
          "lon": 104.066528,
          "sequence": 17
        },
        {
          "id": "510100022320016",
          "stationId": "510100022320016",
          "nameZh": "孵化园",
          "nameEn": "Incubation Park",
          "target": "incubation park",
          "pinyin": "fuhuayuan",
          "lat": 30.575873,
          "lon": 104.064313,
          "sequence": 18
        },
        {
          "id": "510100022320015",
          "stationId": "510100022320015",
          "nameZh": "金融城",
          "nameEn": "Financial City",
          "target": "financial city",
          "pinyin": "jinrongcheng",
          "lat": 30.582579,
          "lon": 104.064147,
          "sequence": 19
        },
        {
          "id": "510100022320014",
          "stationId": "510100022320014",
          "nameZh": "高新",
          "nameEn": "Hi-Tech Zone",
          "target": "hi-tech zone",
          "pinyin": "gaoxin",
          "lat": 30.594368,
          "lon": 104.063847,
          "sequence": 20
        },
        {
          "id": "510100022320013",
          "stationId": "510100022320013",
          "nameZh": "火车南站",
          "nameEn": "South Railway Station",
          "target": "south railway station",
          "pinyin": "huochenanzhan",
          "lat": 30.605459,
          "lon": 104.067393,
          "sequence": 21
        },
        {
          "id": "510100022320012",
          "stationId": "510100022320012",
          "nameZh": "桐梓林",
          "nameEn": "Tongzilin",
          "target": "tongzilin",
          "pinyin": "tongzilin",
          "lat": 30.61531,
          "lon": 104.067115,
          "sequence": 22
        },
        {
          "id": "510100022320011",
          "stationId": "510100022320011",
          "nameZh": "倪家桥",
          "nameEn": "Nijiaqiao",
          "target": "nijiaqiao",
          "pinyin": "nijiaqiao",
          "lat": 30.624773,
          "lon": 104.066885,
          "sequence": 23
        },
        {
          "id": "510100022320010",
          "stationId": "510100022320010",
          "nameZh": "省体育馆",
          "nameEn": "Sichuan Gymnasium",
          "target": "sichuan gymnasium",
          "pinyin": "shengtiyuguan",
          "lat": 30.633361,
          "lon": 104.066606,
          "sequence": 24
        },
        {
          "id": "510100022320009",
          "stationId": "510100022320009",
          "nameZh": "华西坝",
          "nameEn": "Huaxiba",
          "target": "huaxiba",
          "pinyin": "huaxiba",
          "lat": 30.642821,
          "lon": 104.066279,
          "sequence": 25
        },
        {
          "id": "510100022320008",
          "stationId": "510100022320008",
          "nameZh": "锦江宾馆",
          "nameEn": "Jinjiang Hotel",
          "target": "jinjiang hotel",
          "pinyin": "jinjiangbinguan",
          "lat": 30.650046,
          "lon": 104.066053,
          "sequence": 26
        },
        {
          "id": "510100022320007",
          "stationId": "510100022320007",
          "nameZh": "天府广场",
          "nameEn": "Tianfu Square",
          "target": "tianfu square",
          "pinyin": "tianfuguangchang",
          "lat": 30.657141,
          "lon": 104.065891,
          "sequence": 27
        },
        {
          "id": "510100022320006",
          "stationId": "510100022320006",
          "nameZh": "骡马市",
          "nameEn": "Luomashi",
          "target": "luomashi",
          "pinyin": "luomashi",
          "lat": 30.666514,
          "lon": 104.065617,
          "sequence": 28
        },
        {
          "id": "510100022320005",
          "stationId": "510100022320005",
          "nameZh": "文殊院",
          "nameEn": "Wenshu Monastery",
          "target": "wenshu monastery",
          "pinyin": "wenshuyuan",
          "lat": 30.672535,
          "lon": 104.068036,
          "sequence": 29
        },
        {
          "id": "510100022320004",
          "stationId": "510100022320004",
          "nameZh": "人民北路",
          "nameEn": "Renmin North Road",
          "target": "renmin north road",
          "pinyin": "renminbeilu",
          "lat": 30.684833,
          "lon": 104.073056,
          "sequence": 30
        },
        {
          "id": "510100022320003",
          "stationId": "510100022320003",
          "nameZh": "火车北站",
          "nameEn": "North Railway Station",
          "target": "north railway station",
          "pinyin": "huochebeizhan",
          "lat": 30.695517,
          "lon": 104.074056,
          "sequence": 31
        },
        {
          "id": "510100022320002",
          "stationId": "510100022320002",
          "nameZh": "升仙湖",
          "nameEn": "Shengxian Lake",
          "target": "shengxian lake",
          "pinyin": "shengxianhu",
          "lat": 30.704625,
          "lon": 104.083474,
          "sequence": 32
        },
        {
          "id": "510100022320024",
          "stationId": "510100022320024",
          "nameZh": "韦家碾",
          "nameEn": "Weijianian",
          "target": "weijianian",
          "pinyin": "weijianian",
          "lat": 30.717644,
          "lon": 104.08686,
          "sequence": 33
        },
        {
          "id": "510100022320025",
          "stationId": "510100022320025",
          "nameZh": "五根松",
          "nameEn": "Wugensong",
          "target": "wugensong",
          "pinyin": "wugensong",
          "lat": 30.502041,
          "lon": 104.081369,
          "sequence": 34
        },
        {
          "id": "510100022320023",
          "stationId": "510100022320023",
          "nameZh": "广都",
          "nameEn": "Guangdu",
          "target": "guangdu",
          "pinyin": "guangdu",
          "lat": 30.510752,
          "lon": 104.075713,
          "sequence": 35
        }
      ],
      "segments": [
        [
          "900000071951012",
          "900000071951011",
          "900000071951010",
          "900000061908045",
          "900000071951008",
          "900000071951007",
          "900000071951006",
          "900000071951005",
          "900000071951004",
          "900000068815005",
          "900000071951002",
          "510100022320022",
          "510100022320021",
          "510100022320020",
          "510100022320019",
          "510100022320018",
          "510100022320017",
          "510100022320016",
          "510100022320015",
          "510100022320014",
          "510100022320013",
          "510100022320012",
          "510100022320011",
          "510100022320010",
          "510100022320009",
          "510100022320008",
          "510100022320007",
          "510100022320006",
          "510100022320005",
          "510100022320004",
          "510100022320003",
          "510100022320002",
          "510100022320024"
        ],
        [
          "510100022320025",
          "510100022320023",
          "510100022320022",
          "510100022320021",
          "510100022320020",
          "510100022320019",
          "510100022320018",
          "510100022320017",
          "510100022320016",
          "510100022320015",
          "510100022320014",
          "510100022320013",
          "510100022320012",
          "510100022320011",
          "510100022320010",
          "510100022320009",
          "510100022320008",
          "510100022320007",
          "510100022320006",
          "510100022320005",
          "510100022320004",
          "510100022320003",
          "510100022320002",
          "510100022320024"
        ]
      ]
    },
    {
      "id": "5101-2",
      "operatorId": "5101",
      "operatorName": "成都地铁",
      "lineId": "2",
      "lineName": "2号线",
      "color": "#EE782E",
      "loop": false,
      "stations": [
        {
          "id": "510100024533027",
          "stationId": "510100024533027",
          "nameZh": "犀浦",
          "nameEn": "Xipu Railway Station",
          "target": "xipu railway station",
          "pinyin": "xipu",
          "lat": 30.757706,
          "lon": 103.969815,
          "sequence": 1
        },
        {
          "id": "510100024533026",
          "stationId": "510100024533026",
          "nameZh": "天河路",
          "nameEn": "Tianhe Road",
          "target": "tianhe road",
          "pinyin": "tianhelu",
          "lat": 30.745883,
          "lon": 103.976163,
          "sequence": 2
        },
        {
          "id": "510100024533025",
          "stationId": "510100024533025",
          "nameZh": "百草路",
          "nameEn": "Baicao Road",
          "target": "baicao road",
          "pinyin": "baicaolu",
          "lat": 30.733062,
          "lon": 103.979327,
          "sequence": 3
        },
        {
          "id": "510100024533024",
          "stationId": "510100024533024",
          "nameZh": "金周路",
          "nameEn": "Jinzhou Road",
          "target": "jinzhou road",
          "pinyin": "jinzhoulu",
          "lat": 30.721638,
          "lon": 103.996175,
          "sequence": 4
        },
        {
          "id": "510100024533023",
          "stationId": "510100024533023",
          "nameZh": "金科北路",
          "nameEn": "Jinke North Road",
          "target": "jinke north road",
          "pinyin": "jinkebeilu",
          "lat": 30.720762,
          "lon": 104.006635,
          "sequence": 5
        },
        {
          "id": "510100024533022",
          "stationId": "510100024533022",
          "nameZh": "迎宾大道",
          "nameEn": "Yingbin Avenue",
          "target": "yingbin avenue",
          "pinyin": "yingbindadao",
          "lat": 30.713168,
          "lon": 104.013528,
          "sequence": 6
        },
        {
          "id": "510100024533021",
          "stationId": "510100024533021",
          "nameZh": "茶店子客运站",
          "nameEn": "Chadianzi Bus Terminal Station",
          "target": "chadianzi bus terminal station",
          "pinyin": "chadianzikeyunzhan",
          "lat": 30.705986,
          "lon": 104.013692,
          "sequence": 7
        },
        {
          "id": "510100024533020",
          "stationId": "510100024533020",
          "nameZh": "羊犀立交",
          "nameEn": "Yangxi Flyover",
          "target": "yangxi flyover",
          "pinyin": "yangxilijiao",
          "lat": 30.693913,
          "lon": 104.012655,
          "sequence": 8
        },
        {
          "id": "510100024533019",
          "stationId": "510100024533019",
          "nameZh": "一品天下",
          "nameEn": "Yipintianxia",
          "target": "yipintianxia",
          "pinyin": "yipintianxia",
          "lat": 30.688942,
          "lon": 104.01963,
          "sequence": 9
        },
        {
          "id": "510100024533018",
          "stationId": "510100024533018",
          "nameZh": "蜀汉路东",
          "nameEn": "Shuhan Road East",
          "target": "shuhan road east",
          "pinyin": "shuhanludong",
          "lat": 30.682868,
          "lon": 104.029048,
          "sequence": 10
        },
        {
          "id": "510100024533017",
          "stationId": "510100024533017",
          "nameZh": "白果林",
          "nameEn": "Baiguolin",
          "target": "baiguolin",
          "pinyin": "baiguolin",
          "lat": 30.673851,
          "lon": 104.033278,
          "sequence": 11
        },
        {
          "id": "510100024533016",
          "stationId": "510100024533016",
          "nameZh": "中医大·省医院",
          "nameEn": "Chengdu University of TCM &Sichuan Provincial People's Hospital",
          "target": "chengdu university of tcm &sichuan provincial people's hospital",
          "pinyin": "zhongyidashengyiyuan",
          "lat": 30.666106,
          "lon": 104.040612,
          "sequence": 12
        },
        {
          "id": "510100024533015",
          "stationId": "510100024533015",
          "nameZh": "通惠门",
          "nameEn": "Tonghuimen",
          "target": "tonghuimen",
          "pinyin": "tonghuimen",
          "lat": 30.662088,
          "lon": 104.048523,
          "sequence": 13
        },
        {
          "id": "510100024533014",
          "stationId": "510100024533014",
          "nameZh": "人民公园",
          "nameEn": "People's Park",
          "target": "people's park",
          "pinyin": "renmingongyuan",
          "lat": 30.659324,
          "lon": 104.056779,
          "sequence": 14
        },
        {
          "id": "510100022320007",
          "stationId": "510100022320007",
          "nameZh": "天府广场",
          "nameEn": "Tianfu Square",
          "target": "tianfu square",
          "pinyin": "tianfuguangchang",
          "lat": 30.657141,
          "lon": 104.065891,
          "sequence": 15
        },
        {
          "id": "510100024533012",
          "stationId": "510100024533012",
          "nameZh": "春熙路",
          "nameEn": "Chunxi Road",
          "target": "chunxi road",
          "pinyin": "chunxilu",
          "lat": 30.653389,
          "lon": 104.080019,
          "sequence": 16
        },
        {
          "id": "510100024533011",
          "stationId": "510100024533011",
          "nameZh": "东门大桥",
          "nameEn": "Dongmen Bridge",
          "target": "dongmen bridge",
          "pinyin": "dongmendaqiao",
          "lat": 30.648192,
          "lon": 104.087308,
          "sequence": 17
        },
        {
          "id": "510100024533010",
          "stationId": "510100024533010",
          "nameZh": "牛王庙",
          "nameEn": "Niuwangmiao",
          "target": "niuwangmiao",
          "pinyin": "niuwangmiao",
          "lat": 30.645023,
          "lon": 104.094539,
          "sequence": 18
        },
        {
          "id": "510100024533009",
          "stationId": "510100024533009",
          "nameZh": "牛市口",
          "nameEn": "Niushikou",
          "target": "niushikou",
          "pinyin": "niushikou",
          "lat": 30.637912,
          "lon": 104.107662,
          "sequence": 19
        },
        {
          "id": "510100024533008",
          "stationId": "510100024533008",
          "nameZh": "东大路",
          "nameEn": "Dongdalu Road",
          "target": "dongdalu road",
          "pinyin": "dongdalu",
          "lat": 30.633816,
          "lon": 104.112173,
          "sequence": 20
        },
        {
          "id": "510100024533007",
          "stationId": "510100024533007",
          "nameZh": "塔子山公园",
          "nameEn": "Tazishan Park",
          "target": "tazishan park",
          "pinyin": "tazishangongyuan",
          "lat": 30.629465,
          "lon": 104.122922,
          "sequence": 21
        },
        {
          "id": "510100024533006",
          "stationId": "510100024533006",
          "nameZh": "成都东客站",
          "nameEn": "Chengdu East Railway Station",
          "target": "chengdu east railway station",
          "pinyin": "chengdudongkezhan",
          "lat": 30.629329,
          "lon": 104.13995,
          "sequence": 22
        },
        {
          "id": "510100024533005",
          "stationId": "510100024533005",
          "nameZh": "成渝立交",
          "nameEn": "Chengyu Flyover",
          "target": "chengyu flyover",
          "pinyin": "chengyulijiao",
          "lat": 30.624822,
          "lon": 104.147432,
          "sequence": 23
        },
        {
          "id": "510100024533004",
          "stationId": "510100024533004",
          "nameZh": "惠王陵",
          "nameEn": "Huiwangling",
          "target": "huiwangling",
          "pinyin": "huiwangling",
          "lat": 30.612075,
          "lon": 104.152086,
          "sequence": 24
        },
        {
          "id": "510100024533003",
          "stationId": "510100024533003",
          "nameZh": "洪河",
          "nameEn": "Honghe",
          "target": "honghe",
          "pinyin": "honghe",
          "lat": 30.605015,
          "lon": 104.15751,
          "sequence": 25
        },
        {
          "id": "510100024533002",
          "stationId": "510100024533002",
          "nameZh": "成都行政学院",
          "nameEn": "Chengdu Academy of Governance",
          "target": "chengdu academy of governance",
          "pinyin": "chengduxingzhengxueyuan",
          "lat": 30.597115,
          "lon": 104.170689,
          "sequence": 26
        },
        {
          "id": "510100024533033",
          "stationId": "510100024533033",
          "nameZh": "大面铺",
          "nameEn": "Damianpu",
          "target": "damianpu",
          "pinyin": "damianpu",
          "lat": 30.5924,
          "lon": 104.201298,
          "sequence": 27
        },
        {
          "id": "510100024533032",
          "stationId": "510100024533032",
          "nameZh": "连山坡",
          "nameEn": "Lianshanpo",
          "target": "lianshanpo",
          "pinyin": "lianshanpo",
          "lat": 30.58758,
          "lon": 104.212757,
          "sequence": 28
        },
        {
          "id": "510100024533031",
          "stationId": "510100024533031",
          "nameZh": "界牌",
          "nameEn": "Jiepai",
          "target": "jiepai",
          "pinyin": "jiepai",
          "lat": 30.582802,
          "lon": 104.225134,
          "sequence": 29
        },
        {
          "id": "510100024533030",
          "stationId": "510100024533030",
          "nameZh": "书房",
          "nameEn": "Shufang",
          "target": "shufang",
          "pinyin": "shufang",
          "lat": 30.575626,
          "lon": 104.242134,
          "sequence": 30
        },
        {
          "id": "510100024533029",
          "stationId": "510100024533029",
          "nameZh": "龙平路",
          "nameEn": "Longping Road",
          "target": "longping road",
          "pinyin": "longpinglu",
          "lat": 30.572923,
          "lon": 104.258988,
          "sequence": 31
        },
        {
          "id": "510100024533028",
          "stationId": "510100024533028",
          "nameZh": "龙泉驿",
          "nameEn": "Longquanyi",
          "target": "longquanyi",
          "pinyin": "longquanyi",
          "lat": 30.560111,
          "lon": 104.267966,
          "sequence": 32
        }
      ],
      "segments": [
        [
          "510100024533027",
          "510100024533026",
          "510100024533025",
          "510100024533024",
          "510100024533023",
          "510100024533022",
          "510100024533021",
          "510100024533020",
          "510100024533019",
          "510100024533018",
          "510100024533017",
          "510100024533016",
          "510100024533015",
          "510100024533014",
          "510100022320007",
          "510100024533012",
          "510100024533011",
          "510100024533010",
          "510100024533009",
          "510100024533008",
          "510100024533007",
          "510100024533006",
          "510100024533005",
          "510100024533004",
          "510100024533003",
          "510100024533002",
          "510100024533033",
          "510100024533032",
          "510100024533031",
          "510100024533030",
          "510100024533029",
          "510100024533028"
        ]
      ]
    },
    {
      "id": "5101-S3",
      "operatorId": "5101",
      "operatorName": "成都地铁",
      "lineId": "S3",
      "lineName": "S3(资阳)线",
      "color": "#B5B5B6",
      "loop": false,
      "stations": [
        {
          "id": "900000068815013",
          "stationId": "900000068815013",
          "nameZh": "福田",
          "nameEn": "Futian",
          "target": "futian",
          "pinyin": "futian",
          "lat": 30.27816,
          "lon": 104.387506,
          "sequence": 1
        },
        {
          "id": "900000156039002",
          "stationId": "900000156039002",
          "nameZh": "芦葭",
          "nameEn": "Lujia",
          "target": "lujia",
          "pinyin": "lujia",
          "lat": 30.25548,
          "lon": 104.441771,
          "sequence": 2
        },
        {
          "id": "900000156039003",
          "stationId": "900000156039003",
          "nameZh": "资阳临空",
          "nameEn": "Ziyang Airport Economic Zone",
          "target": "ziyang airport economic zone",
          "pinyin": "ziyanglinkong",
          "lat": 30.172822,
          "lon": 104.584953,
          "sequence": 3
        },
        {
          "id": "900000156039004",
          "stationId": "900000156039004",
          "nameZh": "幸福大道",
          "nameEn": "Xingfu Avenue",
          "target": "xingfu avenue",
          "pinyin": "xingfudadao",
          "lat": 30.126442,
          "lon": 104.621836,
          "sequence": 4
        },
        {
          "id": "900000156039005",
          "stationId": "900000156039005",
          "nameZh": "苌弘广场",
          "nameEn": "Changhong Square",
          "target": "changhong square",
          "pinyin": "changhongguangchang",
          "lat": 30.109039,
          "lon": 104.650507,
          "sequence": 5
        },
        {
          "id": "900000156039006",
          "stationId": "900000156039006",
          "nameZh": "宝台",
          "nameEn": "Baotai",
          "target": "baotai",
          "pinyin": "baotai",
          "lat": 30.114209,
          "lon": 104.674083,
          "sequence": 6
        },
        {
          "id": "900000156039007",
          "stationId": "900000156039007",
          "nameZh": "资阳北站",
          "nameEn": "Ziyang Bei Station",
          "target": "ziyang bei station",
          "pinyin": "ziyangbeizhan",
          "lat": 30.12667,
          "lon": 104.68145,
          "sequence": 7
        }
      ],
      "segments": [
        [
          "900000068815013",
          "900000156039002",
          "900000156039003",
          "900000156039004",
          "900000156039005",
          "900000156039006",
          "900000156039007"
        ]
      ]
    },
    {
      "id": "5101-3",
      "operatorId": "5101",
      "operatorName": "成都地铁",
      "lineId": "3",
      "lineName": "3号线",
      "color": "#F0087D",
      "loop": false,
      "stations": [
        {
          "id": "900000039590037",
          "stationId": "900000039590037",
          "nameZh": "成都医学院(新都校区)",
          "nameEn": "Chengdu Medical College",
          "target": "chengdu medical college",
          "pinyin": "chengduyixueyuanxinduxiaoqu",
          "lat": 30.816912,
          "lon": 104.194681,
          "sequence": 1
        },
        {
          "id": "900000039590036",
          "stationId": "900000039590036",
          "nameZh": "石油大学",
          "nameEn": "Southwest Petroleum University",
          "target": "southwest petroleum university",
          "pinyin": "shiyoudaxue",
          "lat": 30.818753,
          "lon": 104.1866,
          "sequence": 2
        },
        {
          "id": "900000039590035",
          "stationId": "900000039590035",
          "nameZh": "钟楼",
          "nameEn": "Clock Tower",
          "target": "clock tower",
          "pinyin": "zhonglou",
          "lat": 30.820962,
          "lon": 104.175313,
          "sequence": 3
        },
        {
          "id": "900000039590034",
          "stationId": "900000039590034",
          "nameZh": "马超西路",
          "nameEn": "Machao West Road",
          "target": "machao west road",
          "pinyin": "machaoxilu",
          "lat": 30.813145,
          "lon": 104.164715,
          "sequence": 4
        },
        {
          "id": "900000039590033",
          "stationId": "900000039590033",
          "nameZh": "团结新区",
          "nameEn": "Tuanjiexinqu",
          "target": "tuanjiexinqu",
          "pinyin": "tuanjiexinqu",
          "lat": 30.804386,
          "lon": 104.158768,
          "sequence": 5
        },
        {
          "id": "900000039590032",
          "stationId": "900000039590032",
          "nameZh": "锦水河",
          "nameEn": "Jinshuihe",
          "target": "jinshuihe",
          "pinyin": "jinshuihe",
          "lat": 30.797452,
          "lon": 104.15331,
          "sequence": 6
        },
        {
          "id": "900000039590031",
          "stationId": "900000039590031",
          "nameZh": "三河场",
          "nameEn": "Sanhechang",
          "target": "sanhechang",
          "pinyin": "sanhechang",
          "lat": 30.784689,
          "lon": 104.138911,
          "sequence": 7
        },
        {
          "id": "900000039590030",
          "stationId": "900000039590030",
          "nameZh": "金华寺东路",
          "nameEn": "Jinhuasi East Road",
          "target": "jinhuasi east road",
          "pinyin": "jinhuasidonglu",
          "lat": 30.770408,
          "lon": 104.125448,
          "sequence": 8
        },
        {
          "id": "900000039590029",
          "stationId": "900000039590029",
          "nameZh": "植物园",
          "nameEn": "Botanical Garden",
          "target": "botanical garden",
          "pinyin": "zhiwuyuan",
          "lat": 30.763356,
          "lon": 104.1213,
          "sequence": 9
        },
        {
          "id": "900000039590017",
          "stationId": "900000039590017",
          "nameZh": "军区总医院(熊猫基地西大门)",
          "nameEn": "Chengdu Junqu General Hospital",
          "target": "chengdu junqu general hospital",
          "pinyin": "junquzongyiyuanxiongmaojidixidamen",
          "lat": 30.744748,
          "lon": 104.114167,
          "sequence": 10
        },
        {
          "id": "900000039590016",
          "stationId": "900000039590016",
          "nameZh": "熊猫大道(熊猫基地南大门)",
          "nameEn": "Panda Avenue",
          "target": "panda avenue",
          "pinyin": "xiongmaodadaoxiongmaojidinandamen",
          "lat": 30.725447,
          "lon": 104.108002,
          "sequence": 11
        },
        {
          "id": "900000039590015",
          "stationId": "900000039590015",
          "nameZh": "动物园",
          "nameEn": "Chengdu Zoo",
          "target": "chengdu zoo",
          "pinyin": "dongwuyuan",
          "lat": 30.713648,
          "lon": 104.103142,
          "sequence": 12
        },
        {
          "id": "900000039590014",
          "stationId": "900000039590014",
          "nameZh": "昭觉寺南路",
          "nameEn": "Zhaojuesi South Road",
          "target": "zhaojuesi south road",
          "pinyin": "zhaojuesinanlu",
          "lat": 30.702922,
          "lon": 104.096821,
          "sequence": 13
        },
        {
          "id": "900000039590013",
          "stationId": "900000039590013",
          "nameZh": "驷马桥",
          "nameEn": "Sima Bridge",
          "target": "sima bridge",
          "pinyin": "simaqiao",
          "lat": 30.695502,
          "lon": 104.093329,
          "sequence": 14
        },
        {
          "id": "900000039590012",
          "stationId": "900000039590012",
          "nameZh": "李家沱",
          "nameEn": "Lijiatuo",
          "target": "lijiatuo",
          "pinyin": "lijiatuo",
          "lat": 30.689393,
          "lon": 104.094528,
          "sequence": 15
        },
        {
          "id": "900000039590011",
          "stationId": "900000039590011",
          "nameZh": "前锋路",
          "nameEn": "Qianfeng Road",
          "target": "qianfeng road",
          "pinyin": "qianfenglu",
          "lat": 30.679037,
          "lon": 104.092124,
          "sequence": 16
        },
        {
          "id": "900000039590010",
          "stationId": "900000039590010",
          "nameZh": "红星桥",
          "nameEn": "Hongxing Bridge",
          "target": "hongxing bridge",
          "pinyin": "hongxingqiao",
          "lat": 30.671208,
          "lon": 104.090526,
          "sequence": 17
        },
        {
          "id": "900000039590009",
          "stationId": "900000039590009",
          "nameZh": "市二医院",
          "nameEn": "Chengdu Second People's Hospital",
          "target": "chengdu second people's hospital",
          "pinyin": "shieryiyuan",
          "lat": 30.660814,
          "lon": 104.083909,
          "sequence": 18
        },
        {
          "id": "510100024533012",
          "stationId": "510100024533012",
          "nameZh": "春熙路",
          "nameEn": "Chunxi Road",
          "target": "chunxi road",
          "pinyin": "chunxilu",
          "lat": 30.653389,
          "lon": 104.080019,
          "sequence": 19
        },
        {
          "id": "900000039590007",
          "stationId": "900000039590007",
          "nameZh": "新南门",
          "nameEn": "Xinnanmen",
          "target": "xinnanmen",
          "pinyin": "xinnanmen",
          "lat": 30.644361,
          "lon": 104.075161,
          "sequence": 20
        },
        {
          "id": "900000039590006",
          "stationId": "900000039590006",
          "nameZh": "磨子桥",
          "nameEn": "Moziqiao",
          "target": "moziqiao",
          "pinyin": "moziqiao",
          "lat": 30.637421,
          "lon": 104.075933,
          "sequence": 21
        },
        {
          "id": "510100022320010",
          "stationId": "510100022320010",
          "nameZh": "省体育馆",
          "nameEn": "Sichuan Gymnasium",
          "target": "sichuan gymnasium",
          "pinyin": "shengtiyuguan",
          "lat": 30.633361,
          "lon": 104.066606,
          "sequence": 22
        },
        {
          "id": "900000039590004",
          "stationId": "900000039590004",
          "nameZh": "衣冠庙",
          "nameEn": "Yiguanmiao",
          "target": "yiguanmiao",
          "pinyin": "yiguanmiao",
          "lat": 30.634486,
          "lon": 104.052144,
          "sequence": 23
        },
        {
          "id": "900000039590003",
          "stationId": "900000039590003",
          "nameZh": "高升桥",
          "nameEn": "Gaoshengqiao",
          "target": "gaoshengqiao",
          "pinyin": "gaoshengqiao",
          "lat": 30.640044,
          "lon": 104.042545,
          "sequence": 24
        },
        {
          "id": "900000039590002",
          "stationId": "900000039590002",
          "nameZh": "红牌楼",
          "nameEn": "Hongpailou",
          "target": "hongpailou",
          "pinyin": "hongpailou",
          "lat": 30.634704,
          "lon": 104.029878,
          "sequence": 25
        },
        {
          "id": "900000039590001",
          "stationId": "900000039590001",
          "nameZh": "太平园",
          "nameEn": "Taipingyuan",
          "target": "taipingyuan",
          "pinyin": "taipingyuan",
          "lat": 30.625381,
          "lon": 104.02158,
          "sequence": 26
        },
        {
          "id": "900000039590028",
          "stationId": "900000039590028",
          "nameZh": "川藏立交",
          "nameEn": "Chuanzang Flrover",
          "target": "chuanzang flrover",
          "pinyin": "chuanzanglijiao",
          "lat": 30.622935,
          "lon": 104.006465,
          "sequence": 27
        },
        {
          "id": "900000039590027",
          "stationId": "900000039590027",
          "nameZh": "武侯立交",
          "nameEn": "Wuhou Flyover",
          "target": "wuhou flyover",
          "pinyin": "wuhoulijiao",
          "lat": 30.62696,
          "lon": 103.99342,
          "sequence": 28
        },
        {
          "id": "900000039590026",
          "stationId": "900000039590026",
          "nameZh": "武青南路",
          "nameEn": "Wuqing South Road",
          "target": "wuqing south road",
          "pinyin": "wuqingnanlu",
          "lat": 30.623124,
          "lon": 103.98508,
          "sequence": 29
        },
        {
          "id": "900000039590025",
          "stationId": "900000039590025",
          "nameZh": "双凤桥",
          "nameEn": "Shuangfengqiao",
          "target": "shuangfengqiao",
          "pinyin": "shuangfengqiao",
          "lat": 30.615958,
          "lon": 103.969203,
          "sequence": 30
        },
        {
          "id": "900000039590024",
          "stationId": "900000039590024",
          "nameZh": "龙桥路",
          "nameEn": "Longqiao Road",
          "target": "longqiao road",
          "pinyin": "longqiaolu",
          "lat": 30.603934,
          "lon": 103.944148,
          "sequence": 31
        },
        {
          "id": "900000039590023",
          "stationId": "900000039590023",
          "nameZh": "航都大街",
          "nameEn": "Hangdu Street",
          "target": "hangdu street",
          "pinyin": "hangdudajie",
          "lat": 30.591323,
          "lon": 103.936874,
          "sequence": 32
        },
        {
          "id": "900000039590022",
          "stationId": "900000039590022",
          "nameZh": "迎春桥",
          "nameEn": "Yingchunqiao",
          "target": "yingchunqiao",
          "pinyin": "yingchunqiao",
          "lat": 30.580647,
          "lon": 103.93492,
          "sequence": 33
        },
        {
          "id": "900000039590021",
          "stationId": "900000039590021",
          "nameZh": "东升",
          "nameEn": "Dongsheng",
          "target": "dongsheng",
          "pinyin": "dongsheng",
          "lat": 30.571218,
          "lon": 103.925316,
          "sequence": 34
        },
        {
          "id": "900000039590020",
          "stationId": "900000039590020",
          "nameZh": "双流广场",
          "nameEn": "Shuangliu Square",
          "target": "shuangliu square",
          "pinyin": "shuangliuguangchang",
          "lat": 30.564269,
          "lon": 103.920196,
          "sequence": 35
        },
        {
          "id": "900000039590019",
          "stationId": "900000039590019",
          "nameZh": "三里坝",
          "nameEn": "Sanliba",
          "target": "sanliba",
          "pinyin": "sanliba",
          "lat": 30.553562,
          "lon": 103.914567,
          "sequence": 36
        },
        {
          "id": "900000039590018",
          "stationId": "900000039590018",
          "nameZh": "双流西站",
          "nameEn": "Shuangliu West Railway Station",
          "target": "shuangliu west railway station",
          "pinyin": "shuangliuxizhan",
          "lat": 30.543286,
          "lon": 103.917258,
          "sequence": 37
        }
      ],
      "segments": [
        [
          "900000039590037",
          "900000039590036",
          "900000039590035",
          "900000039590034",
          "900000039590033",
          "900000039590032",
          "900000039590031",
          "900000039590030",
          "900000039590029",
          "900000039590017",
          "900000039590016",
          "900000039590015",
          "900000039590014",
          "900000039590013",
          "900000039590012",
          "900000039590011",
          "900000039590010",
          "900000039590009",
          "510100024533012",
          "900000039590007",
          "900000039590006",
          "510100022320010",
          "900000039590004",
          "900000039590003",
          "900000039590002",
          "900000039590001",
          "900000039590028",
          "900000039590027",
          "900000039590026",
          "900000039590025",
          "900000039590024",
          "900000039590023",
          "900000039590022",
          "900000039590021",
          "900000039590020",
          "900000039590019",
          "900000039590018"
        ]
      ]
    },
    {
      "id": "5101-4",
      "operatorId": "5101",
      "operatorName": "成都地铁",
      "lineId": "4",
      "lineName": "4号线",
      "color": "#00AB4F",
      "loop": false,
      "stations": [
        {
          "id": "900000039621028",
          "stationId": "900000039621028",
          "nameZh": "西河",
          "nameEn": "Xihe",
          "target": "xihe",
          "pinyin": "xihe",
          "lat": 30.647276,
          "lon": 104.220298,
          "sequence": 1
        },
        {
          "id": "900000039621029",
          "stationId": "900000039621029",
          "nameZh": "明蜀王陵",
          "nameEn": "Mingshuwangling",
          "target": "mingshuwangling",
          "pinyin": "mingshuwangling",
          "lat": 30.648178,
          "lon": 104.196346,
          "sequence": 2
        },
        {
          "id": "900000039621030",
          "stationId": "900000039621030",
          "nameZh": "成都大学",
          "nameEn": "Chengdu University",
          "target": "chengdu university",
          "pinyin": "chengdudaxue",
          "lat": 30.646689,
          "lon": 104.181182,
          "sequence": 3
        },
        {
          "id": "900000039621031",
          "stationId": "900000039621031",
          "nameZh": "十陵",
          "nameEn": "Shiling",
          "target": "shiling",
          "pinyin": "shiling",
          "lat": 30.645829,
          "lon": 104.172438,
          "sequence": 4
        },
        {
          "id": "900000039621032",
          "stationId": "900000039621032",
          "nameZh": "来龙",
          "nameEn": "Lailong",
          "target": "lailong",
          "pinyin": "lailong",
          "lat": 30.646859,
          "lon": 104.164475,
          "sequence": 5
        },
        {
          "id": "900000039592056",
          "stationId": "900000039592056",
          "nameZh": "槐树店",
          "nameEn": "Huaishudian",
          "target": "huaishudian",
          "pinyin": "huaishudian",
          "lat": 30.648877,
          "lon": 104.139309,
          "sequence": 6
        },
        {
          "id": "900000039621003",
          "stationId": "900000039621003",
          "nameZh": "万年场",
          "nameEn": "Wannianchang",
          "target": "wannianchang",
          "pinyin": "wannianchang",
          "lat": 30.644231,
          "lon": 104.119188,
          "sequence": 7
        },
        {
          "id": "900000039621005",
          "stationId": "900000039621005",
          "nameZh": "双桥路",
          "nameEn": "Shuangqiao Road",
          "target": "shuangqiao road",
          "pinyin": "shuangqiaolu",
          "lat": 30.646975,
          "lon": 104.113278,
          "sequence": 8
        },
        {
          "id": "900000039621006",
          "stationId": "900000039621006",
          "nameZh": "玉双路",
          "nameEn": "Yushuang Road",
          "target": "yushuang road",
          "pinyin": "yushuanglu",
          "lat": 30.653452,
          "lon": 104.099315,
          "sequence": 9
        },
        {
          "id": "900000039590009",
          "stationId": "900000039590009",
          "nameZh": "市二医院",
          "nameEn": "Chengdu Second People's Hospital",
          "target": "chengdu second people's hospital",
          "pinyin": "shieryiyuan",
          "lat": 30.660814,
          "lon": 104.083909,
          "sequence": 10
        },
        {
          "id": "900000039621008",
          "stationId": "900000039621008",
          "nameZh": "太升南路",
          "nameEn": "Taisheng South Road",
          "target": "taisheng south road",
          "pinyin": "taishengnanlu",
          "lat": 30.664767,
          "lon": 104.076578,
          "sequence": 11
        },
        {
          "id": "510100022320006",
          "stationId": "510100022320006",
          "nameZh": "骡马市",
          "nameEn": "Luomashi",
          "target": "luomashi",
          "pinyin": "luomashi",
          "lat": 30.666514,
          "lon": 104.065617,
          "sequence": 12
        },
        {
          "id": "900000039621010",
          "stationId": "900000039621010",
          "nameZh": "宽窄巷子",
          "nameEn": "Kuanzhaixiangzi Alleys",
          "target": "kuanzhaixiangzi alleys",
          "pinyin": "kuanzhaixiangzi",
          "lat": 30.665381,
          "lon": 104.050679,
          "sequence": 13
        },
        {
          "id": "510100024533016",
          "stationId": "510100024533016",
          "nameZh": "中医大·省医院",
          "nameEn": "Chengdu University of TCM &Sichuan Provincial People's Hospital",
          "target": "chengdu university of tcm &sichuan provincial people's hospital",
          "pinyin": "zhongyidashengyiyuan",
          "lat": 30.666106,
          "lon": 104.040612,
          "sequence": 14
        },
        {
          "id": "900000039621012",
          "stationId": "900000039621012",
          "nameZh": "草堂北路",
          "nameEn": "Caotang North Road",
          "target": "caotang north road",
          "pinyin": "caotangbeilu",
          "lat": 30.669095,
          "lon": 104.028185,
          "sequence": 15
        },
        {
          "id": "900000039621013",
          "stationId": "900000039621013",
          "nameZh": "西南财大",
          "nameEn": "Southwestern University of Finance and Economics",
          "target": "southwestern university of finance and economics",
          "pinyin": "xinancaida",
          "lat": 30.670471,
          "lon": 104.020118,
          "sequence": 16
        },
        {
          "id": "900000039592041",
          "stationId": "900000039592041",
          "nameZh": "文化宫",
          "nameEn": "Culture Palace",
          "target": "culture palace",
          "pinyin": "wenhuagong",
          "lat": 30.672258,
          "lon": 104.009413,
          "sequence": 17
        },
        {
          "id": "900000039621015",
          "stationId": "900000039621015",
          "nameZh": "清江西路",
          "nameEn": "Qingjiang Road West",
          "target": "qingjiang road west",
          "pinyin": "qingjiangxilu",
          "lat": 30.676605,
          "lon": 103.998588,
          "sequence": 18
        },
        {
          "id": "900000039621016",
          "stationId": "900000039621016",
          "nameZh": "成都西站",
          "nameEn": "Chengdu West Railway Station",
          "target": "chengdu west railway station",
          "pinyin": "chengduxizhan",
          "lat": 30.683429,
          "lon": 103.976595,
          "sequence": 19
        },
        {
          "id": "900000039621017",
          "stationId": "900000039621017",
          "nameZh": "中坝",
          "nameEn": "Zhongba",
          "target": "zhongba",
          "pinyin": "zhongba",
          "lat": 30.673492,
          "lon": 103.96411,
          "sequence": 20
        },
        {
          "id": "900000039621018",
          "stationId": "900000039621018",
          "nameZh": "蔡桥",
          "nameEn": "Caiqiao",
          "target": "caiqiao",
          "pinyin": "caiqiao",
          "lat": 30.669474,
          "lon": 103.945088,
          "sequence": 21
        },
        {
          "id": "900000039621019",
          "stationId": "900000039621019",
          "nameZh": "非遗博览园",
          "nameEn": "Intangible Cultural Heritage Park",
          "target": "intangible cultural heritage park",
          "pinyin": "feiyibolanyuan",
          "lat": 30.674086,
          "lon": 103.922478,
          "sequence": 22
        },
        {
          "id": "900000039621034",
          "stationId": "900000039621034",
          "nameZh": "马厂坝",
          "nameEn": "Machangba",
          "target": "machangba",
          "pinyin": "machangba",
          "lat": 30.677424,
          "lon": 103.913802,
          "sequence": 23
        },
        {
          "id": "900000039621035",
          "stationId": "900000039621035",
          "nameZh": "凤凰大街",
          "nameEn": "Fenghuang Street",
          "target": "fenghuang street",
          "pinyin": "fenghuangdajie",
          "lat": 30.676944,
          "lon": 103.889513,
          "sequence": 24
        },
        {
          "id": "900000039621036",
          "stationId": "900000039621036",
          "nameZh": "涌泉",
          "nameEn": "Yongquan",
          "target": "yongquan",
          "pinyin": "chongquan",
          "lat": 30.678405,
          "lon": 103.873069,
          "sequence": 25
        },
        {
          "id": "900000039621037",
          "stationId": "900000039621037",
          "nameZh": "光华公园",
          "nameEn": "Guanghua Park",
          "target": "guanghua park",
          "pinyin": "guanghuagongyuan",
          "lat": 30.684316,
          "lon": 103.860554,
          "sequence": 26
        },
        {
          "id": "900000039621038",
          "stationId": "900000039621038",
          "nameZh": "南熏大道",
          "nameEn": "Nanxun Avenue",
          "target": "nanxun avenue",
          "pinyin": "nanxundadao",
          "lat": 30.689571,
          "lon": 103.851779,
          "sequence": 27
        },
        {
          "id": "900000039621039",
          "stationId": "900000039621039",
          "nameZh": "凤溪河",
          "nameEn": "Fengxihe",
          "target": "fengxihe",
          "pinyin": "fengxihe",
          "lat": 30.686109,
          "lon": 103.843043,
          "sequence": 28
        },
        {
          "id": "900000039621040",
          "stationId": "900000039621040",
          "nameZh": "杨柳河",
          "nameEn": "Yangliuhe",
          "target": "yangliuhe",
          "pinyin": "yangliuhe",
          "lat": 30.680905,
          "lon": 103.831101,
          "sequence": 29
        },
        {
          "id": "900000039621041",
          "stationId": "900000039621041",
          "nameZh": "万盛",
          "nameEn": "Wansheng",
          "target": "wansheng",
          "pinyin": "wansheng",
          "lat": 30.675357,
          "lon": 103.818887,
          "sequence": 30
        }
      ],
      "segments": [
        [
          "900000039621028",
          "900000039621029",
          "900000039621030",
          "900000039621031",
          "900000039621032",
          "900000039592056",
          "900000039621003",
          "900000039621005",
          "900000039621006",
          "900000039590009",
          "900000039621008",
          "510100022320006",
          "900000039621010",
          "510100024533016",
          "900000039621012",
          "900000039621013",
          "900000039592041",
          "900000039621015",
          "900000039621016",
          "900000039621017",
          "900000039621018",
          "900000039621019",
          "900000039621034",
          "900000039621035",
          "900000039621036",
          "900000039621037",
          "900000039621038",
          "900000039621039",
          "900000039621039",
          "900000039621040",
          "900000039621041"
        ]
      ]
    },
    {
      "id": "5101-5",
      "operatorId": "5101",
      "operatorName": "成都地铁",
      "lineId": "5",
      "lineName": "5号线",
      "color": "#96499A",
      "loop": false,
      "stations": [
        {
          "id": "900000058344001",
          "stationId": "900000058344001",
          "nameZh": "华桂路",
          "nameEn": "Huagui Road",
          "target": "huagui road",
          "pinyin": "huaguilu",
          "lat": 30.825126,
          "lon": 104.098314,
          "sequence": 1
        },
        {
          "id": "900000058344002",
          "stationId": "900000058344002",
          "nameZh": "柏水场",
          "nameEn": "Baishuichang",
          "target": "baishuichang",
          "pinyin": "baishuichang",
          "lat": 30.815507,
          "lon": 104.094232,
          "sequence": 2
        },
        {
          "id": "900000058344003",
          "stationId": "900000058344003",
          "nameZh": "廖家湾",
          "nameEn": "Liaojiawan",
          "target": "liaojiawan",
          "pinyin": "liaojiawan",
          "lat": 30.80836,
          "lon": 104.090959,
          "sequence": 3
        },
        {
          "id": "900000058344004",
          "stationId": "900000058344004",
          "nameZh": "北部商贸城",
          "nameEn": "Beibu Shopping Mall",
          "target": "beibu shopping mall",
          "pinyin": "beibushangmaocheng",
          "lat": 30.791089,
          "lon": 104.088961,
          "sequence": 4
        },
        {
          "id": "900000058344005",
          "stationId": "900000058344005",
          "nameZh": "幸福桥",
          "nameEn": "Xingfuqiao",
          "target": "xingfuqiao",
          "pinyin": "xingfuqiao",
          "lat": 30.776951,
          "lon": 104.088262,
          "sequence": 5
        },
        {
          "id": "900000058344006",
          "stationId": "900000058344006",
          "nameZh": "九道堰(凤凰山体育公园东)",
          "nameEn": "Jiudaoyan",
          "target": "jiudaoyan",
          "pinyin": "jiudaoyanfenghuangshantiyugongyuandong",
          "lat": 30.771588,
          "lon": 104.082896,
          "sequence": 6
        },
        {
          "id": "900000058344007",
          "stationId": "900000058344007",
          "nameZh": "杜家碾(凤凰山体育公园西)",
          "nameEn": "Dujianian",
          "target": "dujianian",
          "pinyin": "dujianianfenghuangshantiyugongyuanxi",
          "lat": 30.771585,
          "lon": 104.075258,
          "sequence": 7
        },
        {
          "id": "900000058344008",
          "stationId": "900000058344008",
          "nameZh": "大丰",
          "nameEn": "Dafeng",
          "target": "dafeng",
          "pinyin": "dafeng",
          "lat": 30.771615,
          "lon": 104.065109,
          "sequence": 8
        },
        {
          "id": "900000058344009",
          "stationId": "900000058344009",
          "nameZh": "石犀公园",
          "nameEn": "Shixi Park",
          "target": "shixi park",
          "pinyin": "shixigongyuan",
          "lat": 30.760279,
          "lon": 104.059768,
          "sequence": 9
        },
        {
          "id": "900000058344010",
          "stationId": "900000058344010",
          "nameZh": "皇花园",
          "nameEn": "Huanghuayuan",
          "target": "huanghuayuan",
          "pinyin": "huanghuayuan",
          "lat": 30.752331,
          "lon": 104.059721,
          "sequence": 10
        },
        {
          "id": "900000058344011",
          "stationId": "900000058344011",
          "nameZh": "陆家桥",
          "nameEn": "Lujiaqiao",
          "target": "lujiaqiao",
          "pinyin": "lujiaqiao",
          "lat": 30.742274,
          "lon": 104.059091,
          "sequence": 11
        },
        {
          "id": "900000058344012",
          "stationId": "900000058344012",
          "nameZh": "泉水路",
          "nameEn": "Quanshui Road",
          "target": "quanshui road",
          "pinyin": "quanshuilu",
          "lat": 30.730369,
          "lon": 104.058375,
          "sequence": 12
        },
        {
          "id": "900000058344013",
          "stationId": "900000058344013",
          "nameZh": "洞子口",
          "nameEn": "Dongzikou",
          "target": "dongzikou",
          "pinyin": "dongzikou",
          "lat": 30.721527,
          "lon": 104.058471,
          "sequence": 13
        },
        {
          "id": "900000058344014",
          "stationId": "900000058344014",
          "nameZh": "福宁路",
          "nameEn": "Funing Road",
          "target": "funing road",
          "pinyin": "funinglu",
          "lat": 30.714537,
          "lon": 104.059827,
          "sequence": 14
        },
        {
          "id": "900000058344015",
          "stationId": "900000058344015",
          "nameZh": "五块石",
          "nameEn": "Wukuaishi",
          "target": "wukuaishi",
          "pinyin": "wukuaishi",
          "lat": 30.707379,
          "lon": 104.064554,
          "sequence": 15
        },
        {
          "id": "900000058344016",
          "stationId": "900000058344016",
          "nameZh": "赛云台",
          "nameEn": "Saiyuntai",
          "target": "saiyuntai",
          "pinyin": "saiyuntai",
          "lat": 30.7006,
          "lon": 104.066503,
          "sequence": 16
        },
        {
          "id": "900000039592034",
          "stationId": "900000039592034",
          "nameZh": "北站西二路",
          "nameEn": "2nd Beizhan West Road",
          "target": "2nd beizhan west road",
          "pinyin": "beizhanxierlu",
          "lat": 30.693759,
          "lon": 104.066153,
          "sequence": 17
        },
        {
          "id": "900000058344018",
          "stationId": "900000058344018",
          "nameZh": "西北桥",
          "nameEn": "Xibei Bridge",
          "target": "xibei bridge",
          "pinyin": "xibeiqiao",
          "lat": 30.685632,
          "lon": 104.058153,
          "sequence": 18
        },
        {
          "id": "900000058344019",
          "stationId": "900000058344019",
          "nameZh": "花牌坊",
          "nameEn": "Huapaifang",
          "target": "huapaifang",
          "pinyin": "huapaifang",
          "lat": 30.683479,
          "lon": 104.04784,
          "sequence": 19
        },
        {
          "id": "900000058344020",
          "stationId": "900000058344020",
          "nameZh": "抚琴",
          "nameEn": "Fuqin",
          "target": "fuqin",
          "pinyin": "fuqin",
          "lat": 30.677314,
          "lon": 104.042105,
          "sequence": 20
        },
        {
          "id": "510100024533016",
          "stationId": "510100024533016",
          "nameZh": "中医大·省医院",
          "nameEn": "Chengdu University of TCM &Sichuan Provincial People's Hospital",
          "target": "chengdu university of tcm &sichuan provincial people's hospital",
          "pinyin": "zhongyidashengyiyuan",
          "lat": 30.666106,
          "lon": 104.040612,
          "sequence": 21
        },
        {
          "id": "900000058344022",
          "stationId": "900000058344022",
          "nameZh": "青羊宫",
          "nameEn": "Qingyang Taoist Temple",
          "target": "qingyang taoist temple",
          "pinyin": "qingyanggong",
          "lat": 30.660007,
          "lon": 104.040773,
          "sequence": 22
        },
        {
          "id": "900000058344023",
          "stationId": "900000058344023",
          "nameZh": "省骨科医院",
          "nameEn": "Provincial Orthopaedics Hospital",
          "target": "provincial orthopaedics hospital",
          "pinyin": "shenggukeyiyuan",
          "lat": 30.651835,
          "lon": 104.040973,
          "sequence": 23
        },
        {
          "id": "900000039590003",
          "stationId": "900000039590003",
          "nameZh": "高升桥",
          "nameEn": "Gaoshengqiao",
          "target": "gaoshengqiao",
          "pinyin": "gaoshengqiao",
          "lat": 30.640044,
          "lon": 104.042545,
          "sequence": 24
        },
        {
          "id": "900000058344025",
          "stationId": "900000058344025",
          "nameZh": "科园",
          "nameEn": "Keyuan",
          "target": "keyuan",
          "pinyin": "keyuan",
          "lat": 30.628044,
          "lon": 104.037829,
          "sequence": 25
        },
        {
          "id": "900000058344026",
          "stationId": "900000058344026",
          "nameZh": "九兴大道",
          "nameEn": "Jiuxing Avenue",
          "target": "jiuxing avenue",
          "pinyin": "jiuxingdadao",
          "lat": 30.620681,
          "lon": 104.039868,
          "sequence": 26
        },
        {
          "id": "900000039592047",
          "stationId": "900000039592047",
          "nameZh": "神仙树",
          "nameEn": "Shenxianshu",
          "target": "shenxianshu",
          "pinyin": "shenxianshu",
          "lat": 30.610057,
          "lon": 104.048098,
          "sequence": 27
        },
        {
          "id": "900000058344028",
          "stationId": "900000058344028",
          "nameZh": "石羊立交",
          "nameEn": "Shiyang Flyover",
          "target": "shiyang flyover",
          "pinyin": "shiyanglijiao",
          "lat": 30.595183,
          "lon": 104.050842,
          "sequence": 28
        },
        {
          "id": "900000058344029",
          "stationId": "900000058344029",
          "nameZh": "市一医院",
          "nameEn": "Chengdu First People's Hospital",
          "target": "chengdu first people's hospital",
          "pinyin": "shiyiyiyuan",
          "lat": 30.589302,
          "lon": 104.050548,
          "sequence": 29
        },
        {
          "id": "900000058344030",
          "stationId": "900000058344030",
          "nameZh": "交子大道",
          "nameEn": "Jiaozi Avenue",
          "target": "jiaozi avenue",
          "pinyin": "jiaozidadao",
          "lat": 30.581854,
          "lon": 104.05021,
          "sequence": 30
        },
        {
          "id": "900000058344031",
          "stationId": "900000058344031",
          "nameZh": "锦城大道",
          "nameEn": "Jincheng Avenue",
          "target": "jincheng avenue",
          "pinyin": "jinchengdadao",
          "lat": 30.574165,
          "lon": 104.050468,
          "sequence": 31
        },
        {
          "id": "900000058344032",
          "stationId": "900000058344032",
          "nameZh": "锦城湖",
          "nameEn": "Jincheng Lake",
          "target": "jincheng lake",
          "pinyin": "jinchenghu",
          "lat": 30.563758,
          "lon": 104.046135,
          "sequence": 32
        },
        {
          "id": "900000058344033",
          "stationId": "900000058344033",
          "nameZh": "大源",
          "nameEn": "Dayuan",
          "target": "dayuan",
          "pinyin": "dayuan",
          "lat": 30.549826,
          "lon": 104.046226,
          "sequence": 33
        },
        {
          "id": "900000058344034",
          "stationId": "900000058344034",
          "nameZh": "民乐",
          "nameEn": "Minle",
          "target": "minle",
          "pinyin": "minle",
          "lat": 30.540348,
          "lon": 104.046521,
          "sequence": 34
        },
        {
          "id": "900000058344035",
          "stationId": "900000058344035",
          "nameZh": "骑龙",
          "nameEn": "Qilong",
          "target": "qilong",
          "pinyin": "qilong",
          "lat": 30.525565,
          "lon": 104.044347,
          "sequence": 35
        },
        {
          "id": "900000058344036",
          "stationId": "900000058344036",
          "nameZh": "警官学院",
          "nameEn": "The Police College",
          "target": "the police college",
          "pinyin": "jingguanxueyuan",
          "lat": 30.512303,
          "lon": 104.039691,
          "sequence": 36
        },
        {
          "id": "900000058344037",
          "stationId": "900000058344037",
          "nameZh": "二江寺",
          "nameEn": "Erjiang Temple",
          "target": "erjiang temple",
          "pinyin": "erjiangsi",
          "lat": 30.499615,
          "lon": 104.035727,
          "sequence": 37
        },
        {
          "id": "900000058344038",
          "stationId": "900000058344038",
          "nameZh": "南湖立交",
          "nameEn": "Nanhu Flyover",
          "target": "nanhu flyover",
          "pinyin": "nanhulijiao",
          "lat": 30.488471,
          "lon": 104.033106,
          "sequence": 38
        },
        {
          "id": "900000058344039",
          "stationId": "900000058344039",
          "nameZh": "怡心湖",
          "nameEn": "Yixin Lake",
          "target": "yixin lake",
          "pinyin": "yixinhu",
          "lat": 30.471185,
          "lon": 104.026786,
          "sequence": 39
        },
        {
          "id": "900000058344040",
          "stationId": "900000058344040",
          "nameZh": "龙马路",
          "nameEn": "Longma Road",
          "target": "longma road",
          "pinyin": "longmalu",
          "lat": 30.457463,
          "lon": 104.01984,
          "sequence": 40
        },
        {
          "id": "900000058344041",
          "stationId": "900000058344041",
          "nameZh": "回龙",
          "nameEn": "Huilong",
          "target": "huilong",
          "pinyin": "huilong",
          "lat": 30.444594,
          "lon": 104.011886,
          "sequence": 41
        }
      ],
      "segments": [
        [
          "900000058344001",
          "900000058344002",
          "900000058344003",
          "900000058344004",
          "900000058344005",
          "900000058344006",
          "900000058344007",
          "900000058344008",
          "900000058344009",
          "900000058344010",
          "900000058344011",
          "900000058344012",
          "900000058344013",
          "900000058344014",
          "900000058344015",
          "900000058344016",
          "900000039592034",
          "900000058344018",
          "900000058344019",
          "900000058344020",
          "510100024533016",
          "900000058344022",
          "900000058344023",
          "900000039590003",
          "900000058344025",
          "900000058344026",
          "900000039592047",
          "900000058344028",
          "900000058344029",
          "900000058344030",
          "900000058344031",
          "900000058344032",
          "900000058344033",
          "900000058344034",
          "900000058344035",
          "900000058344036",
          "900000058344037",
          "900000058344038",
          "900000058344039",
          "900000058344040",
          "900000058344041"
        ]
      ]
    },
    {
      "id": "5101-6",
      "operatorId": "5101",
      "operatorName": "成都地铁",
      "lineId": "6",
      "lineName": "6号线",
      "color": "#B35A1F",
      "loop": false,
      "stations": [
        {
          "id": "900000061908038",
          "stationId": "900000061908038",
          "nameZh": "望丛祠",
          "nameEn": "Wangcong Temple",
          "target": "wangcong temple",
          "pinyin": "wangcongci",
          "lat": 30.807224,
          "lon": 103.878059,
          "sequence": 1
        },
        {
          "id": "900000061908037",
          "stationId": "900000061908037",
          "nameZh": "和平街",
          "nameEn": "Heping Street",
          "target": "heping street",
          "pinyin": "hepingjie",
          "lat": 30.800421,
          "lon": 103.887279,
          "sequence": 2
        },
        {
          "id": "900000061908036",
          "stationId": "900000061908036",
          "nameZh": "郫筒",
          "nameEn": "Pitong Street",
          "target": "pitong street",
          "pinyin": "pitong",
          "lat": 30.796057,
          "lon": 103.89457,
          "sequence": 3
        },
        {
          "id": "900000061908035",
          "stationId": "900000061908035",
          "nameZh": "蜀新大道",
          "nameEn": "Shuxin Avenue",
          "target": "shuxin avenue",
          "pinyin": "shuxindadao",
          "lat": 30.790999,
          "lon": 103.903524,
          "sequence": 4
        },
        {
          "id": "900000061908034",
          "stationId": "900000061908034",
          "nameZh": "檬梓",
          "nameEn": "Mengzi",
          "target": "mengzi",
          "pinyin": "mengzi",
          "lat": 30.784593,
          "lon": 103.91442,
          "sequence": 5
        },
        {
          "id": "900000061908033",
          "stationId": "900000061908033",
          "nameZh": "尚锦路",
          "nameEn": "Shangjin Road",
          "target": "shangjin road",
          "pinyin": "shangjinlu",
          "lat": 30.777337,
          "lon": 103.92342,
          "sequence": 6
        },
        {
          "id": "900000061908032",
          "stationId": "900000061908032",
          "nameZh": "红高路",
          "nameEn": "Honggao Road",
          "target": "honggao road",
          "pinyin": "honggaolu",
          "lat": 30.769421,
          "lon": 103.937108,
          "sequence": 7
        },
        {
          "id": "900000061908031",
          "stationId": "900000061908031",
          "nameZh": "天宇路",
          "nameEn": "Tianyu Road",
          "target": "tianyu road",
          "pinyin": "tianyulu",
          "lat": 30.754129,
          "lon": 103.95452,
          "sequence": 8
        },
        {
          "id": "510100024533027",
          "stationId": "510100024533027",
          "nameZh": "犀浦",
          "nameEn": "Xipu Railway Station",
          "target": "xipu railway station",
          "pinyin": "xipu",
          "lat": 30.757706,
          "lon": 103.969815,
          "sequence": 9
        },
        {
          "id": "900000061908029",
          "stationId": "900000061908029",
          "nameZh": "交大兴业北街",
          "nameEn": "Southwest Jiaotong University & Xingye North Street",
          "target": "southwest jiaotong university & xingye north street",
          "pinyin": "jiaodaxingyebeijie",
          "lat": 30.7587,
          "lon": 103.983315,
          "sequence": 10
        },
        {
          "id": "900000061908028",
          "stationId": "900000061908028",
          "nameZh": "梓潼宫",
          "nameEn": "Zitonggong",
          "target": "zitonggong",
          "pinyin": "zitonggong",
          "lat": 30.747926,
          "lon": 103.993321,
          "sequence": 11
        },
        {
          "id": "900000061908027",
          "stationId": "900000061908027",
          "nameZh": "侯家桥",
          "nameEn": "Houjiaqiao",
          "target": "houjiaqiao",
          "pinyin": "houjiaqiao",
          "lat": 30.737026,
          "lon": 104.004671,
          "sequence": 12
        },
        {
          "id": "900000061908026",
          "stationId": "900000061908026",
          "nameZh": "兴盛",
          "nameEn": "Xingsheng",
          "target": "xingsheng",
          "pinyin": "xingsheng",
          "lat": 30.730787,
          "lon": 104.021489,
          "sequence": 13
        },
        {
          "id": "900000061908025",
          "stationId": "900000061908025",
          "nameZh": "青杠",
          "nameEn": "Qinggang",
          "target": "qinggang",
          "pinyin": "qinggang",
          "lat": 30.725551,
          "lon": 104.025926,
          "sequence": 14
        },
        {
          "id": "900000061908024",
          "stationId": "900000061908024",
          "nameZh": "西华大道",
          "nameEn": "Xihua Avenue",
          "target": "xihua avenue",
          "pinyin": "xihuadadao",
          "lat": 30.718427,
          "lon": 104.031483,
          "sequence": 15
        },
        {
          "id": "900000061908023",
          "stationId": "900000061908023",
          "nameZh": "金府",
          "nameEn": "Jinfu",
          "target": "jinfu",
          "pinyin": "jinfu",
          "lat": 30.711419,
          "lon": 104.036925,
          "sequence": 16
        },
        {
          "id": "900000061908022",
          "stationId": "900000061908022",
          "nameZh": "星河",
          "nameEn": "Xinghe",
          "target": "xinghe",
          "pinyin": "xinghe",
          "lat": 30.702312,
          "lon": 104.044112,
          "sequence": 17
        },
        {
          "id": "900000039592036",
          "stationId": "900000039592036",
          "nameZh": "西南交大",
          "nameEn": "Southwest Jiaotong University",
          "target": "southwest jiaotong university",
          "pinyin": "xinanjiaoda",
          "lat": 30.695066,
          "lon": 104.049327,
          "sequence": 18
        },
        {
          "id": "900000061908020",
          "stationId": "900000061908020",
          "nameZh": "沙湾",
          "nameEn": "Shawan",
          "target": "shawan",
          "pinyin": "shawan",
          "lat": 30.6892,
          "lon": 104.051085,
          "sequence": 19
        },
        {
          "id": "900000058344018",
          "stationId": "900000058344018",
          "nameZh": "西北桥",
          "nameEn": "Xibei Bridge",
          "target": "xibei bridge",
          "pinyin": "xibeiqiao",
          "lat": 30.685632,
          "lon": 104.058153,
          "sequence": 20
        },
        {
          "id": "510100022320004",
          "stationId": "510100022320004",
          "nameZh": "人民北路",
          "nameEn": "Renmin North Road",
          "target": "renmin north road",
          "pinyin": "renminbeilu",
          "lat": 30.684833,
          "lon": 104.073056,
          "sequence": 21
        },
        {
          "id": "900000061908017",
          "stationId": "900000061908017",
          "nameZh": "梁家巷",
          "nameEn": "Liangjiaxiang",
          "target": "liangjiaxiang",
          "pinyin": "liangjiaxiang",
          "lat": 30.682348,
          "lon": 104.083337,
          "sequence": 22
        },
        {
          "id": "900000039590011",
          "stationId": "900000039590011",
          "nameZh": "前锋路",
          "nameEn": "Qianfeng Road",
          "target": "qianfeng road",
          "pinyin": "qianfenglu",
          "lat": 30.679037,
          "lon": 104.092124,
          "sequence": 23
        },
        {
          "id": "900000061908015",
          "stationId": "900000061908015",
          "nameZh": "电子科大建设北路",
          "nameEn": "University of Electronic Science and Technology of China & Jianshe North Road",
          "target": "university of electronic science and technology of china & jianshe north road",
          "pinyin": "dianzikedajianshebeilu",
          "lat": 30.672735,
          "lon": 104.099991,
          "sequence": 24
        },
        {
          "id": "900000061908014",
          "stationId": "900000061908014",
          "nameZh": "新鸿路",
          "nameEn": "Xinhong Road",
          "target": "xinhong road",
          "pinyin": "xinhonglu",
          "lat": 30.662072,
          "lon": 104.102366,
          "sequence": 25
        },
        {
          "id": "900000039621006",
          "stationId": "900000039621006",
          "nameZh": "玉双路",
          "nameEn": "Yushuang Road",
          "target": "yushuang road",
          "pinyin": "yushuanglu",
          "lat": 30.653452,
          "lon": 104.099315,
          "sequence": 26
        },
        {
          "id": "510100024533010",
          "stationId": "510100024533010",
          "nameZh": "牛王庙",
          "nameEn": "Niuwangmiao",
          "target": "niuwangmiao",
          "pinyin": "niuwangmiao",
          "lat": 30.645023,
          "lon": 104.094539,
          "sequence": 27
        },
        {
          "id": "900000061908011",
          "stationId": "900000061908011",
          "nameZh": "顺江路",
          "nameEn": "Shunjiang Road",
          "target": "shunjiang road",
          "pinyin": "shunjianglu",
          "lat": 30.635579,
          "lon": 104.093005,
          "sequence": 28
        },
        {
          "id": "900000061908010",
          "stationId": "900000061908010",
          "nameZh": "三官堂",
          "nameEn": "Sanguantang",
          "target": "sanguantang",
          "pinyin": "sanguantang",
          "lat": 30.628385,
          "lon": 104.094465,
          "sequence": 29
        },
        {
          "id": "900000061908009",
          "stationId": "900000061908009",
          "nameZh": "东光",
          "nameEn": "Dongguang",
          "target": "dongguang",
          "pinyin": "dongguang",
          "lat": 30.619577,
          "lon": 104.098493,
          "sequence": 30
        },
        {
          "id": "900000039592050",
          "stationId": "900000039592050",
          "nameZh": "琉璃场",
          "nameEn": "Liulichang",
          "target": "liulichang",
          "pinyin": "liulichang",
          "lat": 30.607634,
          "lon": 104.098928,
          "sequence": 31
        },
        {
          "id": "900000061908007",
          "stationId": "900000061908007",
          "nameZh": "琉三路",
          "nameEn": "Liusan Road",
          "target": "liusan road",
          "pinyin": "liusanlu",
          "lat": 30.600351,
          "lon": 104.098172,
          "sequence": 32
        },
        {
          "id": "900000061908006",
          "stationId": "900000061908006",
          "nameZh": "金石路",
          "nameEn": "Jinshi Road",
          "target": "jinshi road",
          "pinyin": "jinshilu",
          "lat": 30.590292,
          "lon": 104.089185,
          "sequence": 33
        },
        {
          "id": "900000061908005",
          "stationId": "900000061908005",
          "nameZh": "金融城东",
          "nameEn": "Financial City East",
          "target": "financial city east",
          "pinyin": "jinrongchengdong",
          "lat": 30.579744,
          "lon": 104.084201,
          "sequence": 34
        },
        {
          "id": "900000061908004",
          "stationId": "900000061908004",
          "nameZh": "中和",
          "nameEn": "Zhonghe",
          "target": "zhonghe",
          "pinyin": "zhonghe",
          "lat": 30.558558,
          "lon": 104.096073,
          "sequence": 35
        },
        {
          "id": "900000061908003",
          "stationId": "900000061908003",
          "nameZh": "张家寺",
          "nameEn": "Zhangjiasi",
          "target": "zhangjiasi",
          "pinyin": "zhangjiasi",
          "lat": 30.550135,
          "lon": 104.09838,
          "sequence": 36
        },
        {
          "id": "900000061908002",
          "stationId": "900000061908002",
          "nameZh": "陆肖",
          "nameEn": "Luxiao",
          "target": "luxiao",
          "pinyin": "luxiao",
          "lat": 30.537797,
          "lon": 104.098365,
          "sequence": 37
        },
        {
          "id": "900000061908001",
          "stationId": "900000061908001",
          "nameZh": "观东",
          "nameEn": "Guandong",
          "target": "guandong",
          "pinyin": "guandong",
          "lat": 30.53092,
          "lon": 104.098372,
          "sequence": 38
        },
        {
          "id": "900000061908056",
          "stationId": "900000061908056",
          "nameZh": "新通大道",
          "nameEn": "Xintong Avenue",
          "target": "xintong avenue",
          "pinyin": "xintongdadao",
          "lat": 30.521927,
          "lon": 104.098444,
          "sequence": 39
        },
        {
          "id": "900000061908055",
          "stationId": "900000061908055",
          "nameZh": "新川路",
          "nameEn": "Xinchuan Road",
          "target": "xinchuan road",
          "pinyin": "xinchuanlu",
          "lat": 30.515663,
          "lon": 104.100502,
          "sequence": 40
        },
        {
          "id": "900000061908054",
          "stationId": "900000061908054",
          "nameZh": "龙灯山",
          "nameEn": "Longdengshan",
          "target": "longdengshan",
          "pinyin": "longdengshan",
          "lat": 30.509023,
          "lon": 104.101212,
          "sequence": 41
        },
        {
          "id": "900000061908053",
          "stationId": "900000061908053",
          "nameZh": "蒲草塘",
          "nameEn": "Pucaotang",
          "target": "pucaotang",
          "pinyin": "pucaotang",
          "lat": 30.501634,
          "lon": 104.09845,
          "sequence": 42
        },
        {
          "id": "900000061908052",
          "stationId": "900000061908052",
          "nameZh": "万安",
          "nameEn": "Wan'an",
          "target": "wan'an",
          "pinyin": "wanan",
          "lat": 30.494865,
          "lon": 104.099451,
          "sequence": 43
        },
        {
          "id": "900000061908051",
          "stationId": "900000061908051",
          "nameZh": "麓山大道",
          "nameEn": "Lushan Avenue",
          "target": "lushan avenue",
          "pinyin": "lushandadao",
          "lat": 30.483027,
          "lon": 104.103418,
          "sequence": 44
        },
        {
          "id": "900000061908050",
          "stationId": "900000061908050",
          "nameZh": "沈阳路",
          "nameEn": "Shenyang Road",
          "target": "shenyang road",
          "pinyin": "shenyanglu",
          "lat": 30.467349,
          "lon": 104.101504,
          "sequence": 45
        },
        {
          "id": "900000061908049",
          "stationId": "900000061908049",
          "nameZh": "青岛路(法务区)",
          "nameEn": "Qingdao Road",
          "target": "qingdao road",
          "pinyin": "qingdaolufawuqu",
          "lat": 30.4589,
          "lon": 104.101972,
          "sequence": 46
        },
        {
          "id": "900000061908048",
          "stationId": "900000061908048",
          "nameZh": "昌公堰",
          "nameEn": "Changgongyan",
          "target": "changgongyan",
          "pinyin": "changgongyan",
          "lat": 30.448314,
          "lon": 104.093889,
          "sequence": 47
        },
        {
          "id": "900000061908047",
          "stationId": "900000061908047",
          "nameZh": "杭州路",
          "nameEn": "Hangzhou Road",
          "target": "hangzhou road",
          "pinyin": "hangzhoulu",
          "lat": 30.43889,
          "lon": 104.089327,
          "sequence": 48
        },
        {
          "id": "900000061908046",
          "stationId": "900000061908046",
          "nameZh": "天府商务区",
          "nameEn": "Tianfu Commercial District",
          "target": "tianfu commercial district",
          "pinyin": "tianfushangwuqu",
          "lat": 30.430018,
          "lon": 104.086259,
          "sequence": 49
        },
        {
          "id": "900000061908045",
          "stationId": "900000061908045",
          "nameZh": "西博城",
          "nameEn": "Western China Int'l Expo City",
          "target": "western china int'l expo city",
          "pinyin": "xibocheng",
          "lat": 30.424349,
          "lon": 104.074399,
          "sequence": 50
        },
        {
          "id": "900000061908044",
          "stationId": "900000061908044",
          "nameZh": "秦皇寺",
          "nameEn": "Qinhuangsi",
          "target": "qinhuangsi",
          "pinyin": "qinhuangsi",
          "lat": 30.424489,
          "lon": 104.061844,
          "sequence": 51
        },
        {
          "id": "900000061908043",
          "stationId": "900000061908043",
          "nameZh": "松林",
          "nameEn": "Songlin",
          "target": "songlin",
          "pinyin": "songlin",
          "lat": 30.425825,
          "lon": 104.046579,
          "sequence": 52
        },
        {
          "id": "900000061908042",
          "stationId": "900000061908042",
          "nameZh": "芦角",
          "nameEn": "Lujiao",
          "target": "lujiao",
          "pinyin": "lujiao",
          "lat": 30.431577,
          "lon": 104.037716,
          "sequence": 53
        },
        {
          "id": "900000061908041",
          "stationId": "900000061908041",
          "nameZh": "钓鱼嘴",
          "nameEn": "Diaoyuzui",
          "target": "diaoyuzui",
          "pinyin": "diaoyuzui",
          "lat": 30.436419,
          "lon": 104.032538,
          "sequence": 54
        },
        {
          "id": "900000058344041",
          "stationId": "900000058344041",
          "nameZh": "回龙",
          "nameEn": "Huilong",
          "target": "huilong",
          "pinyin": "huilong",
          "lat": 30.444594,
          "lon": 104.011886,
          "sequence": 55
        },
        {
          "id": "900000061908039",
          "stationId": "900000061908039",
          "nameZh": "兰家沟",
          "nameEn": "Lanjiagou",
          "target": "lanjiagou",
          "pinyin": "lanjiagou",
          "lat": 30.443288,
          "lon": 103.996613,
          "sequence": 56
        }
      ],
      "segments": [
        [
          "900000061908038",
          "900000061908037",
          "900000061908036",
          "900000061908035",
          "900000061908034",
          "900000061908033",
          "900000061908032",
          "900000061908031",
          "510100024533027",
          "900000061908029",
          "900000061908028",
          "900000061908027",
          "900000061908026",
          "900000061908025",
          "900000061908024",
          "900000061908023",
          "900000061908022",
          "900000039592036",
          "900000061908020",
          "900000058344018",
          "510100022320004",
          "900000061908017",
          "900000039590011",
          "900000061908015",
          "900000061908014",
          "900000039621006",
          "510100024533010",
          "900000061908011",
          "900000061908010",
          "900000061908009",
          "900000039592050",
          "900000061908007",
          "900000061908006",
          "900000061908005",
          "900000061908004",
          "900000061908003",
          "900000061908002",
          "900000061908001",
          "900000061908056",
          "900000061908055",
          "900000061908054",
          "900000061908053",
          "900000061908052",
          "900000061908051",
          "900000061908050",
          "900000061908049",
          "900000061908048",
          "900000061908047",
          "900000061908046",
          "900000061908045",
          "900000061908044",
          "900000061908043",
          "900000061908042",
          "900000061908041",
          "900000058344041",
          "900000061908039"
        ]
      ]
    },
    {
      "id": "5101-7",
      "operatorId": "5101",
      "operatorName": "成都地铁",
      "lineId": "7",
      "lineName": "7号线",
      "color": "#84C3D0",
      "loop": true,
      "stations": [
        {
          "id": "510100022320003",
          "stationId": "510100022320003",
          "nameZh": "火车北站",
          "nameEn": "North Railway Station",
          "target": "north railway station",
          "pinyin": "huochebeizhan",
          "lat": 30.695517,
          "lon": 104.074056,
          "sequence": 1
        },
        {
          "id": "900000039592034",
          "stationId": "900000039592034",
          "nameZh": "北站西二路",
          "nameEn": "2nd Beizhan West Road",
          "target": "2nd beizhan west road",
          "pinyin": "beizhanxierlu",
          "lat": 30.693759,
          "lon": 104.066153,
          "sequence": 2
        },
        {
          "id": "900000039592035",
          "stationId": "900000039592035",
          "nameZh": "九里堤",
          "nameEn": "Jiulidi",
          "target": "jiulidi",
          "pinyin": "jiulidi",
          "lat": 30.69464,
          "lon": 104.057119,
          "sequence": 3
        },
        {
          "id": "900000039592036",
          "stationId": "900000039592036",
          "nameZh": "西南交大",
          "nameEn": "Southwest Jiaotong University",
          "target": "southwest jiaotong university",
          "pinyin": "xinanjiaoda",
          "lat": 30.695066,
          "lon": 104.049327,
          "sequence": 4
        },
        {
          "id": "900000039592037",
          "stationId": "900000039592037",
          "nameZh": "花照壁",
          "nameEn": "Huazhaobi",
          "target": "huazhaobi",
          "pinyin": "huazhaobi",
          "lat": 30.696626,
          "lon": 104.040831,
          "sequence": 5
        },
        {
          "id": "900000039592038",
          "stationId": "900000039592038",
          "nameZh": "茶店子",
          "nameEn": "Chadianzi",
          "target": "chadianzi",
          "pinyin": "chadianzi",
          "lat": 30.696229,
          "lon": 104.030835,
          "sequence": 6
        },
        {
          "id": "510100024533019",
          "stationId": "510100024533019",
          "nameZh": "一品天下",
          "nameEn": "Yipintianxia",
          "target": "yipintianxia",
          "pinyin": "yipintianxia",
          "lat": 30.688942,
          "lon": 104.01963,
          "sequence": 7
        },
        {
          "id": "900000039592040",
          "stationId": "900000039592040",
          "nameZh": "金沙博物馆",
          "nameEn": "Jinsha Site Museum",
          "target": "jinsha site museum",
          "pinyin": "jinshabowuguan",
          "lat": 30.677436,
          "lon": 104.01252,
          "sequence": 8
        },
        {
          "id": "900000039592041",
          "stationId": "900000039592041",
          "nameZh": "文化宫",
          "nameEn": "Culture Palace",
          "target": "culture palace",
          "pinyin": "wenhuagong",
          "lat": 30.672258,
          "lon": 104.009413,
          "sequence": 9
        },
        {
          "id": "900000039592042",
          "stationId": "900000039592042",
          "nameZh": "东坡路",
          "nameEn": "Dongpo Road",
          "target": "dongpo road",
          "pinyin": "dongpolu",
          "lat": 30.661028,
          "lon": 104.00791,
          "sequence": 10
        },
        {
          "id": "900000039592043",
          "stationId": "900000039592043",
          "nameZh": "龙爪堰",
          "nameEn": "Longzhuayan",
          "target": "longzhuayan",
          "pinyin": "longzhaoyan",
          "lat": 30.651345,
          "lon": 104.008496,
          "sequence": 11
        },
        {
          "id": "900000039592044",
          "stationId": "900000039592044",
          "nameZh": "武侯大道",
          "nameEn": "Wuhou Avenue",
          "target": "wuhou avenue",
          "pinyin": "wuhoudadao",
          "lat": 30.637011,
          "lon": 104.012928,
          "sequence": 12
        },
        {
          "id": "900000039590001",
          "stationId": "900000039590001",
          "nameZh": "太平园",
          "nameEn": "Taipingyuan",
          "target": "taipingyuan",
          "pinyin": "taipingyuan",
          "lat": 30.625381,
          "lon": 104.02158,
          "sequence": 13
        },
        {
          "id": "900000039592046",
          "stationId": "900000039592046",
          "nameZh": "高朋大道",
          "nameEn": "Gaopeng Avenue",
          "target": "gaopeng avenue",
          "pinyin": "gaopengdadao",
          "lat": 30.617521,
          "lon": 104.0349,
          "sequence": 14
        },
        {
          "id": "900000039592047",
          "stationId": "900000039592047",
          "nameZh": "神仙树",
          "nameEn": "Shenxianshu",
          "target": "shenxianshu",
          "pinyin": "shenxianshu",
          "lat": 30.610057,
          "lon": 104.048098,
          "sequence": 15
        },
        {
          "id": "510100022320013",
          "stationId": "510100022320013",
          "nameZh": "火车南站",
          "nameEn": "South Railway Station",
          "target": "south railway station",
          "pinyin": "huochenanzhan",
          "lat": 30.605459,
          "lon": 104.067393,
          "sequence": 16
        },
        {
          "id": "900000039592049",
          "stationId": "900000039592049",
          "nameZh": "三瓦窑",
          "nameEn": "Sanwayao",
          "target": "sanwayao",
          "pinyin": "sanwayao",
          "lat": 30.604107,
          "lon": 104.07746,
          "sequence": 17
        },
        {
          "id": "900000039592050",
          "stationId": "900000039592050",
          "nameZh": "琉璃场",
          "nameEn": "Liulichang",
          "target": "liulichang",
          "pinyin": "liulichang",
          "lat": 30.607634,
          "lon": 104.098928,
          "sequence": 18
        },
        {
          "id": "900000039592051",
          "stationId": "900000039592051",
          "nameZh": "四川师大",
          "nameEn": "Sichuan Normal University",
          "target": "sichuan normal university",
          "pinyin": "sichuanshida",
          "lat": 30.609368,
          "lon": 104.116054,
          "sequence": 19
        },
        {
          "id": "900000039592052",
          "stationId": "900000039592052",
          "nameZh": "狮子山",
          "nameEn": "Shizishan",
          "target": "shizishan",
          "pinyin": "shizishan",
          "lat": 30.615942,
          "lon": 104.124311,
          "sequence": 20
        },
        {
          "id": "900000039592053",
          "stationId": "900000039592053",
          "nameZh": "大观",
          "nameEn": "Daguan",
          "target": "daguan",
          "pinyin": "daguan",
          "lat": 30.621601,
          "lon": 104.133057,
          "sequence": 21
        },
        {
          "id": "510100024533006",
          "stationId": "510100024533006",
          "nameZh": "成都东客站",
          "nameEn": "Chengdu East Railway Station",
          "target": "chengdu east railway station",
          "pinyin": "chengdudongkezhan",
          "lat": 30.629329,
          "lon": 104.13995,
          "sequence": 22
        },
        {
          "id": "900000039592055",
          "stationId": "900000039592055",
          "nameZh": "迎晖路",
          "nameEn": "Yinghui Road",
          "target": "yinghui road",
          "pinyin": "yinghuilu",
          "lat": 30.638288,
          "lon": 104.139649,
          "sequence": 23
        },
        {
          "id": "900000039592056",
          "stationId": "900000039592056",
          "nameZh": "槐树店",
          "nameEn": "Huaishudian",
          "target": "huaishudian",
          "pinyin": "huaishudian",
          "lat": 30.648877,
          "lon": 104.139309,
          "sequence": 24
        },
        {
          "id": "900000039592057",
          "stationId": "900000039592057",
          "nameZh": "双店路",
          "nameEn": "Shuangdian Road",
          "target": "shuangdian road",
          "pinyin": "shuangdianlu",
          "lat": 30.657581,
          "lon": 104.136956,
          "sequence": 25
        },
        {
          "id": "900000039592058",
          "stationId": "900000039592058",
          "nameZh": "崔家店",
          "nameEn": "Cuijiadian",
          "target": "cuijiadian",
          "pinyin": "cuijiadian",
          "lat": 30.66542,
          "lon": 104.136427,
          "sequence": 26
        },
        {
          "id": "900000039592059",
          "stationId": "900000039592059",
          "nameZh": "理工大学",
          "nameEn": "Chengdu University of Technology",
          "target": "chengdu university of technology",
          "pinyin": "ligongdaxue",
          "lat": 30.673375,
          "lon": 104.1379,
          "sequence": 27
        },
        {
          "id": "900000039592060",
          "stationId": "900000039592060",
          "nameZh": "二仙桥",
          "nameEn": "Erxianqiao",
          "target": "erxianqiao",
          "pinyin": "erxianqiao",
          "lat": 30.68088,
          "lon": 104.12636,
          "sequence": 28
        },
        {
          "id": "900000039592061",
          "stationId": "900000039592061",
          "nameZh": "八里庄",
          "nameEn": "Balizhuang",
          "target": "balizhuang",
          "pinyin": "balizhuang",
          "lat": 30.687128,
          "lon": 104.118056,
          "sequence": 29
        },
        {
          "id": "900000039592062",
          "stationId": "900000039592062",
          "nameZh": "府青路",
          "nameEn": "Fuqing Road",
          "target": "fuqing road",
          "pinyin": "fuqinglu",
          "lat": 30.694472,
          "lon": 104.107227,
          "sequence": 30
        },
        {
          "id": "900000039590013",
          "stationId": "900000039590013",
          "nameZh": "驷马桥",
          "nameEn": "Sima Bridge",
          "target": "sima bridge",
          "pinyin": "simaqiao",
          "lat": 30.695502,
          "lon": 104.093329,
          "sequence": 31
        }
      ],
      "segments": [
        [
          "510100022320003",
          "900000039592034",
          "900000039592035",
          "900000039592036",
          "900000039592037",
          "900000039592038",
          "510100024533019",
          "900000039592040",
          "900000039592041",
          "900000039592042",
          "900000039592043",
          "900000039592044",
          "900000039590001",
          "900000039592046",
          "900000039592047",
          "510100022320013",
          "900000039592049",
          "900000039592050",
          "900000039592051",
          "900000039592052",
          "900000039592053",
          "510100024533006",
          "900000039592055",
          "900000039592056",
          "900000039592057",
          "900000039592058",
          "900000039592059",
          "900000039592060",
          "900000039592061",
          "900000039592062",
          "900000039590013"
        ]
      ]
    },
    {
      "id": "5101-8",
      "operatorId": "5101",
      "operatorName": "成都地铁",
      "lineId": "8",
      "lineName": "8号线",
      "color": "#86B81C",
      "loop": false,
      "stations": [
        {
          "id": "900000075312026",
          "stationId": "900000075312026",
          "nameZh": "桂龙路",
          "nameEn": "Guilong Road",
          "target": "guilong road",
          "pinyin": "guilonglu",
          "lat": 30.716844,
          "lon": 104.188771,
          "sequence": 1
        },
        {
          "id": "900000075312027",
          "stationId": "900000075312027",
          "nameZh": "桂林",
          "nameEn": "Guilin",
          "target": "guilin",
          "pinyin": "guilin",
          "lat": 30.717007,
          "lon": 104.179186,
          "sequence": 2
        },
        {
          "id": "900000075312028",
          "stationId": "900000075312028",
          "nameZh": "同乐",
          "nameEn": "Tongle",
          "target": "tongle",
          "pinyin": "tongle",
          "lat": 30.711783,
          "lon": 104.170445,
          "sequence": 3
        },
        {
          "id": "900000075312029",
          "stationId": "900000075312029",
          "nameZh": "龙潭寺",
          "nameEn": "Longtan Temple",
          "target": "longtan temple",
          "pinyin": "longtansi",
          "lat": 30.701859,
          "lon": 104.16497,
          "sequence": 4
        },
        {
          "id": "900000075312030",
          "stationId": "900000075312030",
          "nameZh": "龙潭立交",
          "nameEn": "Longtan Flyover",
          "target": "longtan flyover",
          "pinyin": "longtanlijiao",
          "lat": 30.69425,
          "lon": 104.157639,
          "sequence": 5
        },
        {
          "id": "900000075312031",
          "stationId": "900000075312031",
          "nameZh": "圣灯公园",
          "nameEn": "Shengdeng Park",
          "target": "shengdeng park",
          "pinyin": "shengdenggongyuan",
          "lat": 30.687489,
          "lon": 104.1514,
          "sequence": 6
        },
        {
          "id": "900000075312001",
          "stationId": "900000075312001",
          "nameZh": "十里店",
          "nameEn": "Shilidian",
          "target": "shilidian",
          "pinyin": "shilidian",
          "lat": 30.679527,
          "lon": 104.144194,
          "sequence": 7
        },
        {
          "id": "900000039592059",
          "stationId": "900000039592059",
          "nameZh": "理工大学",
          "nameEn": "Chengdu University of Technology",
          "target": "chengdu university of technology",
          "pinyin": "ligongdaxue",
          "lat": 30.673375,
          "lon": 104.1379,
          "sequence": 8
        },
        {
          "id": "900000075312003",
          "stationId": "900000075312003",
          "nameZh": "东郊记忆",
          "nameEn": "Dongjiao Memory",
          "target": "dongjiao memory",
          "pinyin": "dongjiaojiyi",
          "lat": 30.668561,
          "lon": 104.129064,
          "sequence": 9
        },
        {
          "id": "900000075312004",
          "stationId": "900000075312004",
          "nameZh": "杉板桥",
          "nameEn": "Shabanqiao",
          "target": "shabanqiao",
          "pinyin": "shanbanqiao",
          "lat": 30.66417,
          "lon": 104.119292,
          "sequence": 10
        },