{
  "city": "nanjing",
  "cityNameZh": "南京",
  "cityNameEn": "Nanjing",
  "source": "高德地图地铁数据（非官方接口）· 官方英文站名整理自 Wikipedia",
  "generatedAt": "2026-07-14T13:55:03.860Z",
  "lines": [
    {
      "id": "3201-S1",
      "operatorId": "3201",
      "operatorName": "南京地铁",
      "lineId": "S1",
      "lineName": "S1号线(机场线)",
      "color": "#00AD8E",
      "loop": false,
      "stations": [
        {
          "id": "320100022467010",
          "stationId": "320100022467010",
          "nameZh": "空港新城江宁",
          "nameEn": "Kong Gang Xin Cheng Jiang Ning",
          "target": "kong gang xin cheng jiang ning",
          "pinyin": "konggangxinchengjiangning",
          "lat": 31.737687,
          "lon": 118.887659,
          "sequence": 1
        },
        {
          "id": "320100022467009",
          "stationId": "320100022467009",
          "nameZh": "禄口机场",
          "nameEn": "Lu Kou Ji Chang",
          "target": "lu kou ji chang",
          "pinyin": "lukoujichang",
          "lat": 31.730279,
          "lon": 118.87364,
          "sequence": 2
        },
        {
          "id": "320100022467008",
          "stationId": "320100022467008",
          "nameZh": "翔宇路南",
          "nameEn": "Xiang Yu Lu Nan",
          "target": "xiang yu lu nan",
          "pinyin": "xiangyulunan",
          "lat": 31.754866,
          "lon": 118.829201,
          "sequence": 3
        },
        {
          "id": "320100022467007",
          "stationId": "320100022467007",
          "nameZh": "翔宇路北",
          "nameEn": "Xiang Yu Lu Bei",
          "target": "xiang yu lu bei",
          "pinyin": "xiangyulubei",
          "lat": 31.791284,
          "lon": 118.821542,
          "sequence": 4
        },
        {
          "id": "320100022467006",
          "stationId": "320100022467006",
          "nameZh": "正方中路",
          "nameEn": "Zheng Fang Zhong Lu",
          "target": "zheng fang zhong lu",
          "pinyin": "zhengfangzhonglu",
          "lat": 31.845115,
          "lon": 118.805809,
          "sequence": 5
        },
        {
          "id": "320100021571030",
          "stationId": "320100021571030",
          "nameZh": "吉印大道",
          "nameEn": "Jiyin Dadao",
          "target": "jiyin dadao",
          "pinyin": "jiyindadao",
          "lat": 31.886166,
          "lon": 118.795507,
          "sequence": 6
        },
        {
          "id": "320100022467004",
          "stationId": "320100022467004",
          "nameZh": "河海大学·佛城西路",
          "nameEn": "He Hai Da Xue ? Fo Cheng Xi Lu",
          "target": "he hai da xue fo cheng xi lu",
          "pinyin": "hehaidaxuefochengxilu",
          "lat": 31.914086,
          "lon": 118.791365,
          "sequence": 7
        },
        {
          "id": "320100022467003",
          "stationId": "320100022467003",
          "nameZh": "翠屏山",
          "nameEn": "Cui Ping Shan",
          "target": "cui ping shan",
          "pinyin": "cuipingshan",
          "lat": 31.94253,
          "lon": 118.784514,
          "sequence": 8
        },
        {
          "id": "320100021307016",
          "stationId": "320100021307016",
          "nameZh": "南京南站",
          "nameEn": "Nan Jing Nan Zhan",
          "target": "nan jing nan zhan",
          "pinyin": "nanjingnanzhan",
          "lat": 31.970968,
          "lon": 118.796786,
          "sequence": 9
        }
      ],
      "segments": [
        [
          "320100022467010",
          "320100022467009",
          "320100022467008",
          "320100022467007",
          "320100022467006",
          "320100021571030",
          "320100022467004",
          "320100022467003",
          "320100021307016"
        ]
      ]
    },
    {
      "id": "3201-1",
      "operatorId": "3201",
      "operatorName": "南京地铁",
      "lineId": "1",
      "lineName": "1号线",
      "color": "#01A2E2",
      "loop": false,
      "stations": [
        {
          "id": "320100022330002",
          "stationId": "320100022330002",
          "nameZh": "中国药科大学",
          "nameEn": "Zhong Guo Yao Ke Da Xue",
          "target": "zhong guo yao ke da xue",
          "pinyin": "zhongguoyaokedaxue",
          "lat": 31.897684,
          "lon": 118.914127,
          "sequence": 1
        },
        {
          "id": "320100022330003",
          "stationId": "320100022330003",
          "nameZh": "南京交院",
          "nameEn": "Nan Jing Jiao Yuan",
          "target": "nan jing jiao yuan",
          "pinyin": "nanjingjiaoyuan",
          "lat": 31.91286,
          "lon": 118.904804,
          "sequence": 2
        },
        {
          "id": "320100022330004",
          "stationId": "320100022330004",
          "nameZh": "南医大·江苏经贸学院",
          "nameEn": "Nan Yi Da ? Jiang Su Jing Mao Xue Yuan",
          "target": "nan yi da jiang su jing mao xue yuan",
          "pinyin": "nanyidajiangsujingmaoxueyuan",
          "lat": 31.933475,
          "lon": 118.890239,
          "sequence": 3
        },
        {
          "id": "320100022330005",
          "stationId": "320100022330005",
          "nameZh": "龙眠大道",
          "nameEn": "Long Mian Da Dao",
          "target": "long mian da dao",
          "pinyin": "longmiandadao",
          "lat": 31.939902,
          "lon": 118.877156,
          "sequence": 4
        },
        {
          "id": "320100022330006",
          "stationId": "320100022330006",
          "nameZh": "天印大道",
          "nameEn": "Tian Yin Da Dao",
          "target": "tian yin da dao",
          "pinyin": "tianyindadao",
          "lat": 31.937638,
          "lon": 118.863561,
          "sequence": 5
        },
        {
          "id": "320100021571024",
          "stationId": "320100021571024",
          "nameZh": "竹山路",
          "nameEn": "Zhushan Lu",
          "target": "zhushan lu",
          "pinyin": "zhushanlu",
          "lat": 31.931472,
          "lon": 118.845716,
          "sequence": 6
        },
        {
          "id": "320100022330008",
          "stationId": "320100022330008",
          "nameZh": "小龙湾",
          "nameEn": "Xiao Long Wan",
          "target": "xiao long wan",
          "pinyin": "xiaolongwan",
          "lat": 31.929684,
          "lon": 118.832624,
          "sequence": 7
        },
        {
          "id": "320100022330009",
          "stationId": "320100022330009",
          "nameZh": "百家湖",
          "nameEn": "Bai Jia Hu",
          "target": "bai jia hu",
          "pinyin": "baijiahu",
          "lat": 31.931941,
          "lon": 118.820843,
          "sequence": 8
        },
        {
          "id": "320100022330010",
          "stationId": "320100022330010",
          "nameZh": "胜太路",
          "nameEn": "Sheng Tai Lu",
          "target": "sheng tai lu",
          "pinyin": "shengtailu",
          "lat": 31.943549,
          "lon": 118.821393,
          "sequence": 9
        },
        {
          "id": "320100022330011",
          "stationId": "320100022330011",
          "nameZh": "河定桥",
          "nameEn": "He Ding Qiao",
          "target": "he ding qiao",
          "pinyin": "hedingqiao",
          "lat": 31.952092,
          "lon": 118.820141,
          "sequence": 10
        },
        {
          "id": "320100022330012",
          "stationId": "320100022330012",
          "nameZh": "双龙大道",
          "nameEn": "Shuang Long Da Dao",
          "target": "shuang long da dao",
          "pinyin": "shuanglongdadao",
          "lat": 31.963833,
          "lon": 118.817196,
          "sequence": 11
        },
        {
          "id": "320100021307016",
          "stationId": "320100021307016",
          "nameZh": "南京南站",
          "nameEn": "Nan Jing Nan Zhan",
          "target": "nan jing nan zhan",
          "pinyin": "nanjingnanzhan",
          "lat": 31.970968,
          "lon": 118.796786,
          "sequence": 12
        },
        {
          "id": "320100022330014",
          "stationId": "320100022330014",
          "nameZh": "花神庙",
          "nameEn": "Hua Shen Miao",
          "target": "hua shen miao",
          "pinyin": "huashenmiao",
          "lat": 31.977795,
          "lon": 118.785648,
          "sequence": 13
        },
        {
          "id": "320100022330015",
          "stationId": "320100022330015",
          "nameZh": "软件大道",
          "nameEn": "Ruan Jian Da Dao",
          "target": "ruan jian da dao",
          "pinyin": "ruanjiandadao",
          "lat": 31.976727,
          "lon": 118.774583,
          "sequence": 14
        },
        {
          "id": "320100022330016",
          "stationId": "320100022330016",
          "nameZh": "天隆寺",
          "nameEn": "Tian Long Si",
          "target": "tian long si",
          "pinyin": "tianlongsi",
          "lat": 31.979331,
          "lon": 118.763146,
          "sequence": 15
        },
        {
          "id": "320100022330017",
          "stationId": "320100022330017",
          "nameZh": "安德门",
          "nameEn": "An De Men",
          "target": "an de men",
          "pinyin": "andemen",
          "lat": 31.990862,
          "lon": 118.762136,
          "sequence": 16
        },
        {
          "id": "320100022330018",
          "stationId": "320100022330018",
          "nameZh": "中华门",
          "nameEn": "Zhong Hua Men",
          "target": "zhong hua men",
          "pinyin": "zhonghuamen",
          "lat": 32.006748,
          "lon": 118.774447,
          "sequence": 17
        },
        {
          "id": "320100021571045",
          "stationId": "320100021571045",
          "nameZh": "三山街",
          "nameEn": "Sanshan Jie",
          "target": "sanshan jie",
          "pinyin": "sanshanjie",
          "lat": 32.023021,
          "lon": 118.781583,
          "sequence": 18
        },
        {
          "id": "320100022330020",
          "stationId": "320100022330020",
          "nameZh": "张府园",
          "nameEn": "Zhang Fu Yuan",
          "target": "zhang fu yuan",
          "pinyin": "zhangfuyuan",
          "lat": 32.030963,
          "lon": 118.783932,
          "sequence": 19
        },
        {
          "id": "320100021495012",
          "stationId": "320100021495012",
          "nameZh": "新街口",
          "nameEn": "Xin Jie Kou",
          "target": "xin jie kou",
          "pinyin": "xinjiekou",
          "lat": 32.041806,
          "lon": 118.784136,
          "sequence": 20
        },
        {
          "id": "320100022330022",
          "stationId": "320100022330022",
          "nameZh": "珠江路",
          "nameEn": "Zhu Jiang Lu",
          "target": "zhu jiang lu",
          "pinyin": "zhujianglu",
          "lat": 32.050974,
          "lon": 118.784208,
          "sequence": 21
        },
        {
          "id": "320100021293010",
          "stationId": "320100021293010",
          "nameZh": "鼓楼",
          "nameEn": "Gu Lou",
          "target": "gu lou",
          "pinyin": "gulou",
          "lat": 32.058958,
          "lon": 118.783724,
          "sequence": 22
        },
        {
          "id": "320100022330024",
          "stationId": "320100022330024",
          "nameZh": "玄武门",
          "nameEn": "Xuan Wu Men",
          "target": "xuan wu men",
          "pinyin": "xuanwumen",
          "lat": 32.070016,
          "lon": 118.784141,
          "sequence": 23
        },
        {
          "id": "320100022330025",
          "stationId": "320100022330025",
          "nameZh": "新模范马路",
          "nameEn": "Xin Mo Fan Ma Lu",
          "target": "xin mo fan ma lu",
          "pinyin": "xinmofanmalu",
          "lat": 32.079901,
          "lon": 118.783738,
          "sequence": 24
        },
        {
          "id": "320100021573021",
          "stationId": "320100021573021",
          "nameZh": "南京站",
          "nameEn": "Nan Jing Zhan",
          "target": "nan jing zhan",
          "pinyin": "nanjingzhan",
          "lat": 32.089322,
          "lon": 118.796509,
          "sequence": 25
        },
        {
          "id": "320100022330027",
          "stationId": "320100022330027",
          "nameZh": "红山动物园",
          "nameEn": "Hong Shan Dong Wu Yuan",
          "target": "hong shan dong wu yuan",
          "pinyin": "hongshandongwuyuan",
          "lat": 32.095774,
          "lon": 118.802053,
          "sequence": 26
        },
        {
          "id": "320100022330028",
          "stationId": "320100022330028",
          "nameZh": "迈皋桥",
          "nameEn": "Maigaoqiao",
          "target": "maigaoqiao",
          "pinyin": "maigaoqiao",
          "lat": 32.102712,
          "lon": 118.809677,
          "sequence": 27
        },
        {
          "id": "320100021299007",
          "stationId": "320100021299007",
          "nameZh": "晓庄",
          "nameEn": "Xiaozhuang",
          "target": "xiaozhuang",
          "pinyin": "xiaozhuang",
          "lat": 32.117229,
          "lon": 118.818517,
          "sequence": 28
        },
        {
          "id": "320100022330030",
          "stationId": "320100022330030",
          "nameZh": "吉祥庵",
          "nameEn": "Jixiangan",
          "target": "jixiangan",
          "pinyin": "jixiangan",
          "lat": 32.126634,
          "lon": 118.821339,
          "sequence": 29
        },
        {
          "id": "320100022330031",
          "stationId": "320100022330031",
          "nameZh": "燕子矶",
          "nameEn": "Yanziji",
          "target": "yanziji",
          "pinyin": "yanziji",
          "lat": 32.135663,
          "lon": 118.822185,
          "sequence": 30
        },
        {
          "id": "320100022330032",
          "stationId": "320100022330032",
          "nameZh": "笆斗山",
          "nameEn": "Ba Doushan",
          "target": "ba doushan",
          "pinyin": "badoushan",
          "lat": 32.143544,
          "lon": 118.830032,
          "sequence": 31
        },
        {
          "id": "320100022330033",
          "stationId": "320100022330033",
          "nameZh": "八卦洲大桥南",
          "nameEn": "Baguazhou Daqiao Nan",
          "target": "baguazhou daqiao nan",
          "pinyin": "baguazhoudaqiaonan",
          "lat": 32.145568,
          "lon": 118.842255,
          "sequence": 32
        }
      ],
      "segments": [
        [
          "320100022330002",
          "320100022330003",
          "320100022330004",
          "320100022330005",
          "320100022330006",
          "320100021571024",
          "320100022330008",
          "320100022330009",
          "320100022330010",
          "320100022330011",
          "320100022330012",
          "320100021307016",
          "320100022330014",
          "320100022330015",
          "320100022330016",
          "320100022330017",
          "320100022330018",
          "320100021571045",
          "320100022330020",
          "320100021495012",
          "320100022330022",
          "320100021293010",
          "320100022330024",
          "320100022330025",
          "320100021573021",
          "320100022330027",
          "320100022330028",
          "320100021299007",
          "320100022330030",
          "320100022330031",
          "320100022330032",
          "320100022330033"
        ]
      ]
    },
    {
      "id": "3201-S2",
      "operatorId": "3201",
      "operatorName": "南京地铁",
      "lineId": "S2",
      "lineName": "S2号线(宁马线)",
      "color": "#B85A4E",
      "loop": false,
      "stations": [
        {
          "id": "320100021299063",
          "stationId": "320100021299063",
          "nameZh": "西善桥",
          "nameEn": "Xishanqiao",
          "target": "xishanqiao",
          "pinyin": "xishanqiao",
          "lat": 31.947161,
          "lon": 118.690861,
          "sequence": 1
        },
        {
          "id": "900000169733006",
          "stationId": "900000169733006",
          "nameZh": "雨花经济开发区",
          "nameEn": "Yuhua Jingji Kaifaqu",
          "target": "yuhua jingji kaifaqu",
          "pinyin": "yuhuajingjikaifaqu",
          "lat": 31.925552,
          "lon": 118.665238,
          "sequence": 2
        },
        {
          "id": "900000169733007",
          "stationId": "900000169733007",
          "nameZh": "板桥",
          "nameEn": "Banqiao",
          "target": "banqiao",
          "pinyin": "banqiao",
          "lat": 31.907797,
          "lon": 118.640624,
          "sequence": 3
        },
        {
          "id": "900000169733009",
          "stationId": "900000169733009",
          "nameZh": "板桥南",
          "nameEn": "Banqiao Nan",
          "target": "banqiao nan",
          "pinyin": "banqiaonan",
          "lat": 31.889592,
          "lon": 118.622807,
          "sequence": 4
        },
        {
          "id": "900000169733010",
          "stationId": "900000169733010",
          "nameZh": "江宁镇",
          "nameEn": "Jiangningzhen",
          "target": "jiangningzhen",
          "pinyin": "jiangningzhen",
          "lat": 31.877279,
          "lon": 118.607214,
          "sequence": 5
        },
        {
          "id": "900000169733011",
          "stationId": "900000169733011",
          "nameZh": "江宁滨江开发区",
          "nameEn": "Jiangning Binjiang Kaifaqu",
          "target": "jiangning binjiang kaifaqu",
          "pinyin": "jiangningbinjiangkaifaqu",
          "lat": 31.855545,
          "lon": 118.590854,
          "sequence": 6
        },
        {
          "id": "900000169733021",
          "stationId": "900000169733021",
          "nameZh": "牧龙",
          "nameEn": "Mulong",
          "target": "mulong",
          "pinyin": "mulong",
          "lat": 31.839935,
          "lon": 118.578326,
          "sequence": 7
        },
        {
          "id": "900000169733012",
          "stationId": "900000169733012",
          "nameZh": "铜井",
          "nameEn": "Tongjing",
          "target": "tongjing",
          "pinyin": "tongjing",
          "lat": 31.807184,
          "lon": 118.555529,
          "sequence": 8
        },
        {
          "id": "900000169733013",
          "stationId": "900000169733013",
          "nameZh": "慈湖高新区",
          "nameEn": "Cihu Gaoxinqu",
          "target": "cihu gaoxinqu",
          "pinyin": "cihugaoxinqu",
          "lat": 31.751324,
          "lon": 118.522871,
          "sequence": 9
        },
        {
          "id": "900000169733014",
          "stationId": "900000169733014",
          "nameZh": "湖北路·二中",
          "nameEn": "Hubei Lu Erzhong",
          "target": "hubei lu erzhong",
          "pinyin": "hubeiluerzhong",
          "lat": 31.699989,
          "lon": 118.523499,
          "sequence": 10
        },
        {
          "id": "900000169733015",
          "stationId": "900000169733015",
          "nameZh": "湖南路·安工大",
          "nameEn": "Hunanlu Angongda",
          "target": "hunanlu angongda",
          "pinyin": "hunanluangongda",
          "lat": 31.682082,
          "lon": 118.523523,
          "sequence": 11
        },
        {
          "id": "900000169733016",
          "stationId": "900000169733016",
          "nameZh": "雨山东路",
          "nameEn": "Yushan Donglu",
          "target": "yushan donglu",
          "pinyin": "yushandonglu",
          "lat": 31.671728,
          "lon": 118.523583,
          "sequence": 12
        },
        {
          "id": "900000169733017",
          "stationId": "900000169733017",
          "nameZh": "阳湖",
          "nameEn": "Yanghu",
          "target": "yanghu",
          "pinyin": "yanghu",
          "lat": 31.650263,
          "lon": 118.523484,
          "sequence": 13
        },
        {
          "id": "900000169733018",
          "stationId": "900000169733018",
          "nameZh": "马鞍山经开区",
          "nameEn": "Maanshan Jingkaiqu",
          "target": "maanshan jingkaiqu",
          "pinyin": "maanshanjingkaiqu",
          "lat": 31.625955,
          "lon": 118.523011,
          "sequence": 14
        },
        {
          "id": "900000169733019",
          "stationId": "900000169733019",
          "nameZh": "姑孰",
          "nameEn": "Gushu",
          "target": "gushu",
          "pinyin": "gushu",
          "lat": 31.55844,
          "lon": 118.52449,
          "sequence": 15
        },
        {
          "id": "900000169733020",
          "stationId": "900000169733020",
          "nameZh": "太白",
          "nameEn": "Taibai",
          "target": "taibai",
          "pinyin": "taibai",
          "lat": 31.525312,
          "lon": 118.515414,
          "sequence": 16
        }
      ],
      "segments": [
        [
          "320100021299063",
          "900000169733006",
          "900000169733007",
          "900000169733009",
          "900000169733010",
          "900000169733011",
          "900000169733021",
          "900000169733012",
          "900000169733013",
          "900000169733014",
          "900000169733015",
          "900000169733016",
          "900000169733017",
          "900000169733018",
          "900000169733019",
          "900000169733020"
        ]
      ]
    },
    {
      "id": "3201-2",
      "operatorId": "3201",
      "operatorName": "南京地铁",
      "lineId": "2",
      "lineName": "2号线",
      "color": "#C5003E",
      "loop": false,
      "stations": [
        {
          "id": "320100021495028",
          "stationId": "320100021495028",
          "nameZh": "鱼嘴",
          "nameEn": "Yuzui",
          "target": "yuzui",
          "pinyin": "yuzui",
          "lat": 31.966803,
          "lon": 118.669413,
          "sequence": 1
        },
        {
          "id": "320100021495029",
          "stationId": "320100021495029",
          "nameZh": "天保街",
          "nameEn": "Tianbao Jie",
          "target": "tianbao jie",
          "pinyin": "tianbaojie",
          "lat": 31.965968,
          "lon": 118.678564,
          "sequence": 2
        },
        {
          "id": "320100021495030",
          "stationId": "320100021495030",
          "nameZh": "青莲街",
          "nameEn": "Qinglian Jie",
          "target": "qinglian jie",
          "pinyin": "qinglianjie",
          "lat": 31.962351,
          "lon": 118.691716,
          "sequence": 3
        },
        {
          "id": "320100021299062",
          "stationId": "320100021299062",
          "nameZh": "螺塘路",
          "nameEn": "Luotang Lu",
          "target": "luotang lu",
          "pinyin": "luotanglu",
          "lat": 31.961404,
          "lon": 118.7017,
          "sequence": 4
        },
        {
          "id": "320100021307011",
          "stationId": "320100021307011",
          "nameZh": "油坊桥",
          "nameEn": "Youfang Qiao",
          "target": "youfang qiao",
          "pinyin": "youfangqiao",
          "lat": 31.966454,
          "lon": 118.721361,
          "sequence": 5
        },
        {
          "id": "320100021495003",
          "stationId": "320100021495003",
          "nameZh": "雨润大街",
          "nameEn": "Yurun Dajie",
          "target": "yurun dajie",
          "pinyin": "yurundajie",
          "lat": 31.983679,
          "lon": 118.722613,
          "sequence": 6
        },
        {
          "id": "320100021495004",
          "stationId": "320100021495004",
          "nameZh": "元通",
          "nameEn": "Yuan Tong",
          "target": "yuan tong",
          "pinyin": "yuantong",
          "lat": 31.995471,
          "lon": 118.721449,
          "sequence": 7
        },
        {
          "id": "320100021495005",
          "stationId": "320100021495005",
          "nameZh": "奥体东",
          "nameEn": "Ao Ti Dong",
          "target": "ao ti dong",
          "pinyin": "aotidong",
          "lat": 32.004581,
          "lon": 118.729234,
          "sequence": 8
        },
        {
          "id": "320100021495006",
          "stationId": "320100021495006",
          "nameZh": "兴隆大街",
          "nameEn": "Xing Long Da Jie",
          "target": "xing long da jie",
          "pinyin": "xinglongdajie",
          "lat": 32.015283,
          "lon": 118.735943,
          "sequence": 9
        },
        {
          "id": "320100021495007",
          "stationId": "320100021495007",
          "nameZh": "集庆门大街",
          "nameEn": "Ji Qing Men Da Jie",
          "target": "ji qing men da jie",
          "pinyin": "jiqingmendajie",
          "lat": 32.028573,
          "lon": 118.73958,
          "sequence": 10
        },
        {
          "id": "320100021495008",
          "stationId": "320100021495008",
          "nameZh": "云锦路",
          "nameEn": "Yun Jin Lu",
          "target": "yun jin lu",
          "pinyin": "yunjinlu",
          "lat": 32.034912,
          "lon": 118.747323,
          "sequence": 11
        },
        {
          "id": "320100021299052",
          "stationId": "320100021299052",
          "nameZh": "莫愁湖",
          "nameEn": "Mochouhu",
          "target": "mochouhu",
          "pinyin": "mochouhu",
          "lat": 32.037428,
          "lon": 118.759568,
          "sequence": 12
        },
        {
          "id": "320100021495010",
          "stationId": "320100021495010",
          "nameZh": "汉中门",
          "nameEn": "Han Zhong Men",
          "target": "han zhong men",
          "pinyin": "hanzhongmen",
          "lat": 32.042784,
          "lon": 118.766962,
          "sequence": 13
        },
        {
          "id": "320100021495011",
          "stationId": "320100021495011",
          "nameZh": "上海路",
          "nameEn": "Shanghailu",
          "target": "shanghailu",
          "pinyin": "shanghailu",
          "lat": 32.04228,
          "lon": 118.776208,
          "sequence": 14
        },
        {
          "id": "320100021495012",
          "stationId": "320100021495012",
          "nameZh": "新街口",
          "nameEn": "Xin Jie Kou",
          "target": "xin jie kou",
          "pinyin": "xinjiekou",
          "lat": 32.041806,
          "lon": 118.784136,
          "sequence": 15
        },
        {
          "id": "320100021495013",
          "stationId": "320100021495013",
          "nameZh": "大行宫",
          "nameEn": "Da Xing Gong",
          "target": "da xing gong",
          "pinyin": "daxinggong",
          "lat": 32.041717,
          "lon": 118.794748,
          "sequence": 16
        },
        {
          "id": "320100021495014",
          "stationId": "320100021495014",
          "nameZh": "西安门·浦发银行",
          "nameEn": "Xianmen Pufa Yinhang",
          "target": "xianmen pufa yinhang",
          "pinyin": "xianmenpufayinhang",
          "lat": 32.040108,
          "lon": 118.805761,
          "sequence": 17
        },
        {
          "id": "320100021495015",
          "stationId": "320100021495015",
          "nameZh": "明故宫",
          "nameEn": "Ming Gu Gong",
          "target": "ming gu gong",
          "pinyin": "minggugong",
          "lat": 32.039218,
          "lon": 118.819746,
          "sequence": 18
        },
        {
          "id": "320100021495016",
          "stationId": "320100021495016",
          "nameZh": "苜蓿园",
          "nameEn": "Mu Xu Yuan",
          "target": "mu xu yuan",
          "pinyin": "muxuyuan",
          "lat": 32.040239,
          "lon": 118.83531,
          "sequence": 19
        },
        {
          "id": "320100021495017",
          "stationId": "320100021495017",
          "nameZh": "中山陵·下马坊",
          "nameEn": "Zhongshan Ling Xiamafang",
          "target": "zhongshan ling xiamafang",
          "pinyin": "zhongshanlingxiamafang",
          "lat": 32.037578,
          "lon": 118.848373,
          "sequence": 20
        },
        {
          "id": "320100021495018",
          "stationId": "320100021495018",
          "nameZh": "中山陵音乐台·孝陵卫",
          "nameEn": "Zhongshan Ling Yinyuetai Xiaolingwei",
          "target": "zhongshan ling yinyuetai xiaolingwei",
          "pinyin": "zhongshanlingyinyuetaixiaolingwei",
          "lat": 32.035416,
          "lon": 118.858058,
          "sequence": 21
        },
        {
          "id": "320100021495019",
          "stationId": "320100021495019",
          "nameZh": "灵谷寺·钟灵街",
          "nameEn": "Linggusi Zhongling Jie",
          "target": "linggusi zhongling jie",
          "pinyin": "linggusizhonglingjie",
          "lat": 32.039146,
          "lon": 118.869395,
          "sequence": 22
        },
        {
          "id": "320100021313002",
          "stationId": "320100021313002",
          "nameZh": "马群",
          "nameEn": "Maqun",
          "target": "maqun",
          "pinyin": "maqun",
          "lat": 32.049649,
          "lon": 118.894721,
          "sequence": 23
        },
        {
          "id": "320100021293017",
          "stationId": "320100021293017",
          "nameZh": "金马路",
          "nameEn": "Jin Ma Lu",
          "target": "jin ma lu",
          "pinyin": "jinmalu",
          "lat": 32.071699,
          "lon": 118.906348,
          "sequence": 24
        },
        {
          "id": "320100021495022",
          "stationId": "320100021495022",
          "nameZh": "仙鹤门",
          "nameEn": "Xian He Men",
          "target": "xian he men",
          "pinyin": "xianhemen",
          "lat": 32.084898,
          "lon": 118.904893,
          "sequence": 25
        },
        {
          "id": "320100021495023",
          "stationId": "320100021495023",
          "nameZh": "学则路",
          "nameEn": "Xue Ze Lu",
          "target": "xue ze lu",
          "pinyin": "xuezelu",
          "lat": 32.09128,
          "lon": 118.916778,
          "sequence": 26
        },
        {
          "id": "320100021495024",
          "stationId": "320100021495024",
          "nameZh": "仙林中心",
          "nameEn": "Xian Lin Zhong Xin",
          "target": "xian lin zhong xin",
          "pinyin": "xianlinzhongxin",
          "lat": 32.098725,
          "lon": 118.930524,
          "sequence": 27
        },
        {
          "id": "320100021495025",
          "stationId": "320100021495025",
          "nameZh": "中医药大学·羊山公园",
          "nameEn": "Zhongyiyao Daxue Yangshan Gongyuan",
          "target": "zhongyiyao daxue yangshan gongyuan",
          "pinyin": "zhongyiyaodaxueyangshangongyuan",
          "lat": 32.1038,
          "lon": 118.939971,
          "sequence": 28
        },
        {
          "id": "320100021495026",
          "stationId": "320100021495026",
          "nameZh": "南大仙林校区",
          "nameEn": "Nan Da Xian Lin Xiao Qu",
          "target": "nan da xian lin xiao qu",
          "pinyin": "nandaxianlinxiaoqu",
          "lat": 32.108763,
          "lon": 118.95951,
          "sequence": 29
        },
        {
          "id": "320100021495027",
          "stationId": "320100021495027",
          "nameZh": "经天路",
          "nameEn": "Jing Tian Lu",
          "target": "jing tian lu",
          "pinyin": "jingtianlu",
          "lat": 32.116151,
          "lon": 118.976654,
          "sequence": 30
        }
      ],
      "segments": [
        [
          "320100021495028",
          "320100021495029",
          "320100021495030",
          "320100021299062",
          "320100021307011",
          "320100021495003",
          "320100021495004",
          "320100021495005",
          "320100021495006",
          "320100021495007",
          "320100021495008",
          "320100021299052",
          "320100021495010",
          "320100021495011",
          "320100021495012",
          "320100021495013",
          "320100021495014",
          "320100021495015",
          "320100021495016",
          "320100021495017",
          "320100021495018",
          "320100021495019",
          "320100021313002",
          "320100021293017",
          "320100021495022",
          "320100021495023",
          "320100021495024",
          "320100021495025",
          "320100021495026",
          "320100021495027"
        ]
      ]
    },
    {
      "id": "3201-S3",
      "operatorId": "3201",
      "operatorName": "南京地铁",
      "lineId": "S3",
      "lineName": "S3号线(宁和线)",
      "color": "#B97CAF",
      "loop": false,
      "stations": [
        {
          "id": "320100021307017",
          "stationId": "320100021307017",
          "nameZh": "高家冲",
          "nameEn": "Gaojiachong",
          "target": "gaojiachong",
          "pinyin": "gaojiachong",
          "lat": 31.909242,
          "lon": 118.517253,
          "sequence": 1
        },
        {
          "id": "320100021307018",
          "stationId": "320100021307018",
          "nameZh": "林山",
          "nameEn": "Linshan",
          "target": "linshan",
          "pinyin": "linshan",
          "lat": 31.918826,
          "lon": 118.531084,
          "sequence": 2
        },
        {
          "id": "320100021307019",
          "stationId": "320100021307019",
          "nameZh": "桥林新城",
          "nameEn": "Qiaolin Xincheng",
          "target": "qiaolin xincheng",
          "pinyin": "qiaolinxincheng",
          "lat": 31.929882,
          "lon": 118.547446,
          "sequence": 3
        },
        {
          "id": "320100021307020",
          "stationId": "320100021307020",
          "nameZh": "石碛河",
          "nameEn": "Shiqihe",
          "target": "shiqihe",
          "pinyin": "shiqihe",
          "lat": 31.938032,
          "lon": 118.558049,
          "sequence": 4
        },
        {
          "id": "320100021307002",
          "stationId": "320100021307002",
          "nameZh": "双垅",
          "nameEn": "Shuanglong",
          "target": "shuanglong",
          "pinyin": "shuanglong",
          "lat": 31.948288,
          "lon": 118.567483,
          "sequence": 5
        },
        {
          "id": "320100021307003",
          "stationId": "320100021307003",
          "nameZh": "兰花塘",
          "nameEn": "Lanhuatang",
          "target": "lanhuatang",
          "pinyin": "lanhuatang",
          "lat": 31.95826,
          "lon": 118.574859,
          "sequence": 6
        },
        {
          "id": "320100021307004",
          "stationId": "320100021307004",
          "nameZh": "马骡圩",
          "nameEn": "Maluowei",
          "target": "maluowei",
          "pinyin": "maluowei",
          "lat": 31.97315,
          "lon": 118.58838,
          "sequence": 7
        },
        {
          "id": "320100021307005",
          "stationId": "320100021307005",
          "nameZh": "刘村·弘阳家居博览中心",
          "nameEn": "Liucun Hongyang Jiaju Bolan Zhongxin",
          "target": "liucun hongyang jiaju bolan zhongxin",
          "pinyin": "liucunhongyangjiajubolanzhongxin",
          "lat": 31.944342,
          "lon": 118.665113,
          "sequence": 8
        },
        {
          "id": "320100021307006",
          "stationId": "320100021307006",
          "nameZh": "天保",
          "nameEn": "Tianbao",
          "target": "tianbao",
          "pinyin": "tianbao",
          "lat": 31.953164,
          "lon": 118.67741,
          "sequence": 9
        },
        {
          "id": "320100021307007",
          "stationId": "320100021307007",
          "nameZh": "高庙路",
          "nameEn": "Gaomiao Lu",
          "target": "gaomiao lu",
          "pinyin": "gaomiaolu",
          "lat": 31.968334,
          "lon": 118.688338,
          "sequence": 10
        },
        {
          "id": "320100021307008",
          "stationId": "320100021307008",
          "nameZh": "吴侯街",
          "nameEn": "Wuhou Jie",
          "target": "wuhou jie",
          "pinyin": "wuhoujie",
          "lat": 31.975465,
          "lon": 118.693035,
          "sequence": 11
        },
        {
          "id": "320100021307009",
          "stationId": "320100021307009",
          "nameZh": "平良大街",
          "nameEn": "Pingliang Dajie",
          "target": "pingliang dajie",
          "pinyin": "pingliangdajie",
          "lat": 31.97783,
          "lon": 118.702696,
          "sequence": 12
        },
        {
          "id": "320100021307010",
          "stationId": "320100021307010",
          "nameZh": "永初路",
          "nameEn": "Yongchu Lu",
          "target": "yongchu lu",
          "pinyin": "yongchulu",
          "lat": 31.974264,
          "lon": 118.712185,
          "sequence": 13
        },
        {
          "id": "320100021307011",
          "stationId": "320100021307011",
          "nameZh": "油坊桥",
          "nameEn": "Youfang Qiao",
          "target": "youfang qiao",
          "pinyin": "youfangqiao",
          "lat": 31.966454,
          "lon": 118.721361,
          "sequence": 14
        },
        {
          "id": "320100021307012",
          "stationId": "320100021307012",
          "nameZh": "贾西",
          "nameEn": "Jia Xi",
          "target": "jia xi",
          "pinyin": "jiaxi",
          "lat": 31.959242,
          "lon": 118.734119,
          "sequence": 15
        },
        {
          "id": "320100021307013",
          "stationId": "320100021307013",
          "nameZh": "春江路",
          "nameEn": "Chun Jiang Lu",
          "target": "chun jiang lu",
          "pinyin": "chunjianglu",
          "lat": 31.962385,
          "lon": 118.748257,
          "sequence": 16
        },
        {
          "id": "320100021307014",
          "stationId": "320100021307014",
          "nameZh": "铁心桥",
          "nameEn": "Tie Xin Qiao",
          "target": "tie xin qiao",
          "pinyin": "tiexinqiao",
          "lat": 31.964416,
          "lon": 118.763796,
          "sequence": 17
        },
        {
          "id": "320100021307015",
          "stationId": "320100021307015",
          "nameZh": "景明佳园",
          "nameEn": "Jing Ming Jia Yuan",
          "target": "jing ming jia yuan",
          "pinyin": "jingmingjiayuan",
          "lat": 31.962302,
          "lon": 118.77869,
          "sequence": 18
        },
        {
          "id": "320100021307016",
          "stationId": "320100021307016",
          "nameZh": "南京南站",
          "nameEn": "Nan Jing Nan Zhan",
          "target": "nan jing nan zhan",
          "pinyin": "nanjingnanzhan",
          "lat": 31.970968,
          "lon": 118.796786,
          "sequence": 19
        }
      ],
      "segments": [
        [
          "320100021307017",
          "320100021307018",
          "320100021307019",
          "320100021307020",
          "320100021307002",
          "320100021307003",
          "320100021307004",
          "320100021307005",
          "320100021307006",
          "320100021307007",
          "320100021307008",
          "320100021307009",
          "320100021307010",
          "320100021307011",
          "320100021307012",
          "320100021307013",
          "320100021307014",
          "320100021307015",
          "320100021307016"
        ]
      ]
    },
    {
      "id": "3201-3",
      "operatorId": "3201",
      "operatorName": "南京地铁",
      "lineId": "3",
      "lineName": "3号线",
      "color": "#018237",
      "loop": false,
      "stations": [
        {
          "id": "320100021573045",
          "stationId": "320100021573045",
          "nameZh": "秣陵",
          "nameEn": "Moling",
          "target": "moling",
          "pinyin": "moling",
          "lat": 31.840852,
          "lon": 118.835397,
          "sequence": 1
        },
        {
          "id": "320100021573046",
          "stationId": "320100021573046",
          "nameZh": "上秦淮西",
          "nameEn": "Shangqin Huaixi",
          "target": "shangqin huaixi",
          "pinyin": "shangqinhuaixi",
          "lat": 31.850101,
          "lon": 118.836286,
          "sequence": 2
        },
        {
          "id": "320100021573030",
          "stationId": "320100021573030",
          "nameZh": "秣周东路",
          "nameEn": "Mo Zhou Dong Lu",
          "target": "mo zhou dong lu",
          "pinyin": "mozhoudonglu",
          "lat": 31.868977,
          "lon": 118.831022,
          "sequence": 3
        },
        {
          "id": "320100021573031",
          "stationId": "320100021573031",
          "nameZh": "东大九龙湖校区",
          "nameEn": "Dong Da Jiu Long Hu Xiao Qu",
          "target": "dong da jiu long hu xiao qu",
          "pinyin": "dongdajiulonghuxiaoqu",
          "lat": 31.896037,
          "lon": 118.83045,
          "sequence": 4
        },
        {
          "id": "320100021573003",
          "stationId": "320100021573003",
          "nameZh": "诚信大道",
          "nameEn": "Cheng Xin Da Dao",
          "target": "cheng xin da dao",
          "pinyin": "chengxindadao",
          "lat": 31.907714,
          "lon": 118.829894,
          "sequence": 5
        },
        {
          "id": "320100021573032",
          "stationId": "320100021573032",
          "nameZh": "九龙湖",
          "nameEn": "Jiu Long Hu",
          "target": "jiu long hu",
          "pinyin": "jiulonghu",
          "lat": 31.916035,
          "lon": 118.821222,
          "sequence": 6
        },
        {
          "id": "320100021573005",
          "stationId": "320100021573005",
          "nameZh": "天元西路",
          "nameEn": "Tian Yuan Xi Lu",
          "target": "tian yuan xi lu",
          "pinyin": "tianyuanxilu",
          "lat": 31.927697,
          "lon": 118.808591,
          "sequence": 7
        },
        {
          "id": "320100021573006",
          "stationId": "320100021573006",
          "nameZh": "胜太西路",
          "nameEn": "Sheng Tai Xi Lu",
          "target": "sheng tai xi lu",
          "pinyin": "shengtaixilu",
          "lat": 31.943772,
          "lon": 118.807434,
          "sequence": 8
        },
        {
          "id": "320100021573008",
          "stationId": "320100021573008",
          "nameZh": "宏运大道",
          "nameEn": "Hong Yun Da Dao",
          "target": "hong yun da dao",
          "pinyin": "hongyundadao",
          "lat": 31.959557,
          "lon": 118.803736,
          "sequence": 9
        },
        {
          "id": "320100021307016",
          "stationId": "320100021307016",
          "nameZh": "南京南站",
          "nameEn": "Nan Jing Nan Zhan",
          "target": "nan jing nan zhan",
          "pinyin": "nanjingnanzhan",
          "lat": 31.970968,
          "lon": 118.796786,
          "sequence": 10
        },
        {
          "id": "320100021573034",
          "stationId": "320100021573034",
          "nameZh": "明发广场",
          "nameEn": "Ming Fa Guang Chang",
          "target": "ming fa guang chang",
          "pinyin": "mingfaguangchang",
          "lat": 31.97705,
          "lon": 118.800512,
          "sequence": 11
        },
        {
          "id": "320100021573011",
          "stationId": "320100021573011",
          "nameZh": "大明路",
          "nameEn": "Da Ming Lu",
          "target": "da ming lu",
          "pinyin": "daminglu",
          "lat": 31.986114,
          "lon": 118.799624,
          "sequence": 12
        },
        {
          "id": "320100021573012",
          "stationId": "320100021573012",
          "nameZh": "卡子门",
          "nameEn": "Kazimen",
          "target": "kazimen",
          "pinyin": "kazimen",
          "lat": 31.994818,
          "lon": 118.796879,
          "sequence": 13
        },
        {
          "id": "320100021573013",
          "stationId": "320100021573013",
          "nameZh": "雨花门",
          "nameEn": "Yu Hua Men",
          "target": "yu hua men",
          "pinyin": "yuhuamen",
          "lat": 32.003779,
          "lon": 118.792454,
          "sequence": 14
        },
        {
          "id": "320100021573035",
          "stationId": "320100021573035",
          "nameZh": "武定门",
          "nameEn": "Wu Ding Men",
          "target": "wu ding men",
          "pinyin": "wudingmen",
          "lat": 32.013747,
          "lon": 118.794632,
          "sequence": 15
        },
        {
          "id": "320100021571046",
          "stationId": "320100021571046",
          "nameZh": "夫子庙",
          "nameEn": "Fuzimiao",
          "target": "fuzimiao",
          "pinyin": "fuzimiao",
          "lat": 32.023567,
          "lon": 118.791072,
          "sequence": 16
        },
        {
          "id": "320100021573016",
          "stationId": "320100021573016",
          "nameZh": "常府街",
          "nameEn": "Chang Fu Jie",
          "target": "chang fu jie",
          "pinyin": "changfujie",
          "lat": 32.033401,
          "lon": 118.792317,
          "sequence": 17
        },
        {
          "id": "320100021495013",
          "stationId": "320100021495013",
          "nameZh": "大行宫",
          "nameEn": "Da Xing Gong",
          "target": "da xing gong",
          "pinyin": "daxinggong",
          "lat": 32.041717,
          "lon": 118.794748,
          "sequence": 18
        },
        {
          "id": "320100021573018",
          "stationId": "320100021573018",
          "nameZh": "浮桥",
          "nameEn": "Fu Qiao",
          "target": "fu qiao",
          "pinyin": "fuqiao",
          "lat": 32.04866,
          "lon": 118.796107,
          "sequence": 19
        },
        {
          "id": "320100021293011",
          "stationId": "320100021293011",
          "nameZh": "鸡鸣寺",
          "nameEn": "Ji Ming Si",
          "target": "ji ming si",
          "pinyin": "jimingsi",
          "lat": 32.057266,
          "lon": 118.798082,
          "sequence": 20
        },
        {
          "id": "320100021573037",
          "stationId": "320100021573037",
          "nameZh": "南京林业大学·新庄",
          "nameEn": "Nan Jing Lin Ye Da Xue ? Xin Zhuang",
          "target": "nan jing lin ye da xue xin zhuang",
          "pinyin": "nanjinglinyedaxuexinzhuang",
          "lat": 32.076407,
          "lon": 118.810407,
          "sequence": 21
        },
        {
          "id": "320100021573021",
          "stationId": "320100021573021",
          "nameZh": "南京站",
          "nameEn": "Nan Jing Zhan",
          "target": "nan jing zhan",
          "pinyin": "nanjingzhan",
          "lat": 32.089322,
          "lon": 118.796509,
          "sequence": 22
        },
        {
          "id": "320100021573038",
          "stationId": "320100021573038",
          "nameZh": "小市",
          "nameEn": "Xiao Shi",
          "target": "xiao shi",
          "pinyin": "xiaoshi",
          "lat": 32.094998,
          "lon": 118.785737,
          "sequence": 23
        },
        {
          "id": "320100021299009",
          "stationId": "320100021299009",
          "nameZh": "五塘广场",
          "nameEn": "Wutang Guangchang",
          "target": "wutang guangchang",
          "pinyin": "wutangguangchang",
          "lat": 32.1105,
          "lon": 118.777688,
          "sequence": 24
        },
        {
          "id": "320100021573040",
          "stationId": "320100021573040",
          "nameZh": "上元门",
          "nameEn": "Shang Yuan Men",
          "target": "shang yuan men",
          "pinyin": "shangyuanmen",
          "lat": 32.115477,
          "lon": 118.769936,
          "sequence": 25
        },
        {
          "id": "320100021573041",
          "stationId": "320100021573041",
          "nameZh": "柳洲东路",
          "nameEn": "Liu Zhou Dong Lu",
          "target": "liu zhou dong lu",
          "pinyin": "liuzhoudonglu",
          "lat": 32.139965,
          "lon": 118.746237,
          "sequence": 26
        },
        {
          "id": "320100021573042",
          "stationId": "320100021573042",
          "nameZh": "天润城",
          "nameEn": "Tian Run Cheng",
          "target": "tian run cheng",
          "pinyin": "tianruncheng",
          "lat": 32.150854,
          "lon": 118.734078,
          "sequence": 27
        },
        {
          "id": "320100021573027",
          "stationId": "320100021573027",
          "nameZh": "泰冯路",
          "nameEn": "Tai Feng Lu",
          "target": "tai feng lu",
          "pinyin": "taifenglu",
          "lat": 32.153685,
          "lon": 118.719024,
          "sequence": 28
        },
        {
          "id": "320100021573043",
          "stationId": "320100021573043",
          "nameZh": "东大成贤学院",
          "nameEn": "Dong Da Cheng Xian Xue Yuan",
          "target": "dong da cheng xian xue yuan",
          "pinyin": "dongdachengxianxueyuan",
          "lat": 32.156194,
          "lon": 118.707864,
          "sequence": 29
        },
        {
          "id": "320100021573044",
          "stationId": "320100021573044",
          "nameZh": "星火路",
          "nameEn": "Xing Huo Lu",
          "target": "xing huo lu",
          "pinyin": "xinghuolu",
          "lat": 32.157273,
          "lon": 118.696577,
          "sequence": 30
        },
        {
          "id": "320100021573029",
          "stationId": "320100021573029",
          "nameZh": "林场",
          "nameEn": "Lin Chang",
          "target": "lin chang",
          "pinyin": "linchang",
          "lat": 32.163563,
          "lon": 118.671334,
          "sequence": 31
        }
      ],
      "segments": [
        [
          "320100021573045",
          "320100021573046",
          "320100021573030",
          "320100021573031",
          "320100021573003",
          "320100021573032",
          "320100021573005",
          "320100021573006",
          "320100021573008",
          "320100021307016",
          "320100021573034",
          "320100021573011",
          "320100021573012",
          "320100021573013",
          "320100021573035",
          "320100021571046",
          "320100021573016",
          "320100021495013",
          "320100021573018",
          "320100021293011",
          "320100021573037",
          "320100021573021",
          "320100021573038",
          "320100021299009",
          "320100021573040",
          "320100021573041",
          "320100021573042",
          "320100021573027",
          "320100021573043",
          "320100021573044",
          "320100021573029"
        ]
      ]
    },
    {
      "id": "3201-4",
      "operatorId": "3201",
      "operatorName": "南京地铁",
      "lineId": "4",
      "lineName": "4号线",
      "color": "#786DAF",
      "loop": false,
      "stations": [
        {
          "id": "320100021293002",
          "stationId": "320100021293002",
          "nameZh": "龙江",
          "nameEn": "Long Jiang",
          "target": "long jiang",
          "pinyin": "longjiang",
          "lat": 32.057926,
          "lon": 118.73805,
          "sequence": 1
        },
        {
          "id": "320100021293003",
          "stationId": "320100021293003",
          "nameZh": "草场门",
          "nameEn": "Caochangmen",
          "target": "caochangmen",
          "pinyin": "caochangmen",
          "lat": 32.060416,
          "lon": 118.755699,
          "sequence": 2
        },
        {
          "id": "320100021293009",
          "stationId": "320100021293009",
          "nameZh": "云南路",
          "nameEn": "Yunnan Lu",
          "target": "yunnan lu",
          "pinyin": "yunnanlu",
          "lat": 32.060115,
          "lon": 118.77454,
          "sequence": 3
        },
        {
          "id": "320100021293010",
          "stationId": "320100021293010",
          "nameZh": "鼓楼",
          "nameEn": "Gu Lou",
          "target": "gu lou",
          "pinyin": "gulou",
          "lat": 32.058958,
          "lon": 118.783724,
          "sequence": 4
        },
        {
          "id": "320100021293011",
          "stationId": "320100021293011",
          "nameZh": "鸡鸣寺",
          "nameEn": "Ji Ming Si",
          "target": "ji ming si",
          "pinyin": "jimingsi",
          "lat": 32.057266,
          "lon": 118.798082,
          "sequence": 5
        },
        {
          "id": "320100021293012",
          "stationId": "320100021293012",
          "nameZh": "九华山",
          "nameEn": "Jiu Hua Shan",
          "target": "jiu hua shan",
          "pinyin": "jiuhuashan",
          "lat": 32.057314,
          "lon": 118.806,
          "sequence": 6
        },
        {
          "id": "320100021293013",
          "stationId": "320100021293013",
          "nameZh": "岗子村",
          "nameEn": "Gang Zi Cun",
          "target": "gang zi cun",
          "pinyin": "gangzicun",
          "lat": 32.065352,
          "lon": 118.81602,
          "sequence": 7
        },
        {
          "id": "320100021293014",
          "stationId": "320100021293014",
          "nameZh": "蒋王庙",
          "nameEn": "Jiang Wang Miao",
          "target": "jiang wang miao",
          "pinyin": "jiangwangmiao",
          "lat": 32.077536,
          "lon": 118.831148,
          "sequence": 8
        },
        {
          "id": "320100021293015",
          "stationId": "320100021293015",
          "nameZh": "王家湾",
          "nameEn": "Wang Jia Wan",
          "target": "wang jia wan",
          "pinyin": "wangjiawan",
          "lat": 32.085254,
          "lon": 118.837921,
          "sequence": 9
        },
        {
          "id": "320100021293023",
          "stationId": "320100021293023",
          "nameZh": "聚宝山",
          "nameEn": "Ju Bao Shan",
          "target": "ju bao shan",
          "pinyin": "jubaoshan",
          "lat": 32.093858,
          "lon": 118.864212,
          "sequence": 10
        },
        {
          "id": "320100021293016",
          "stationId": "320100021293016",
          "nameZh": "徐庄·苏宁总部",
          "nameEn": "Xu Zhuang ? Su Ning Zong Bu",
          "target": "xu zhuang su ning zong bu",
          "pinyin": "xuzhuangsuningzongbu",
          "lat": 32.084861,
          "lon": 118.889679,
          "sequence": 11
        },
        {
          "id": "320100021293017",
          "stationId": "320100021293017",
          "nameZh": "金马路",
          "nameEn": "Jin Ma Lu",
          "target": "jin ma lu",
          "pinyin": "jinmalu",
          "lat": 32.071699,
          "lon": 118.906348,
          "sequence": 12
        },
        {
          "id": "320100021293024",
          "stationId": "320100021293024",
          "nameZh": "汇通路",
          "nameEn": "Hui Tong Lu",
          "target": "hui tong lu",
          "pinyin": "huitonglu",
          "lat": 32.078018,
          "lon": 118.931631,
          "sequence": 13
        },
        {
          "id": "320100021293018",
          "stationId": "320100021293018",
          "nameZh": "灵山",
          "nameEn": "Ling Shan",
          "target": "ling shan",
          "pinyin": "lingshan",
          "lat": 32.077698,
          "lon": 118.943672,
          "sequence": 14
        },
        {
          "id": "320100021293019",
          "stationId": "320100021293019",
          "nameZh": "东流",
          "nameEn": "Dong Liu",
          "target": "dong liu",
          "pinyin": "dongliu",
          "lat": 32.077111,
          "lon": 118.96547,
          "sequence": 15
        },
        {
          "id": "320100021293020",
          "stationId": "320100021293020",
          "nameZh": "孟北",
          "nameEn": "Meng Bei",
          "target": "meng bei",
          "pinyin": "mengbei",
          "lat": 32.084468,
          "lon": 118.98724,
          "sequence": 16
        },
        {
          "id": "320100021293021",
          "stationId": "320100021293021",
          "nameZh": "西岗桦墅",
          "nameEn": "Xi Gang Hua Shu",
          "target": "xi gang hua shu",
          "pinyin": "xiganghuashu",
          "lat": 32.098965,
          "lon": 118.996482,
          "sequence": 17
        },
        {
          "id": "320100021293022",
          "stationId": "320100021293022",
          "nameZh": "仙林湖",
          "nameEn": "Xian Lin Hu",
          "target": "xian lin hu",
          "pinyin": "xianlinhu",
          "lat": 32.125478,
          "lon": 118.992322,
          "sequence": 18
        }
      ],
      "segments": [
        [
          "320100021293002",
          "320100021293003",
          "320100021293009",
          "320100021293010",
          "320100021293011",
          "320100021293012",
          "320100021293013",
          "320100021293014",
          "320100021293015",
          "320100021293023",
          "320100021293016",
          "320100021293017",
          "320100021293024",
          "320100021293018",
          "320100021293019",
          "320100021293020",
          "320100021293021",
          "320100021293022"
        ]
      ]
    },
    {
      "id": "3201-5",
      "operatorId": "3201",
      "operatorName": "南京地铁",
      "lineId": "5",
      "lineName": "5号线",
      "color": "#FCD600",
      "loop": false,
      "stations": [
        {
          "id": "320100021571030",
          "stationId": "320100021571030",
          "nameZh": "吉印大道",
          "nameEn": "Jiyin Dadao",
          "target": "jiyin dadao",
          "pinyin": "jiyindadao",
          "lat": 31.886166,
          "lon": 118.795507,
          "sequence": 1
        },
        {
          "id": "320100021571027",
          "stationId": "320100021571027",
          "nameZh": "九龙湖南",
          "nameEn": "Jiulong Hunan",
          "target": "jiulong hunan",
          "pinyin": "jiulonghunan",
          "lat": 31.892996,
          "lon": 118.80988,
          "sequence": 2
        },
        {
          "id": "320100021571026",
          "stationId": "320100021571026",
          "nameZh": "诚信大道",
          "nameEn": "Chengxin Dadao",
          "target": "chengxin dadao",
          "pinyin": "chengxindadao",
          "lat": 31.909256,
          "lon": 118.831717,
          "sequence": 3
        },
        {
          "id": "320100021571029",
          "stationId": "320100021571029",
          "nameZh": "前庄",
          "nameEn": "Qianzhuang",
          "target": "qianzhuang",
          "pinyin": "qianzhuang",
          "lat": 31.91044,
          "lon": 118.844315,
          "sequence": 4
        },
        {
          "id": "320100021571025",
          "stationId": "320100021571025",
          "nameZh": "科宁路",
          "nameEn": "Kening Lu",
          "target": "kening lu",
          "pinyin": "keninglu",
          "lat": 31.92435,
          "lon": 118.849277,
          "sequence": 5
        },
        {
          "id": "320100021571024",
          "stationId": "320100021571024",
          "nameZh": "竹山路",
          "nameEn": "Zhushan Lu",
          "target": "zhushan lu",
          "pinyin": "zhushanlu",
          "lat": 31.931472,
          "lon": 118.845716,
          "sequence": 6
        },
        {
          "id": "320100021571023",
          "stationId": "320100021571023",
          "nameZh": "新亭路",
          "nameEn": "Xinting Lu",
          "target": "xinting lu",
          "pinyin": "xintinglu",
          "lat": 31.94243,
          "lon": 118.845547,
          "sequence": 7
        },
        {
          "id": "320100021571022",
          "stationId": "320100021571022",
          "nameZh": "东山",
          "nameEn": "Dongshan",
          "target": "dongshan",
          "pinyin": "dongshan",
          "lat": 31.953461,
          "lon": 118.843825,
          "sequence": 8
        },
        {
          "id": "320100021571021",
          "stationId": "320100021571021",
          "nameZh": "文靖路",
          "nameEn": "Wenjing Lu",
          "target": "wenjing lu",
          "pinyin": "wenjinglu",
          "lat": 31.958314,
          "lon": 118.841695,
          "sequence": 9
        },
        {
          "id": "320100021571053",
          "stationId": "320100021571053",
          "nameZh": "东山香樟园",
          "nameEn": "Dongshan Xiangzhangyuan",
          "target": "dongshan xiangzhangyuan",
          "pinyin": "dongshanxiangzhangyuan",
          "lat": 31.971435,
          "lon": 118.839312,
          "sequence": 10
        },
        {
          "id": "320100021571052",
          "stationId": "320100021571052",
          "nameZh": "神机营",
          "nameEn": "Shenjiying",
          "target": "shenjiying",
          "pinyin": "shenjiying",
          "lat": 31.98841,
          "lon": 118.825698,
          "sequence": 11
        },
        {
          "id": "320100021571051",
          "stationId": "320100021571051",
          "nameZh": "大校场",
          "nameEn": "Dajiaochang",
          "target": "dajiaochang",
          "pinyin": "dajiaochang",
          "lat": 31.997965,
          "lon": 118.822552,
          "sequence": 12
        },
        {
          "id": "320100021571050",
          "stationId": "320100021571050",
          "nameZh": "七桥瓮",
          "nameEn": "Qiqiao Weng",
          "target": "qiqiao weng",
          "pinyin": "qiqiaoweng",
          "lat": 32.008765,
          "lon": 118.825353,
          "sequence": 13
        },
        {
          "id": "320100021571049",
          "stationId": "320100021571049",
          "nameZh": "石门坎",
          "nameEn": "Shimenkan",
          "target": "shimenkan",
          "pinyin": "shimenkan",
          "lat": 32.017169,
          "lon": 118.824782,
          "sequence": 14
        },
        {
          "id": "320100021297010",
          "stationId": "320100021297010",
          "nameZh": "光华门",
          "nameEn": "Guanghuamen",
          "target": "guanghuamen",
          "pinyin": "guanghuamen",
          "lat": 32.02349,
          "lon": 118.814737,
          "sequence": 15
        },
        {
          "id": "320100021571047",
          "stationId": "320100021571047",
          "nameZh": "通济门",
          "nameEn": "Tongjimen",
          "target": "tongjimen",
          "pinyin": "tongjimen",
          "lat": 32.025404,
          "lon": 118.805673,
          "sequence": 16
        },
        {
          "id": "320100021571046",
          "stationId": "320100021571046",
          "nameZh": "夫子庙",
          "nameEn": "Fuzimiao",
          "target": "fuzimiao",
          "pinyin": "fuzimiao",
          "lat": 32.023567,
          "lon": 118.791072,
          "sequence": 17
        },
        {
          "id": "320100021571045",
          "stationId": "320100021571045",
          "nameZh": "三山街",
          "nameEn": "Sanshan Jie",
          "target": "sanshan jie",
          "pinyin": "sanshanjie",
          "lat": 32.023021,
          "lon": 118.781583,
          "sequence": 18
        },
        {
          "id": "320100021571044",
          "stationId": "320100021571044",
          "nameZh": "朝天宫",
          "nameEn": "Chaotiangong",
          "target": "chaotiangong",
          "pinyin": "chaotiangong",
          "lat": 32.032495,
          "lon": 118.772954,
          "sequence": 19
        },
        {
          "id": "320100021495011",
          "stationId": "320100021495011",
          "nameZh": "上海路",
          "nameEn": "Shanghailu",
          "target": "shanghailu",
          "pinyin": "shanghailu",
          "lat": 32.04228,
          "lon": 118.776208,
          "sequence": 20
        },
        {
          "id": "320100021571042",
          "stationId": "320100021571042",
          "nameZh": "五台山",
          "nameEn": "Wutaishan",
          "target": "wutaishan",
          "pinyin": "wutaishan",
          "lat": 32.050428,
          "lon": 118.776234,
          "sequence": 21
        },
        {
          "id": "320100021293009",
          "stationId": "320100021293009",
          "nameZh": "云南路",
          "nameEn": "Yunnan Lu",
          "target": "yunnan lu",
          "pinyin": "yunnanlu",
          "lat": 32.060115,
          "lon": 118.77454,
          "sequence": 22
        },
        {
          "id": "320100021571040",
          "stationId": "320100021571040",
          "nameZh": "青春广场",
          "nameEn": "Qingchun Guangchang",
          "target": "qingchun guangchang",
          "pinyin": "qingchunguangchang",
          "lat": 32.068654,
          "lon": 118.772813,
          "sequence": 23
        },
        {
          "id": "320100021571039",
          "stationId": "320100021571039",
          "nameZh": "虹桥",
          "nameEn": "Hongqiao",
          "target": "hongqiao",
          "pinyin": "hongqiao",
          "lat": 32.075026,
          "lon": 118.765561,
          "sequence": 24
        },
        {
          "id": "320100021299048",
          "stationId": "320100021299048",
          "nameZh": "福建路",
          "nameEn": "Fujian Lu",
          "target": "fujian lu",
          "pinyin": "fujianlu",
          "lat": 32.079904,
          "lon": 118.759362,
          "sequence": 25
        },
        {
          "id": "320100021571037",
          "stationId": "320100021571037",
          "nameZh": "盐仓桥",
          "nameEn": "Yancang Qiao",
          "target": "yancang qiao",
          "pinyin": "yancangqiao",
          "lat": 32.085793,
          "lon": 118.752812,
          "sequence": 26
        },
        {
          "id": "320100021303008",
          "stationId": "320100021303008",
          "nameZh": "下关",
          "nameEn": "Xiaguan",
          "target": "xiaguan",
          "pinyin": "xiaguan",
          "lat": 32.086945,
          "lon": 118.743022,
          "sequence": 27
        },
        {
          "id": "320100021571035",
          "stationId": "320100021571035",
          "nameZh": "静海寺",
          "nameEn": "Jinghaisi",
          "target": "jinghaisi",
          "pinyin": "jinghaisi",
          "lat": 32.091991,
          "lon": 118.738048,
          "sequence": 28
        },
        {
          "id": "320100021571034",
          "stationId": "320100021571034",
          "nameZh": "南京西站",
          "nameEn": "Nanjing Xizhan",
          "target": "nanjing xizhan",
          "pinyin": "nanjingxizhan",
          "lat": 32.096106,
          "lon": 118.741442,
          "sequence": 29
        },
        {
          "id": "320100021571033",
          "stationId": "320100021571033",
          "nameZh": "方家营",
          "nameEn": "Fangjiaying",
          "target": "fangjiaying",
          "pinyin": "fangjiaying",
          "lat": 32.104228,
          "lon": 118.74732,
          "sequence": 30
        }
      ],
      "segments": [
        [
          "320100021571030",
          "320100021571027",
          "320100021571026",
          "320100021571029",
          "320100021571025",
          "320100021571024",
          "320100021571023",
          "320100021571022",
          "320100021571021",
          "320100021571053",
          "320100021571052",
          "320100021571051",
          "320100021571050",
          "320100021571049",
          "320100021297010",
          "320100021571047",
          "320100021571046",
          "320100021571045",
          "320100021571044",
          "320100021495011",
          "320100021571042",
          "320100021293009",
          "320100021571040",
          "320100021571039",
          "320100021299048",
          "320100021571037",
          "320100021303008",
          "320100021571035",
          "320100021571034",
          "320100021571033"
        ]
      ]
    },
    {
      "id": "3201-S6",
      "operatorId": "3201",
      "operatorName": "南京地铁",
      "lineId": "S6",
      "lineName": "S6号线(宁句线)",
      "color": "#C6AFD4",
      "loop": false,
      "stations": [
        {
          "id": "320100021313002",
          "stationId": "320100021313002",
          "nameZh": "马群",
          "nameEn": "Maqun",
          "target": "maqun",
          "pinyin": "maqun",
          "lat": 32.049649,
          "lon": 118.894721,
          "sequence": 1
        },
        {
          "id": "320100021313003",
          "stationId": "320100021313003",
          "nameZh": "百水桥",
          "nameEn": "Baishui Qiao",
          "target": "baishui qiao",
          "pinyin": "baishuiqiao",
          "lat": 32.053407,
          "lon": 118.915069,
          "sequence": 2
        },
        {
          "id": "320100021313008",
          "stationId": "320100021313008",
          "nameZh": "麒麟门",
          "nameEn": "Qilinmen",
          "target": "qilinmen",
          "pinyin": "qilinmen",
          "lat": 32.053061,
          "lon": 118.928506,
          "sequence": 3
        },
        {
          "id": "320100021313009",
          "stationId": "320100021313009",
          "nameZh": "东郊小镇",
          "nameEn": "Dongjiao Xiaozhen",
          "target": "dongjiao xiaozhen",
          "pinyin": "dongjiaoxiaozhen",
          "lat": 32.051792,
          "lon": 118.952496,
          "sequence": 4
        },
        {
          "id": "320100021313010",
          "stationId": "320100021313010",
          "nameZh": "古泉",
          "nameEn": "Guquan",
          "target": "guquan",
          "pinyin": "guquan",
          "lat": 32.049302,
          "lon": 119.009178,
          "sequence": 5
        },
        {
          "id": "320100021313011",
          "stationId": "320100021313011",
          "nameZh": "南京猿人洞",
          "nameEn": "Nanjing Yuanrendong",
          "target": "nanjing yuanrendong",
          "pinyin": "nanjingyuanrendong",
          "lat": 32.06142,
          "lon": 119.052783,
          "sequence": 6
        },
        {
          "id": "320100021313012",
          "stationId": "320100021313012",
          "nameZh": "汤山",
          "nameEn": "Tangshan",
          "target": "tangshan",
          "pinyin": "tangshan",
          "lat": 32.048019,
          "lon": 119.067994,
          "sequence": 7
        },
        {
          "id": "320100021313013",
          "stationId": "320100021313013",
          "nameZh": "泉都大街",
          "nameEn": "Quandu Dajie",
          "target": "quandu dajie",
          "pinyin": "quandudajie",
          "lat": 32.033838,
          "lon": 119.05207,
          "sequence": 8
        },
        {
          "id": "320100021313014",
          "stationId": "320100021313014",
          "nameZh": "黄梅",
          "nameEn": "Huangmei",
          "target": "huangmei",
          "pinyin": "huangmei",
          "lat": 32.008166,
          "lon": 119.116162,
          "sequence": 9
        },
        {
          "id": "320100021313004",
          "stationId": "320100021313004",
          "nameZh": "童世界",
          "nameEn": "Tongshijie",
          "target": "tongshijie",
          "pinyin": "tongshijie",
          "lat": 31.991834,
          "lon": 119.16386,
          "sequence": 10
        },
        {
          "id": "320100021313005",
          "stationId": "320100021313005",
          "nameZh": "华阳",
          "nameEn": "Huayang",
          "target": "huayang",
          "pinyin": "huayang",
          "lat": 31.972483,
          "lon": 119.180325,
          "sequence": 11
        },
        {
          "id": "320100021313006",
          "stationId": "320100021313006",
          "nameZh": "崇明",
          "nameEn": "Chongming",
          "target": "chongming",
          "pinyin": "chongming",
          "lat": 31.943552,
          "lon": 119.178839,
          "sequence": 12
        },
        {
          "id": "320100021313007",
          "stationId": "320100021313007",
          "nameZh": "句容",
          "nameEn": "Jurong",
          "target": "jurong",
          "pinyin": "jurong",
          "lat": 31.922918,
          "lon": 119.169944,
          "sequence": 13
        }
      ],
      "segments": [
        [
          "320100021313002",
          "320100021313003",
          "320100021313008",
          "320100021313009",
          "320100021313010",
          "320100021313011",
          "320100021313012",
          "320100021313013",
          "320100021313014",
          "320100021313004",
          "320100021313005",
          "320100021313006",
          "320100021313007"
        ]
      ]
    },
    {
      "id": "3201-S7",
      "operatorId": "3201",
      "operatorName": "南京地铁",
      "lineId": "S7",
      "lineName": "S7号线(宁溧线)",
      "color": "#E4A8A3",
      "loop": false,
      "stations": [
        {
          "id": "320100022467010",
          "stationId": "320100022467010",
          "nameZh": "空港新城江宁",
          "nameEn": "Kong Gang Xin Cheng Jiang Ning",
          "target": "kong gang xin cheng jiang ning",
          "pinyin": "konggangxinchengjiangning",
          "lat": 31.737687,
          "lon": 118.887659,
          "sequence": 1
        },
        {
          "id": "900000075073003",
          "stationId": "900000075073003",
          "nameZh": "柘塘",
          "nameEn": "Zhe Tang",
          "target": "zhe tang",
          "pinyin": "zhetang",
          "lat": 31.75674,
          "lon": 118.937897,
          "sequence": 2
        },
        {
          "id": "900000075073004",
          "stationId": "900000075073004",
          "nameZh": "空港新城溧水",
          "nameEn": "Kong Gang Xin Cheng Li Shui",
          "target": "kong gang xin cheng li shui",
          "pinyin": "konggangxinchenglishui",
          "lat": 31.733816,
          "lon": 118.98925,
          "sequence": 3
        },
        {
          "id": "900000075073005",
          "stationId": "900000075073005",
          "nameZh": "群力·鼓楼医院南部院区",
          "nameEn": "Qunli Gulou Yiyuan Nanbu Yuanqu",
          "target": "qunli gulou yiyuan nanbu yuanqu",
          "pinyin": "qunligulouyiyuannanbuyuanqu",
          "lat": 31.720852,
          "lon": 119.014396,
          "sequence": 4
        },
        {
          "id": "900000075073006",
          "stationId": "900000075073006",
          "nameZh": "卧龙湖",
          "nameEn": "Wo Long Hu",
          "target": "wo long hu",
          "pinyin": "wolonghu",
          "lat": 31.686304,
          "lon": 119.04329,
          "sequence": 5
        },
        {
          "id": "900000075073007",
          "stationId": "900000075073007",
          "nameZh": "溧水",
          "nameEn": "Li Shui",
          "target": "li shui",
          "pinyin": "lishui",
          "lat": 31.662243,
          "lon": 119.044582,
          "sequence": 6
        },
        {
          "id": "900000075073008",
          "stationId": "900000075073008",
          "nameZh": "中山湖",
          "nameEn": "Zhong Shan Hu",
          "target": "zhong shan hu",
          "pinyin": "zhongshanhu",
          "lat": 31.646761,
          "lon": 119.045275,
          "sequence": 7
        },
        {
          "id": "900000075073009",
          "stationId": "900000075073009",
          "nameZh": "幸庄",
          "nameEn": "Xing Zhuang",
          "target": "xing zhuang",
          "pinyin": "xingzhuang",
          "lat": 31.624602,
          "lon": 119.046113,
          "sequence": 8
        },
        {
          "id": "900000075073010",
          "stationId": "900000075073010",
          "nameZh": "无想山",
          "nameEn": "Wu Xiang Shan",
          "target": "wu xiang shan",
          "pinyin": "wuxiangshan",
          "lat": 31.611448,
          "lon": 119.046528,
          "sequence": 9
        }
      ],
      "segments": [
        [
          "320100022467010",
          "900000075073003",
          "900000075073004",
          "900000075073005",
          "900000075073006",
          "900000075073007",
          "900000075073008",
          "900000075073009",
          "900000075073010"
        ]
      ]
    },
    {
      "id": "3201-7",
      "operatorId": "3201",
      "operatorName": "南京地铁",
      "lineId": "7",
      "lineName": "7号线",
      "color": "#818530",
      "loop": false,
      "stations": [
        {
          "id": "320100021299002",
          "stationId": "320100021299002",
          "nameZh": "仙新路",
          "nameEn": "Xianxin Lu",
          "target": "xianxin lu",
          "pinyin": "xianxinlu",
          "lat": 32.126693,
          "lon": 118.895297,
          "sequence": 1
        },
        {
          "id": "320100021299003",
          "stationId": "320100021299003",
          "nameZh": "尧化门",
          "nameEn": "Yaohuamen",
          "target": "yaohuamen",
          "pinyin": "yaohuamen",
          "lat": 32.122306,
          "lon": 118.887247,
          "sequence": 2
        },
        {
          "id": "320100021299004",
          "stationId": "320100021299004",
          "nameZh": "尧化新村",
          "nameEn": "Yaohua Xincun",
          "target": "yaohua xincun",
          "pinyin": "yaohuaxincun",
          "lat": 32.115239,
          "lon": 118.875715,
          "sequence": 3
        },
        {
          "id": "320100021299027",
          "stationId": "320100021299027",
          "nameZh": "丁家庄南",
          "nameEn": "Dingjiazhuang Nan",
          "target": "dingjiazhuang nan",
          "pinyin": "dingjiazhuangnan",
          "lat": 32.107659,
          "lon": 118.859908,
          "sequence": 4
        },
        {
          "id": "320100021299005",
          "stationId": "320100021299005",
          "nameZh": "丁家庄",
          "nameEn": "Dingjiazhuang",
          "target": "dingjiazhuang",
          "pinyin": "dingjiazhuang",
          "lat": 32.11194,
          "lon": 118.849484,
          "sequence": 5
        },
        {
          "id": "320100021297004",
          "stationId": "320100021297004",
          "nameZh": "万寿",
          "nameEn": "Wanshou",
          "target": "wanshou",
          "pinyin": "wanshou",
          "lat": 32.119539,
          "lon": 118.834652,
          "sequence": 6
        },
        {
          "id": "320100021299007",
          "stationId": "320100021299007",
          "nameZh": "晓庄",
          "nameEn": "Xiaozhuang",
          "target": "xiaozhuang",
          "pinyin": "xiaozhuang",
          "lat": 32.117229,
          "lon": 118.818517,
          "sequence": 7
        },
        {
          "id": "320100021299008",
          "stationId": "320100021299008",
          "nameZh": "幕府山",
          "nameEn": "Mufushan",
          "target": "mufushan",
          "pinyin": "mufushan",
          "lat": 32.11446,
          "lon": 118.798751,
          "sequence": 8
        },
        {
          "id": "320100021299009",
          "stationId": "320100021299009",
          "nameZh": "五塘广场",
          "nameEn": "Wutang Guangchang",
          "target": "wutang guangchang",
          "pinyin": "wutangguangchang",
          "lat": 32.1105,
          "lon": 118.777688,
          "sequence": 9
        },
        {
          "id": "320100021299010",
          "stationId": "320100021299010",
          "nameZh": "幕府西路",
          "nameEn": "Mufu Xilu",
          "target": "mufu xilu",
          "pinyin": "mufuxilu",
          "lat": 32.105687,
          "lon": 118.7714,
          "sequence": 10
        },
        {
          "id": "320100021299047",
          "stationId": "320100021299047",
          "nameZh": "钟阜路·市第二医院",
          "nameEn": "Zhongfu Lu Shi Dier Yiyuan",
          "target": "zhongfu lu shi dier yiyuan",
          "pinyin": "zhongfulushidieryiyuan",
          "lat": 32.091454,
          "lon": 118.771722,
          "sequence": 11
        },
        {
          "id": "320100021299048",
          "stationId": "320100021299048",
          "nameZh": "福建路",
          "nameEn": "Fujian Lu",
          "target": "fujian lu",
          "pinyin": "fujianlu",
          "lat": 32.079904,
          "lon": 118.759362,
          "sequence": 12
        },
        {
          "id": "320100021299049",
          "stationId": "320100021299049",
          "nameZh": "古平岗",
          "nameEn": "Gupinggang",
          "target": "gupinggang",
          "pinyin": "gupinggang",
          "lat": 32.071226,
          "lon": 118.757933,
          "sequence": 13
        },
        {
          "id": "320100021293003",
          "stationId": "320100021293003",
          "nameZh": "草场门",
          "nameEn": "Caochangmen",
          "target": "caochangmen",
          "pinyin": "caochangmen",
          "lat": 32.060416,
          "lon": 118.755699,
          "sequence": 14
        },
        {
          "id": "320100021299051",
          "stationId": "320100021299051",
          "nameZh": "清凉山",
          "nameEn": "Qing Liangshan",
          "target": "qing liangshan",
          "pinyin": "qingliangshan",
          "lat": 32.048316,
          "lon": 118.760168,
          "sequence": 15
        },
        {
          "id": "320100021299052",
          "stationId": "320100021299052",
          "nameZh": "莫愁湖",
          "nameEn": "Mochouhu",
          "target": "mochouhu",
          "pinyin": "mochouhu",
          "lat": 32.037428,
          "lon": 118.759568,
          "sequence": 16
        },
        {
          "id": "320100021299053",
          "stationId": "320100021299053",
          "nameZh": "大士茶亭",
          "nameEn": "Dashi Chating",
          "target": "dashi chating",
          "pinyin": "dashichating",
          "lat": 32.031757,
          "lon": 118.757333,
          "sequence": 17
        },
        {
          "id": "320100021299054",
          "stationId": "320100021299054",
          "nameZh": "南湖·省第二中医院",
          "nameEn": "Nanhu Sheng Dier Zhongyiyuan",
          "target": "nanhu sheng dier zhongyiyuan",
          "pinyin": "nanhushengdierzhongyiyuan",
          "lat": 32.023787,
          "lon": 118.754317,
          "sequence": 18
        },
        {
          "id": "320100021299064",
          "stationId": "320100021299064",
          "nameZh": "应天大街",
          "nameEn": "Yingtian Dajie",
          "target": "yingtian dajie",
          "pinyin": "yingtiandajie",
          "lat": 32.016428,
          "lon": 118.749161,
          "sequence": 19
        },
        {
          "id": "320100021299056",
          "stationId": "320100021299056",
          "nameZh": "梦都大街东",
          "nameEn": "Mengdu Dajie Dong",
          "target": "mengdu dajie dong",
          "pinyin": "mengdudajiedong",
          "lat": 32.003936,
          "lon": 118.746448,
          "sequence": 20
        },
        {
          "id": "320100021299057",
          "stationId": "320100021299057",
          "nameZh": "新城科技园",
          "nameEn": "Xincheng Kejiyuan",
          "target": "xincheng kejiyuan",
          "pinyin": "xinchengkejiyuan",
          "lat": 31.993694,
          "lon": 118.738239,
          "sequence": 21
        },
        {
          "id": "320100021299058",
          "stationId": "320100021299058",
          "nameZh": "中胜",
          "nameEn": "Zhongsheng",
          "target": "zhongsheng",
          "pinyin": "zhongsheng",
          "lat": 31.987911,
          "lon": 118.73317,
          "sequence": 22
        },
        {
          "id": "320100021299059",
          "stationId": "320100021299059",
          "nameZh": "嘉陵江东街",
          "nameEn": "Jialingjiang Dongjie",
          "target": "jialingjiang dongjie",
          "pinyin": "jialingjiangdongjie",
          "lat": 31.982159,
          "lon": 118.727853,
          "sequence": 23
        },
        {
          "id": "320100021299060",
          "stationId": "320100021299060",
          "nameZh": "永初路",
          "nameEn": "Yongchu Lu",
          "target": "yongchu lu",
          "pinyin": "yongchulu",
          "lat": 31.974264,
          "lon": 118.712185,
          "sequence": 24
        },
        {
          "id": "320100021299061",
          "stationId": "320100021299061",
          "nameZh": "太清路",
          "nameEn": "Taiqing Lu",
          "target": "taiqing lu",
          "pinyin": "taiqinglu",
          "lat": 31.966395,
          "lon": 118.703159,
          "sequence": 25
        },
        {
          "id": "320100021299062",
          "stationId": "320100021299062",
          "nameZh": "螺塘路",
          "nameEn": "Luotang Lu",
          "target": "luotang lu",
          "pinyin": "luotanglu",
          "lat": 31.961404,
          "lon": 118.7017,
          "sequence": 26
        },
        {
          "id": "320100021299063",
          "stationId": "320100021299063",
          "nameZh": "西善桥",
          "nameEn": "Xishanqiao",
          "target": "xishanqiao",
          "pinyin": "xishanqiao",
          "lat": 31.947161,
          "lon": 118.690861,
          "sequence": 27
        }
      ],
      "segments": [
        [
          "320100021299002",
          "320100021299003",
          "320100021299004",
          "320100021299027",
          "320100021299005",
          "320100021297004",
          "320100021299007",
          "320100021299008",
          "320100021299009",
          "320100021299010",
          "320100021299047",
          "320100021299048",
          "320100021299049",
          "320100021293003",
          "320100021299051",
          "320100021299052",
          "320100021299053",
          "320100021299054",
          "320100021299064",
          "320100021299056",
          "320100021299057",
          "320100021299058",
          "320100021299059",
          "320100021299060",
          "320100021299061",
          "320100021299062",
          "320100021299063"
        ]
      ]
    },
    {
      "id": "3201-S8",
      "operatorId": "3201",
      "operatorName": "南京地铁",
      "lineId": "S8",
      "lineName": "S8号线(宁天线)",
      "color": "#FFA500",
      "loop": false,
      "stations": [
        {
          "id": "320100022469020",
          "stationId": "320100022469020",
          "nameZh": "长江大桥北",
          "nameEn": "Changjiang Daqiao Bei",
          "target": "changjiang daqiao bei",
          "pinyin": "changjiangdaqiaobei",
          "lat": 32.127635,
          "lon": 118.730657,
          "sequence": 1
        },
        {
          "id": "320100022469019",
          "stationId": "320100022469019",
          "nameZh": "毛纺厂路",
          "nameEn": "Maofangchang Lu",
          "target": "maofangchang lu",
          "pinyin": "maofangchanglu",
          "lat": 32.134721,
          "lon": 118.72664,
          "sequence": 2
        },
        {
          "id": "320100022469018",
          "stationId": "320100022469018",
          "nameZh": "泰山新村",
          "nameEn": "Taishan Xincun",
          "target": "taishan xincun",
          "pinyin": "taishanxincun",
          "lat": 32.144295,
          "lon": 118.716268,
          "sequence": 3
        },
        {
          "id": "320100021573027",
          "stationId": "320100021573027",
          "nameZh": "泰冯路",
          "nameEn": "Tai Feng Lu",
          "target": "tai feng lu",
          "pinyin": "taifenglu",
          "lat": 32.153685,
          "lon": 118.719024,
          "sequence": 4
        },
        {
          "id": "320100022469016",
          "stationId": "320100022469016",
          "nameZh": "高新开发区",
          "nameEn": "Gao Xin Kai Fa Qu",
          "target": "gao xin kai fa qu",
          "pinyin": "gaoxinkaifaqu",
          "lat": 32.177538,
          "lon": 118.719487,
          "sequence": 5
        },
        {
          "id": "320100022469015",
          "stationId": "320100022469015",
          "nameZh": "信息工程大学",
          "nameEn": "Xin Xi Gong Cheng Da Xue",
          "target": "xin xi gong cheng da xue",
          "pinyin": "xinxigongchengdaxue",
          "lat": 32.202394,
          "lon": 118.726862,
          "sequence": 6
        },
        {
          "id": "320100022469014",
          "stationId": "320100022469014",
          "nameZh": "卸甲甸",
          "nameEn": "Xie Jia Dian",
          "target": "xie jia dian",
          "pinyin": "xiejiadian",
          "lat": 32.214608,
          "lon": 118.730435,
          "sequence": 7
        },
        {
          "id": "320100022469013",
          "stationId": "320100022469013",
          "nameZh": "大厂",
          "nameEn": "Da Chang",
          "target": "da chang",
          "pinyin": "dachang",
          "lat": 32.228848,
          "lon": 118.740131,
          "sequence": 8
        },
        {
          "id": "320100022469012",
          "stationId": "320100022469012",
          "nameZh": "葛塘",
          "nameEn": "Ge Tang",
          "target": "ge tang",
          "pinyin": "getang",
          "lat": 32.244425,
          "lon": 118.753637,
          "sequence": 9
        },
        {
          "id": "320100022469011",
          "stationId": "320100022469011",
          "nameZh": "长芦",
          "nameEn": "Chang Lu",
          "target": "chang lu",
          "pinyin": "changlu",
          "lat": 32.273302,
          "lon": 118.776484,
          "sequence": 10
        },
        {
          "id": "320100022469010",
          "stationId": "320100022469010",
          "nameZh": "化工园",
          "nameEn": "Hua Gong Yuan",
          "target": "hua gong yuan",
          "pinyin": "huagongyuan",
          "lat": 32.285557,
          "lon": 118.785684,
          "sequence": 11
        },
        {
          "id": "320100022469009",
          "stationId": "320100022469009",
          "nameZh": "六合开发区",
          "nameEn": "Liu He Kai Fa Qu",
          "target": "liu he kai fa qu",
          "pinyin": "liuhekaifaqu",
          "lat": 32.305196,
          "lon": 118.805334,
          "sequence": 12
        },
        {
          "id": "320100022469008",
          "stationId": "320100022469008",
          "nameZh": "龙池",
          "nameEn": "Long Chi",
          "target": "long chi",
          "pinyin": "longchi",
          "lat": 32.319014,
          "lon": 118.82015,
          "sequence": 13
        },
        {
          "id": "320100022469007",
          "stationId": "320100022469007",
          "nameZh": "雄州",
          "nameEn": "Xiong Zhou",
          "target": "xiong zhou",
          "pinyin": "xiongzhou",
          "lat": 32.33461,
          "lon": 118.836662,
          "sequence": 14
        },
        {
          "id": "320100022469006",
          "stationId": "320100022469006",
          "nameZh": "凤凰山公园",
          "nameEn": "Feng Huang Shan Gong Yuan",
          "target": "feng huang shan gong yuan",
          "pinyin": "fenghuangshangongyuan",
          "lat": 32.346842,
          "lon": 118.845116,
          "sequence": 15
        },
        {
          "id": "320100022469005",
          "stationId": "320100022469005",
          "nameZh": "方州广场",
          "nameEn": "Fang Zhou Guang Chang",
          "target": "fang zhou guang chang",
          "pinyin": "fangzhouguangchang",
          "lat": 32.359539,
          "lon": 118.850115,
          "sequence": 16
        },
        {
          "id": "320100022469004",
          "stationId": "320100022469004",
          "nameZh": "沈桥",
          "nameEn": "Shen Qiao",
          "target": "shen qiao",
          "pinyin": "shenqiao",
          "lat": 32.399891,
          "lon": 118.891854,
          "sequence": 17
        },
        {
          "id": "320100022469003",
          "stationId": "320100022469003",
          "nameZh": "八百桥",
          "nameEn": "Ba Bai Qiao",
          "target": "ba bai qiao",
          "pinyin": "babaiqiao",
          "lat": 32.42705,
          "lon": 118.933243,
          "sequence": 18
        },
        {
          "id": "320100022469002",
          "stationId": "320100022469002",
          "nameZh": "金牛湖",
          "nameEn": "Jin Niu Hu",
          "target": "jin niu hu",
          "pinyin": "jinniuhu",
          "lat": 32.46543,
          "lon": 118.964703,
          "sequence": 19
        }
      ],
      "segments": [
        [
          "320100022469020",
          "320100022469019",
          "320100022469018",
          "320100021573027",
          "320100022469016",
          "320100022469015",
          "320100022469014",
          "320100022469013",
          "320100022469012",
          "320100022469011",
          "320100022469010",
          "320100022469009",
          "320100022469008",
          "320100022469007",
          "320100022469006",
          "320100022469005",
          "320100022469004",
          "320100022469003",
          "320100022469002"
        ]
      ]
    },
    {
      "id": "3201-S9",
      "operatorId": "3201",
      "operatorName": "南京地铁",
      "lineId": "S9",
      "lineName": "S9号线(宁高线)",
      "color": "#F9BE58",
      "loop": false,
      "stations": [
        {
          "id": "320100022467008",
          "stationId": "320100022467008",
          "nameZh": "翔宇路南",
          "nameEn": "Xiang Yu Lu Nan",
          "target": "xiang yu lu nan",
          "pinyin": "xiangyulunan",
          "lat": 31.754866,
          "lon": 118.829201,
          "sequence": 1
        },
        {
          "id": "900000075091005",
          "stationId": "900000075091005",
          "nameZh": "铜山",
          "nameEn": "Tong Shan",
          "target": "tong shan",
          "pinyin": "tongshan",
          "lat": 31.696082,
          "lon": 118.881885,
          "sequence": 2
        },
        {
          "id": "900000075091004",
          "stationId": "900000075091004",
          "nameZh": "石湫",
          "nameEn": "Shi Qiu",
          "target": "shi qiu",
          "pinyin": "shiqiu",
          "lat": 31.640387,
          "lon": 118.90738,
          "sequence": 3
        },
        {
          "id": "900000075091003",
          "stationId": "900000075091003",
          "nameZh": "明觉",
          "nameEn": "Ming Jue",
          "target": "ming jue",
          "pinyin": "mingjue",
          "lat": 31.546324,
          "lon": 118.902178,
          "sequence": 4
        },
        {
          "id": "900000075091002",
          "stationId": "900000075091002",
          "nameZh": "团结圩",
          "nameEn": "Tuan Jie Wei",
          "target": "tuan jie wei",
          "pinyin": "tuanjiewei",
          "lat": 31.395788,
          "lon": 118.887696,
          "sequence": 5
        },
        {
          "id": "900000075091001",
          "stationId": "900000075091001",
          "nameZh": "高淳",
          "nameEn": "Gao Chun",
          "target": "gao chun",
          "pinyin": "gaochun",
          "lat": 31.340956,
          "lon": 118.877193,
          "sequence": 6
        }
      ],
      "segments": [
        [
          "320100022467008",
          "900000075091005",
          "900000075091004",
          "900000075091003",
          "900000075091002",
          "900000075091001"
        ]
      ]
    },
    {
      "id": "3201-10",
      "operatorId": "3201",
      "operatorName": "南京地铁",
      "lineId": "10",
      "lineName": "10号线",
      "color": "#DAC17D",
      "loop": false,
      "stations": [
        {
          "id": "320100022437016",
          "stationId": "320100022437016",
          "nameZh": "东麒路",
          "nameEn": "Dongqi Lu",
          "target": "dongqi lu",
          "pinyin": "dongqilu",
          "lat": 31.999576,
          "lon": 118.888416,
          "sequence": 1
        },
        {
          "id": "320100022437017",
          "stationId": "320100022437017",
          "nameZh": "石杨路",
          "nameEn": "Shiyang Lu",
          "target": "shiyang lu",
          "pinyin": "shiyanglu",
          "lat": 32.005292,
          "lon": 118.8741,
          "sequence": 2
        },
        {
          "id": "320100022437018",
          "stationId": "320100022437018",
          "nameZh": "杨庄",
          "nameEn": "Yangzhuang",
          "target": "yangzhuang",
          "pinyin": "yangzhuang",
          "lat": 32.006609,
          "lon": 118.862962,
          "sequence": 3
        },
        {
          "id": "320100022437019",
          "stationId": "320100022437019",
          "nameZh": "高桥门",
          "nameEn": "Gaoqiao Men",
          "target": "gaoqiao men",
          "pinyin": "gaoqiaomen",
          "lat": 32.005137,
          "lon": 118.842209,
          "sequence": 4
        },
        {
          "id": "320100022437020",
          "stationId": "320100022437020",
          "nameZh": "承天大道",
          "nameEn": "Chengtian Dadao",
          "target": "chengtian dadao",
          "pinyin": "chengtiandadao",
          "lat": 32.000957,
          "lon": 118.828985,
          "sequence": 5
        },
        {
          "id": "320100021571051",
          "stationId": "320100021571051",
          "nameZh": "大校场",
          "nameEn": "Dajiaochang",
          "target": "dajiaochang",
          "pinyin": "dajiaochang",
          "lat": 31.997965,
          "lon": 118.822552,
          "sequence": 6
        },
        {
          "id": "320100021297028",
          "stationId": "320100021297028",
          "nameZh": "机场跑道旧址",
          "nameEn": "Jichang Paodao Jiuzhi",
          "target": "jichang paodao jiuzhi",
          "pinyin": "jichangpaodaojiuzhi",
          "lat": 31.992166,
          "lon": 118.813656,
          "sequence": 7
        },
        {
          "id": "320100021573012",
          "stationId": "320100021573012",
          "nameZh": "卡子门",
          "nameEn": "Kazimen",
          "target": "kazimen",
          "pinyin": "kazimen",
          "lat": 31.994818,
          "lon": 118.796879,
          "sequence": 8
        },
        {
          "id": "320100022437024",
          "stationId": "320100022437024",
          "nameZh": "雨花台",
          "nameEn": "Yuhuatai",
          "target": "yuhuatai",
          "pinyin": "yuhuatai",
          "lat": 31.992722,
          "lon": 118.780883,
          "sequence": 9
        },
        {
          "id": "320100022437025",
          "stationId": "320100022437025",
          "nameZh": "共青团路",
          "nameEn": "Gongqingtuan Lu",
          "target": "gongqingtuan lu",
          "pinyin": "gongqingtuanlu",
          "lat": 31.993539,
          "lon": 118.774051,
          "sequence": 10
        },
        {
          "id": "320100022330017",
          "stationId": "320100022330017",
          "nameZh": "安德门",
          "nameEn": "An De Men",
          "target": "an de men",
          "pinyin": "andemen",
          "lat": 31.990862,
          "lon": 118.762136,
          "sequence": 11
        },
        {
          "id": "320100022437003",
          "stationId": "320100022437003",
          "nameZh": "小行",
          "nameEn": "Xiao Xing",
          "target": "xiao xing",
          "pinyin": "xiaoxing",
          "lat": 31.982464,
          "lon": 118.744681,
          "sequence": 12
        },
        {
          "id": "320100021299058",
          "stationId": "320100021299058",
          "nameZh": "中胜",
          "nameEn": "Zhongsheng",
          "target": "zhongsheng",
          "pinyin": "zhongsheng",
          "lat": 31.987911,
          "lon": 118.73317,
          "sequence": 13
        },
        {
          "id": "320100021495004",
          "stationId": "320100021495004",
          "nameZh": "元通",
          "nameEn": "Yuan Tong",
          "target": "yuan tong",
          "pinyin": "yuantong",
          "lat": 31.995471,
          "lon": 118.721449,
          "sequence": 14
        },
        {
          "id": "320100022437006",
          "stationId": "320100022437006",
          "nameZh": "奥体中心",
          "nameEn": "Ao Ti Zhong Xin",
          "target": "ao ti zhong xin",
          "pinyin": "aotizhongxin",
          "lat": 32.009065,
          "lon": 118.718286,
          "sequence": 15
        },
        {
          "id": "320100022437007",
          "stationId": "320100022437007",
          "nameZh": "梦都大街",
          "nameEn": "Meng Du Da Jie",
          "target": "meng du da jie",
          "pinyin": "mengdudajie",
          "lat": 32.015473,
          "lon": 118.721781,
          "sequence": 16
        },
        {
          "id": "320100022437008",
          "stationId": "320100022437008",
          "nameZh": "绿博园",
          "nameEn": "Lv Bo Yuan",
          "target": "lv bo yuan",
          "pinyin": "lvboyuan",
          "lat": 32.024161,
          "lon": 118.716735,
          "sequence": 17
        },
        {
          "id": "320100022437009",
          "stationId": "320100022437009",
          "nameZh": "江心洲",
          "nameEn": "Jiang Xin Zhou",
          "target": "jiang xin zhou",
          "pinyin": "jiangxinzhou",
          "lat": 32.031632,
          "lon": 118.703335,
          "sequence": 18
        },
        {
          "id": "320100022437010",
          "stationId": "320100022437010",
          "nameZh": "临江·青奥体育公园",
          "nameEn": "Linjiang Qingao Tiyu Gongyuan",
          "target": "linjiang qingao tiyu gongyuan",
          "pinyin": "linjiangqingaotiyugongyuan",
          "lat": 32.057186,
          "lon": 118.665528,
          "sequence": 19
        },
        {
          "id": "320100022437011",
          "stationId": "320100022437011",
          "nameZh": "浦口万汇城",
          "nameEn": "Pu Kou Wan Hui Cheng",
          "target": "pu kou wan hui cheng",
          "pinyin": "pukouwanhuicheng",
          "lat": 32.061689,
          "lon": 118.657082,
          "sequence": 20
        },
        {
          "id": "320100022437012",
          "stationId": "320100022437012",
          "nameZh": "南京工业大学",
          "nameEn": "Nan Jing Gong Ye Da Xue",
          "target": "nan jing gong ye da xue",
          "pinyin": "nanjinggongyedaxue",
          "lat": 32.066794,
          "lon": 118.648245,
          "sequence": 21
        },