{
  "city": "wuhan",
  "cityNameZh": "武汉",
  "cityNameEn": "Wuhan",
  "source": "高德地图地铁数据（非官方接口）· 官方英文站名整理自 Wikipedia",
  "generatedAt": "2026-07-14T14:48:39.172Z",
  "lines": [
    {
      "id": "4201-1",
      "operatorId": "4201",
      "operatorName": "武汉地铁",
      "lineId": "1",
      "lineName": "1号线",
      "color": "#3080B7",
      "loop": false,
      "stations": [
        {
          "id": "420100034364030",
          "stationId": "420100034364030",
          "nameZh": "汉口北",
          "nameEn": "Han Kou Bei",
          "target": "han kou bei",
          "pinyin": "hankoubei",
          "lat": 30.711953,
          "lon": 114.329481,
          "sequence": 1
        },
        {
          "id": "420100034364029",
          "stationId": "420100034364029",
          "nameZh": "滠口新城",
          "nameEn": "She Kou Xin Cheng",
          "target": "she kou xin cheng",
          "pinyin": "shekouxincheng",
          "lat": 30.684553,
          "lon": 114.342372,
          "sequence": 2
        },
        {
          "id": "420100034364028",
          "stationId": "420100034364028",
          "nameZh": "滕子岗",
          "nameEn": "Teng Zi Gang",
          "target": "teng zi gang",
          "pinyin": "tengzigang",
          "lat": 30.674527,
          "lon": 114.341474,
          "sequence": 3
        },
        {
          "id": "420100034364027",
          "stationId": "420100034364027",
          "nameZh": "堤角",
          "nameEn": "Di Jiao",
          "target": "di jiao",
          "pinyin": "dijiao",
          "lat": 30.665863,
          "lon": 114.338273,
          "sequence": 4
        },
        {
          "id": "420100034364026",
          "stationId": "420100034364026",
          "nameZh": "新荣",
          "nameEn": "Xinrong",
          "target": "xinrong",
          "pinyin": "xinrong",
          "lat": 30.657595,
          "lon": 114.332763,
          "sequence": 5
        },
        {
          "id": "420100034364025",
          "stationId": "420100034364025",
          "nameZh": "丹水池",
          "nameEn": "Dan Shui Chi",
          "target": "dan shui chi",
          "pinyin": "danshuichi",
          "lat": 30.643386,
          "lon": 114.330017,
          "sequence": 6
        },
        {
          "id": "420100034364024",
          "stationId": "420100034364024",
          "nameZh": "徐州新村",
          "nameEn": "Xu Zhou Xin Cun",
          "target": "xu zhou xin cun",
          "pinyin": "xuzhouxincun",
          "lat": 30.631171,
          "lon": 114.322936,
          "sequence": 7
        },
        {
          "id": "420100034364023",
          "stationId": "420100034364023",
          "nameZh": "二七路",
          "nameEn": "Er Qi Lu",
          "target": "er qi lu",
          "pinyin": "erqilu",
          "lat": 30.625032,
          "lon": 114.318749,
          "sequence": 8
        },
        {
          "id": "420100034364022",
          "stationId": "420100034364022",
          "nameZh": "头道街",
          "nameEn": "Tou Dao Jie",
          "target": "tou dao jie",
          "pinyin": "toudaojie",
          "lat": 30.617818,
          "lon": 114.313923,
          "sequence": 9
        },
        {
          "id": "420100034364021",
          "stationId": "420100034364021",
          "nameZh": "黄浦路",
          "nameEn": "Huang Pu Lu",
          "target": "huang pu lu",
          "pinyin": "huangpulu",
          "lat": 30.608404,
          "lon": 114.308156,
          "sequence": 10
        },
        {
          "id": "420100034364020",
          "stationId": "420100034364020",
          "nameZh": "三阳路",
          "nameEn": "San Yang Lu",
          "target": "san yang lu",
          "pinyin": "sanyanglu",
          "lat": 30.598718,
          "lon": 114.301348,
          "sequence": 11
        },
        {
          "id": "420100024335017",
          "stationId": "420100024335017",
          "nameZh": "大智路",
          "nameEn": "Da Zhi Lu",
          "target": "da zhi lu",
          "pinyin": "dazhilu",
          "lat": 30.592581,
          "lon": 114.295038,
          "sequence": 12
        },
        {
          "id": "420100024404014",
          "stationId": "420100024404014",
          "nameZh": "循礼门",
          "nameEn": "Xun Li Men",
          "target": "xun li men",
          "pinyin": "xunlimen",
          "lat": 30.585234,
          "lon": 114.285992,
          "sequence": 13
        },
        {
          "id": "420100034364017",
          "stationId": "420100034364017",
          "nameZh": "友谊路",
          "nameEn": "Youyi Lu",
          "target": "youyi lu",
          "pinyin": "youyilu",
          "lat": 30.580865,
          "lon": 114.278415,
          "sequence": 14
        },
        {
          "id": "420100034364016",
          "stationId": "420100034364016",
          "nameZh": "利济北路",
          "nameEn": "Li Ji Bei Lu",
          "target": "li ji bei lu",
          "pinyin": "lijibeilu",
          "lat": 30.577433,
          "lon": 114.270119,
          "sequence": 15
        },
        {
          "id": "420100034364015",
          "stationId": "420100034364015",
          "nameZh": "崇仁路",
          "nameEn": "Chong Ren Lu",
          "target": "chong ren lu",
          "pinyin": "chongrenlu",
          "lat": 30.573909,
          "lon": 114.261901,
          "sequence": 16
        },
        {
          "id": "420100034364014",
          "stationId": "420100034364014",
          "nameZh": "硚口路",
          "nameEn": "? Kou Lu",
          "target": "kou lu",
          "pinyin": "koulu",
          "lat": 30.571547,
          "lon": 114.250444,
          "sequence": 17
        },
        {
          "id": "420100034364013",
          "stationId": "420100034364013",
          "nameZh": "太平洋",
          "nameEn": "Taipingyang",
          "target": "taipingyang",
          "pinyin": "taipingyang",
          "lat": 30.574025,
          "lon": 114.240741,
          "sequence": 18
        },
        {
          "id": "420100024331016",
          "stationId": "420100024331016",
          "nameZh": "宗关",
          "nameEn": "Zongguan",
          "target": "zongguan",
          "pinyin": "zongguan",
          "lat": 30.580306,
          "lon": 114.224975,
          "sequence": 19
        },
        {
          "id": "420100034364011",
          "stationId": "420100034364011",
          "nameZh": "汉西一路",
          "nameEn": "Hanxi Yilu",
          "target": "hanxi yilu",
          "pinyin": "hanxiyilu",
          "lat": 30.585491,
          "lon": 114.218822,
          "sequence": 20
        },
        {
          "id": "420100034364010",
          "stationId": "420100034364010",
          "nameZh": "古田四路",
          "nameEn": "Gutian Si Lu",
          "target": "gutian si lu",
          "pinyin": "gutiansilu",
          "lat": 30.589347,
          "lon": 114.211532,
          "sequence": 21
        },
        {
          "id": "420100034364009",
          "stationId": "420100034364009",
          "nameZh": "古田三路",
          "nameEn": "Gu Tian San Lu",
          "target": "gu tian san lu",
          "pinyin": "gutiansanlu",
          "lat": 30.593382,
          "lon": 114.20474,
          "sequence": 22
        },
        {
          "id": "420100034364008",
          "stationId": "420100034364008",
          "nameZh": "古田二路",
          "nameEn": "Gu Tian Er Lu",
          "target": "gu tian er lu",
          "pinyin": "gutianerlu",
          "lat": 30.597536,
          "lon": 114.196667,
          "sequence": 23
        },
        {
          "id": "420100034364007",
          "stationId": "420100034364007",
          "nameZh": "古田一路",
          "nameEn": "Gu Tian Yi Lu",
          "target": "gu tian yi lu",
          "pinyin": "gutianyilu",
          "lat": 30.604521,
          "lon": 114.183062,
          "sequence": 24
        },
        {
          "id": "420100034364006",
          "stationId": "420100034364006",
          "nameZh": "舵落口",
          "nameEn": "Duo Luo Kou",
          "target": "duo luo kou",
          "pinyin": "duoluokou",
          "lat": 30.609907,
          "lon": 114.169464,
          "sequence": 25
        },
        {
          "id": "420100034364005",
          "stationId": "420100034364005",
          "nameZh": "竹叶海",
          "nameEn": "Zhu Ye Hai",
          "target": "zhu ye hai",
          "pinyin": "zhuyehai",
          "lat": 30.615064,
          "lon": 114.163868,
          "sequence": 26
        },
        {
          "id": "420100034364004",
          "stationId": "420100034364004",
          "nameZh": "额头湾",
          "nameEn": "E Tou Wan",
          "target": "e tou wan",
          "pinyin": "etouwan",
          "lat": 30.61846,
          "lon": 114.155941,
          "sequence": 27
        },
        {
          "id": "420100034364003",
          "stationId": "420100034364003",
          "nameZh": "五环大道",
          "nameEn": "Wu Huan Da Dao",
          "target": "wu huan da dao",
          "pinyin": "wuhuandadao",
          "lat": 30.617699,
          "lon": 114.138907,
          "sequence": 28
        },
        {
          "id": "420100034364002",
          "stationId": "420100034364002",
          "nameZh": "东吴大道",
          "nameEn": "Dong Wu Da Dao",
          "target": "dong wu da dao",
          "pinyin": "dongwudadao",
          "lat": 30.624968,
          "lon": 114.128567,
          "sequence": 29
        },
        {
          "id": "420100024335032",
          "stationId": "420100024335032",
          "nameZh": "码头潭公园",
          "nameEn": "Matoutan Gongyuan",
          "target": "matoutan gongyuan",
          "pinyin": "matoutangongyuan",
          "lat": 30.631684,
          "lon": 114.123644,
          "sequence": 30
        },
        {
          "id": "420100034364032",
          "stationId": "420100034364032",
          "nameZh": "三店",
          "nameEn": "San Dian",
          "target": "san dian",
          "pinyin": "sandian",
          "lat": 30.649056,
          "lon": 114.120804,
          "sequence": 31
        },
        {
          "id": "420100034364031",
          "stationId": "420100034364031",
          "nameZh": "径河",
          "nameEn": "Jing He",
          "target": "jing he",
          "pinyin": "jinghe",
          "lat": 30.659055,
          "lon": 114.120828,
          "sequence": 32
        }
      ],
      "segments": [
        [
          "420100034364030",
          "420100034364029",
          "420100034364028",
          "420100034364027",
          "420100034364026",
          "420100034364025",
          "420100034364024",
          "420100034364023",
          "420100034364022",
          "420100034364021",
          "420100034364020",
          "420100024335017",
          "420100024404014",
          "420100034364017",
          "420100034364016",
          "420100034364015",
          "420100034364014",
          "420100034364013",
          "420100024331016",
          "420100034364011",
          "420100034364010",
          "420100034364009",
          "420100034364008",
          "420100034364007",
          "420100034364006",
          "420100034364005",
          "420100034364004",
          "420100034364003",
          "420100034364002",
          "420100024335032",
          "420100034364032",
          "420100034364031"
        ]
      ]
    },
    {
      "id": "4201-2",
      "operatorId": "4201",
      "operatorName": "武汉地铁",
      "lineId": "2",
      "lineName": "2号线",
      "color": "#EB81B9",
      "loop": false,
      "stations": [
        {
          "id": "420100024404030",
          "stationId": "420100024404030",
          "nameZh": "佛祖岭",
          "nameEn": "Fo Zu Ling",
          "target": "fo zu ling",
          "pinyin": "fozuling",
          "lat": 30.438671,
          "lon": 114.439777,
          "sequence": 1
        },
        {
          "id": "420100024404031",
          "stationId": "420100024404031",
          "nameZh": "藏龙东街",
          "nameEn": "Cang Long Dong Jie",
          "target": "cang long dong jie",
          "pinyin": "canglongdongjie",
          "lat": 30.437026,
          "lon": 114.429655,
          "sequence": 2
        },
        {
          "id": "420100024404032",
          "stationId": "420100024404032",
          "nameZh": "秀湖",
          "nameEn": "Xiu Hu",
          "target": "xiu hu",
          "pinyin": "xiuhu",
          "lat": 30.447747,
          "lon": 114.421034,
          "sequence": 3
        },
        {
          "id": "420100024404033",
          "stationId": "420100024404033",
          "nameZh": "金融港北",
          "nameEn": "Jin Rong Gang Bei",
          "target": "jin rong gang bei",
          "pinyin": "jinronggangbei",
          "lat": 30.461963,
          "lon": 114.420416,
          "sequence": 4
        },
        {
          "id": "420100024404034",
          "stationId": "420100024404034",
          "nameZh": "黄龙山路",
          "nameEn": "Huang Long Shan Lu",
          "target": "huang long shan lu",
          "pinyin": "huanglongshanlu",
          "lat": 30.477465,
          "lon": 114.429936,
          "sequence": 5
        },
        {
          "id": "420100024404035",
          "stationId": "420100024404035",
          "nameZh": "武汉东站",
          "nameEn": "Wuhan Dongzhan",
          "target": "wuhan dongzhan",
          "pinyin": "wuhandongzhan",
          "lat": 30.486956,
          "lon": 114.431755,
          "sequence": 6
        },
        {
          "id": "420100024404036",
          "stationId": "420100024404036",
          "nameZh": "佳园路",
          "nameEn": "Jia Yuan Lu",
          "target": "jia yuan lu",
          "pinyin": "jiayuanlu",
          "lat": 30.500021,
          "lon": 114.430905,
          "sequence": 7
        },
        {
          "id": "420100024404037",
          "stationId": "420100024404037",
          "nameZh": "光谷大道",
          "nameEn": "Guang Gu Da Dao",
          "target": "guang gu da dao",
          "pinyin": "guanggudadao",
          "lat": 30.506535,
          "lon": 114.423817,
          "sequence": 8
        },
        {
          "id": "420100024404038",
          "stationId": "420100024404038",
          "nameZh": "华中科技大学",
          "nameEn": "Hua Zhong Ke Ji Da Xue",
          "target": "hua zhong ke ji da xue",
          "pinyin": "huazhongkejidaxue",
          "lat": 30.50741,
          "lon": 114.414237,
          "sequence": 9
        },
        {
          "id": "420100024404039",
          "stationId": "420100024404039",
          "nameZh": "珞雄路",
          "nameEn": "Luo Xiong Lu",
          "target": "luo xiong lu",
          "pinyin": "luoxionglu",
          "lat": 30.506941,
          "lon": 114.404837,
          "sequence": 10
        },
        {
          "id": "420100024404002",
          "stationId": "420100024404002",
          "nameZh": "光谷广场",
          "nameEn": "Guanggu Guangchang",
          "target": "guanggu guangchang",
          "pinyin": "guangguguangchang",
          "lat": 30.506016,
          "lon": 114.398936,
          "sequence": 11
        },
        {
          "id": "420100024404003",
          "stationId": "420100024404003",
          "nameZh": "杨家湾",
          "nameEn": "Yang Jia Wan",
          "target": "yang jia wan",
          "pinyin": "yangjiawan",
          "lat": 30.505122,
          "lon": 114.382732,
          "sequence": 12
        },
        {
          "id": "420100024404004",
          "stationId": "420100024404004",
          "nameZh": "虎泉",
          "nameEn": "Huquan",
          "target": "huquan",
          "pinyin": "huquan",
          "lat": 30.512359,
          "lon": 114.370478,
          "sequence": 13
        },
        {
          "id": "420100024404005",
          "stationId": "420100024404005",
          "nameZh": "广埠屯",
          "nameEn": "Guang Bu Tun",
          "target": "guang bu tun",
          "pinyin": "guangbutun",
          "lat": 30.522437,
          "lon": 114.364207,
          "sequence": 14
        },
        {
          "id": "420100024404006",
          "stationId": "420100024404006",
          "nameZh": "街道口",
          "nameEn": "Jiedao Kou",
          "target": "jiedao kou",
          "pinyin": "jiedaokou",
          "lat": 30.526597,
          "lon": 114.353503,
          "sequence": 15
        },
        {
          "id": "420100024404007",
          "stationId": "420100024404007",
          "nameZh": "宝通寺",
          "nameEn": "Bao Tong Si",
          "target": "bao tong si",
          "pinyin": "baotongsi",
          "lat": 30.530349,
          "lon": 114.341206,
          "sequence": 16
        },
        {
          "id": "420100024404008",
          "stationId": "420100024404008",
          "nameZh": "中南路",
          "nameEn": "Zhong Nan Lu",
          "target": "zhong nan lu",
          "pinyin": "zhongnanlu",
          "lat": 30.537528,
          "lon": 114.332959,
          "sequence": 17
        },
        {
          "id": "420100024404009",
          "stationId": "420100024404009",
          "nameZh": "洪山广场",
          "nameEn": "Hong Shan Guang Chang",
          "target": "hong shan guang chang",
          "pinyin": "hongshanguangchang",
          "lat": 30.545298,
          "lon": 114.336354,
          "sequence": 18
        },
        {
          "id": "420100024404010",
          "stationId": "420100024404010",
          "nameZh": "小龟山",
          "nameEn": "Xiao Gui Shan",
          "target": "xiao gui shan",
          "pinyin": "xiaoguishan",
          "lat": 30.551108,
          "lon": 114.32652,
          "sequence": 19
        },
        {
          "id": "420100024404011",
          "stationId": "420100024404011",
          "nameZh": "螃蟹岬",
          "nameEn": "Pang Xie Jia",
          "target": "pang xie jia",
          "pinyin": "pangxiejia",
          "lat": 30.553333,
          "lon": 114.317476,
          "sequence": 20
        },
        {
          "id": "420100024404012",
          "stationId": "420100024404012",
          "nameZh": "积玉桥",
          "nameEn": "Jiyuqiao",
          "target": "jiyuqiao",
          "pinyin": "jiyuqiao",
          "lat": 30.561284,
          "lon": 114.308679,
          "sequence": 21
        },
        {
          "id": "420100024335016",
          "stationId": "420100024335016",
          "nameZh": "江汉路",
          "nameEn": "Jiang Han Lu",
          "target": "jiang han lu",
          "pinyin": "jianghanlu",
          "lat": 30.579581,
          "lon": 114.292306,
          "sequence": 22
        },
        {
          "id": "420100024404014",
          "stationId": "420100024404014",
          "nameZh": "循礼门",
          "nameEn": "Xun Li Men",
          "target": "xun li men",
          "pinyin": "xunlimen",
          "lat": 30.585234,
          "lon": 114.285992,
          "sequence": 23
        },
        {
          "id": "420100024404015",
          "stationId": "420100024404015",
          "nameZh": "中山公园",
          "nameEn": "Zhongshan Gongyuan",
          "target": "zhongshan gongyuan",
          "pinyin": "zhongshangongyuan",
          "lat": 30.581962,
          "lon": 114.272845,
          "sequence": 24
        },
        {
          "id": "420100024404016",
          "stationId": "420100024404016",
          "nameZh": "青年路",
          "nameEn": "Qingnian Lu",
          "target": "qingnian lu",
          "pinyin": "qingnianlu",
          "lat": 30.585762,
          "lon": 114.264757,
          "sequence": 25
        },
        {
          "id": "420100024404017",
          "stationId": "420100024404017",
          "nameZh": "王家墩东",
          "nameEn": "Wang Jia Dun Dong",
          "target": "wang jia dun dong",
          "pinyin": "wangjiadundong",
          "lat": 30.594245,
          "lon": 114.263288,
          "sequence": 26
        },
        {
          "id": "420100024331012",
          "stationId": "420100024331012",
          "nameZh": "范湖",
          "nameEn": "Fan Hu",
          "target": "fan hu",
          "pinyin": "fanhu",
          "lat": 30.607717,
          "lon": 114.261086,
          "sequence": 27
        },
        {
          "id": "420100024404019",
          "stationId": "420100024404019",
          "nameZh": "汉口火车站",
          "nameEn": "Hankou Huochezhan",
          "target": "hankou huochezhan",
          "pinyin": "hankouhuochezhan",
          "lat": 30.615485,
          "lon": 114.254961,
          "sequence": 28
        },
        {
          "id": "420100024404020",
          "stationId": "420100024404020",
          "nameZh": "长港路",
          "nameEn": "Changgang Lu",
          "target": "changgang lu",
          "pinyin": "changganglu",
          "lat": 30.627168,
          "lon": 114.246021,
          "sequence": 29
        },
        {
          "id": "420100024335024",
          "stationId": "420100024335024",
          "nameZh": "常青花园",
          "nameEn": "Chang Qing Hua Yuan",
          "target": "chang qing hua yuan",
          "pinyin": "changqinghuayuan",
          "lat": 30.640564,
          "lon": 114.242435,
          "sequence": 30
        },
        {
          "id": "420100024404022",
          "stationId": "420100024404022",
          "nameZh": "金银潭",
          "nameEn": "Jin Yin Tan",
          "target": "jin yin tan",
          "pinyin": "jinyintan",
          "lat": 30.650412,
          "lon": 114.242807,
          "sequence": 31
        },
        {
          "id": "420100024404023",
          "stationId": "420100024404023",
          "nameZh": "常青城",
          "nameEn": "Chang Qing Cheng",
          "target": "chang qing cheng",
          "pinyin": "changqingcheng",
          "lat": 30.658775,
          "lon": 114.25506,
          "sequence": 32
        },
        {
          "id": "420100024331002",
          "stationId": "420100024331002",
          "nameZh": "宏图大道",
          "nameEn": "Hong Tu Da Dao",
          "target": "hong tu da dao",
          "pinyin": "hongtudadao",
          "lat": 30.670353,
          "lon": 114.277759,
          "sequence": 33
        },
        {
          "id": "420100024404025",
          "stationId": "420100024404025",
          "nameZh": "盘龙城",
          "nameEn": "Pan Long Cheng",
          "target": "pan long cheng",
          "pinyin": "panlongcheng",
          "lat": 30.700235,
          "lon": 114.259544,
          "sequence": 34
        },
        {
          "id": "420100024404026",
          "stationId": "420100024404026",
          "nameZh": "巨龙大道",
          "nameEn": "Julong Dadao",
          "target": "julong dadao",
          "pinyin": "julongdadao",
          "lat": 30.711596,
          "lon": 114.253845,
          "sequence": 35
        },
        {
          "id": "420100024404027",
          "stationId": "420100024404027",
          "nameZh": "宋家岗",
          "nameEn": "Song Jia Gang",
          "target": "song jia gang",
          "pinyin": "songjiagang",
          "lat": 30.723137,
          "lon": 114.237299,
          "sequence": 36
        },
        {
          "id": "420100024404028",
          "stationId": "420100024404028",
          "nameZh": "航空总部",
          "nameEn": "Hangkong Zongbu",
          "target": "hangkong zongbu",
          "pinyin": "hangkongzongbu",
          "lat": 30.732481,
          "lon": 114.227261,
          "sequence": 37
        },
        {
          "id": "420100024404029",
          "stationId": "420100024404029",
          "nameZh": "天河机场",
          "nameEn": "Tian He Ji Chang",
          "target": "tian he ji chang",
          "pinyin": "tianhejichang",
          "lat": 30.770624,
          "lon": 114.216618,
          "sequence": 38
        }
      ],
      "segments": [
        [
          "420100024404030",
          "420100024404031",
          "420100024404032",
          "420100024404033",
          "420100024404034",
          "420100024404035",
          "420100024404036",
          "420100024404037",
          "420100024404038",
          "420100024404039",
          "420100024404002",
          "420100024404003",
          "420100024404004",
          "420100024404005",
          "420100024404006",
          "420100024404007",
          "420100024404008",
          "420100024404009",
          "420100024404010",
          "420100024404011",
          "420100024404012",
          "420100024335016",
          "420100024404014",
          "420100024404015",
          "420100024404016",
          "420100024404017",
          "420100024331012",
          "420100024404019",
          "420100024404020",
          "420100024335024",
          "420100024404022",
          "420100024404023",
          "420100024331002",
          "420100024404025",
          "420100024404026",
          "420100024404027",
          "420100024404028",
          "420100024404029"
        ]
      ]
    },
    {
      "id": "4201-3",
      "operatorId": "4201",
      "operatorName": "武汉地铁",
      "lineId": "3",
      "lineName": "3号线",
      "color": "#DAC17D",
      "loop": false,
      "stations": [
        {
          "id": "420100024331025",
          "stationId": "420100024331025",
          "nameZh": "沌阳大道",
          "nameEn": "Dun Yang Da Dao",
          "target": "dun yang da dao",
          "pinyin": "dunyangdadao",
          "lat": 30.489376,
          "lon": 114.157139,
          "sequence": 1
        },
        {
          "id": "420100024331024",
          "stationId": "420100024331024",
          "nameZh": "东风公司",
          "nameEn": "Dong Feng Gong Si",
          "target": "dong feng gong si",
          "pinyin": "dongfenggongsi",
          "lat": 30.500107,
          "lon": 114.166088,
          "sequence": 2
        },
        {
          "id": "420100024331023",
          "stationId": "420100024331023",
          "nameZh": "体育中心",
          "nameEn": "Tiyuzhongxin",
          "target": "tiyuzhongxin",
          "pinyin": "tiyuzhongxin",
          "lat": 30.506039,
          "lon": 114.170981,
          "sequence": 3
        },
        {
          "id": "420100024331022",
          "stationId": "420100024331022",
          "nameZh": "三角湖",
          "nameEn": "San Jiao Hu",
          "target": "san jiao hu",
          "pinyin": "sanjiaohu",
          "lat": 30.516507,
          "lon": 114.179686,
          "sequence": 4
        },
        {
          "id": "420100024331021",
          "stationId": "420100024331021",
          "nameZh": "汉阳客运站",
          "nameEn": "Han Yang Ke Yun Zhan",
          "target": "han yang ke yun zhan",
          "pinyin": "hanyangkeyunzhan",
          "lat": 30.527803,
          "lon": 114.189054,
          "sequence": 5
        },
        {
          "id": "420100024331020",
          "stationId": "420100024331020",
          "nameZh": "四新大道",
          "nameEn": "Si Xin Da Dao",
          "target": "si xin da dao",
          "pinyin": "sixindadao",
          "lat": 30.535228,
          "lon": 114.194631,
          "sequence": 6
        },
        {
          "id": "420100024331019",
          "stationId": "420100024331019",
          "nameZh": "陶家岭",
          "nameEn": "Tao Jia Ling",
          "target": "tao jia ling",
          "pinyin": "taojialing",
          "lat": 30.545591,
          "lon": 114.201851,
          "sequence": 7
        },
        {
          "id": "420100024331018",
          "stationId": "420100024331018",
          "nameZh": "龙阳村",
          "nameEn": "Long Yang Cun",
          "target": "long yang cun",
          "pinyin": "longyangcun",
          "lat": 30.552879,
          "lon": 114.206329,
          "sequence": 8
        },
        {
          "id": "420100024331017",
          "stationId": "420100024331017",
          "nameZh": "王家湾",
          "nameEn": "Wang Jia Wan",
          "target": "wang jia wan",
          "pinyin": "wangjiawan",
          "lat": 30.562121,
          "lon": 114.210348,
          "sequence": 9
        },
        {
          "id": "420100024331016",
          "stationId": "420100024331016",
          "nameZh": "宗关",
          "nameEn": "Zongguan",
          "target": "zongguan",
          "pinyin": "zongguan",
          "lat": 30.580306,
          "lon": 114.224975,
          "sequence": 10
        },
        {
          "id": "420100024331015",
          "stationId": "420100024331015",
          "nameZh": "双墩",
          "nameEn": "Shuang Dun",
          "target": "shuang dun",
          "pinyin": "shuangdun",
          "lat": 30.58666,
          "lon": 114.232026,
          "sequence": 11
        },
        {
          "id": "420100024331014",
          "stationId": "420100024331014",
          "nameZh": "武汉商务区",
          "nameEn": "Wu Han Shang Wu Qu",
          "target": "wu han shang wu qu",
          "pinyin": "wuhanshangwuqu",
          "lat": 30.597587,
          "lon": 114.246879,
          "sequence": 12
        },
        {
          "id": "420100024331013",
          "stationId": "420100024331013",
          "nameZh": "云飞路",
          "nameEn": "Yun Fei Lu",
          "target": "yun fei lu",
          "pinyin": "yunfeilu",
          "lat": 30.605164,
          "lon": 114.252144,
          "sequence": 13
        },
        {
          "id": "420100024331012",
          "stationId": "420100024331012",
          "nameZh": "范湖",
          "nameEn": "Fan Hu",
          "target": "fan hu",
          "pinyin": "fanhu",
          "lat": 30.607717,
          "lon": 114.261086,
          "sequence": 14
        },
        {
          "id": "420100024331011",
          "stationId": "420100024331011",
          "nameZh": "菱角湖",
          "nameEn": "Ling Jiao Hu",
          "target": "ling jiao hu",
          "pinyin": "lingjiaohu",
          "lat": 30.604121,
          "lon": 114.27579,
          "sequence": 15
        },
        {
          "id": "420100024331010",
          "stationId": "420100024331010",
          "nameZh": "香港路",
          "nameEn": "Xiang Gang Lu",
          "target": "xiang gang lu",
          "pinyin": "xiangganglu",
          "lat": 30.605235,
          "lon": 114.284769,
          "sequence": 16
        },
        {
          "id": "420100024331009",
          "stationId": "420100024331009",
          "nameZh": "惠济二路",
          "nameEn": "Hui Ji Er Lu",
          "target": "hui ji er lu",
          "pinyin": "huijierlu",
          "lat": 30.612937,
          "lon": 114.291463,
          "sequence": 17
        },
        {
          "id": "420100024331008",
          "stationId": "420100024331008",
          "nameZh": "赵家条",
          "nameEn": "Zhao Jia Tiao",
          "target": "zhao jia tiao",
          "pinyin": "zhaojiatiao",
          "lat": 30.617866,
          "lon": 114.297076,
          "sequence": 18
        },
        {
          "id": "420100024331007",
          "stationId": "420100024331007",
          "nameZh": "罗家庄",
          "nameEn": "Luo Jia Zhuang",
          "target": "luo jia zhuang",
          "pinyin": "luojiazhuang",
          "lat": 30.623628,
          "lon": 114.303976,
          "sequence": 19
        },
        {
          "id": "420100024331006",
          "stationId": "420100024331006",
          "nameZh": "二七小路",
          "nameEn": "Er Qi Xiao Lu",
          "target": "er qi xiao lu",
          "pinyin": "erqixiaolu",
          "lat": 30.628847,
          "lon": 114.307806,
          "sequence": 20
        },
        {
          "id": "420100024331005",
          "stationId": "420100024331005",
          "nameZh": "兴业路",
          "nameEn": "Xing Ye Lu",
          "target": "xing ye lu",
          "pinyin": "xingyelu",
          "lat": 30.641133,
          "lon": 114.30422,
          "sequence": 21
        },
        {
          "id": "420100024331004",
          "stationId": "420100024331004",
          "nameZh": "后湖大道",
          "nameEn": "Hou Hu Da Dao",
          "target": "hou hu da dao",
          "pinyin": "houhudadao",
          "lat": 30.650284,
          "lon": 114.304127,
          "sequence": 22
        },
        {
          "id": "420100024331003",
          "stationId": "420100024331003",
          "nameZh": "市民之家",
          "nameEn": "Shi Min Zhi Jia",
          "target": "shi min zhi jia",
          "pinyin": "shiminzhijia",
          "lat": 30.661297,
          "lon": 114.296806,
          "sequence": 23
        },
        {
          "id": "420100024331002",
          "stationId": "420100024331002",
          "nameZh": "宏图大道",
          "nameEn": "Hong Tu Da Dao",
          "target": "hong tu da dao",
          "pinyin": "hongtudadao",
          "lat": 30.670353,
          "lon": 114.277759,
          "sequence": 24
        }
      ],
      "segments": [
        [
          "420100024331025",
          "420100024331024",
          "420100024331023",
          "420100024331022",
          "420100024331021",
          "420100024331020",
          "420100024331019",
          "420100024331018",
          "420100024331017",
          "420100024331016",
          "420100024331015",
          "420100024331014",
          "420100024331013",
          "420100024331012",
          "420100024331011",
          "420100024331010",
          "420100024331009",
          "420100024331008",
          "420100024331007",
          "420100024331006",
          "420100024331005",
          "420100024331004",
          "420100024331003",
          "420100024331002"
        ]
      ]
    },
    {
      "id": "4201-4",
      "operatorId": "4201",
      "operatorName": "武汉地铁",
      "lineId": "4",
      "lineName": "4号线",
      "color": "#86B81C",
      "loop": false,
      "stations": [
        {
          "id": "420100034395030",
          "stationId": "420100034395030",
          "nameZh": "柏林",
          "nameEn": "Bolin",
          "target": "bolin",
          "pinyin": "bolin",
          "lat": 30.582229,
          "lon": 113.994891,
          "sequence": 1
        },
        {
          "id": "420100034395031",
          "stationId": "420100034395031",
          "nameZh": "新庙村",
          "nameEn": "Xinmiaocun",
          "target": "xinmiaocun",
          "pinyin": "xinmiaocun",
          "lat": 30.579826,
          "lon": 114.009379,
          "sequence": 2
        },
        {
          "id": "420100034395032",
          "stationId": "420100034395032",
          "nameZh": "临嶂大道",
          "nameEn": "Linzhang Dadao",
          "target": "linzhang dadao",
          "pinyin": "linzhangdadao",
          "lat": 30.57179,
          "lon": 114.02859,
          "sequence": 3
        },
        {
          "id": "420100034395033",
          "stationId": "420100034395033",
          "nameZh": "蔡甸广场",
          "nameEn": "Caidian Guangchang",
          "target": "caidian guangchang",
          "pinyin": "caidianguangchang",
          "lat": 30.573054,
          "lon": 114.041735,
          "sequence": 4
        },
        {
          "id": "420100034395034",
          "stationId": "420100034395034",
          "nameZh": "凤凰路",
          "nameEn": "Fenghuang Lu",
          "target": "fenghuang lu",
          "pinyin": "fenghuanglu",
          "lat": 30.563412,
          "lon": 114.060324,
          "sequence": 5
        },
        {
          "id": "420100034395035",
          "stationId": "420100034395035",
          "nameZh": "新农",
          "nameEn": "Xinnong",
          "target": "xinnong",
          "pinyin": "xinnong",
          "lat": 30.560522,
          "lon": 114.074791,
          "sequence": 6
        },
        {
          "id": "420100034395036",
          "stationId": "420100034395036",
          "nameZh": "知音",
          "nameEn": "Zhiyin",
          "target": "zhiyin",
          "pinyin": "zhiyin",
          "lat": 30.556845,
          "lon": 114.091765,
          "sequence": 7
        },
        {
          "id": "420100034395037",
          "stationId": "420100034395037",
          "nameZh": "集贤",
          "nameEn": "Jixian",
          "target": "jixian",
          "pinyin": "jixian",
          "lat": 30.550087,
          "lon": 114.112285,
          "sequence": 8
        },
        {
          "id": "420100034395038",
          "stationId": "420100034395038",
          "nameZh": "新天",
          "nameEn": "Xintian",
          "target": "xintian",
          "pinyin": "xintian",
          "lat": 30.552199,
          "lon": 114.126339,
          "sequence": 9
        },
        {
          "id": "420100034395017",
          "stationId": "420100034395017",
          "nameZh": "黄金口",
          "nameEn": "Huangjinkou",
          "target": "huangjinkou",
          "pinyin": "huangjinkou",
          "lat": 30.564055,
          "lon": 114.145387,
          "sequence": 10
        },
        {
          "id": "420100034395018",
          "stationId": "420100034395018",
          "nameZh": "孟家铺",
          "nameEn": "Mengjiapu",
          "target": "mengjiapu",
          "pinyin": "mengjiapu",
          "lat": 30.56499,
          "lon": 114.173901,
          "sequence": 11
        },
        {
          "id": "420100034395019",
          "stationId": "420100034395019",
          "nameZh": "永安堂",
          "nameEn": "Yongantang",
          "target": "yongantang",
          "pinyin": "yongantang",
          "lat": 30.566446,
          "lon": 114.188919,
          "sequence": 12
        },
        {
          "id": "420100034395020",
          "stationId": "420100034395020",
          "nameZh": "玉龙路",
          "nameEn": "Yulong Lu",
          "target": "yulong lu",
          "pinyin": "yulonglu",
          "lat": 30.564519,
          "lon": 114.201403,
          "sequence": 13
        },
        {
          "id": "420100024331017",
          "stationId": "420100024331017",
          "nameZh": "王家湾",
          "nameEn": "Wang Jia Wan",
          "target": "wang jia wan",
          "pinyin": "wangjiawan",
          "lat": 30.562121,
          "lon": 114.210348,
          "sequence": 14
        },
        {
          "id": "420100034395022",
          "stationId": "420100034395022",
          "nameZh": "十里铺",
          "nameEn": "Shi Li Pu",
          "target": "shi li pu",
          "pinyin": "shilipu",
          "lat": 30.55932,
          "lon": 114.219444,
          "sequence": 15
        },
        {
          "id": "420100034395023",
          "stationId": "420100034395023",
          "nameZh": "七里庙",
          "nameEn": "Qi Li Miao",
          "target": "qi li miao",
          "pinyin": "qilimiao",
          "lat": 30.556688,
          "lon": 114.231208,
          "sequence": 16
        },
        {
          "id": "420100034395024",
          "stationId": "420100034395024",
          "nameZh": "五里墩",
          "nameEn": "Wulidun",
          "target": "wulidun",
          "pinyin": "wulidun",
          "lat": 30.553977,
          "lon": 114.241105,
          "sequence": 17
        },
        {
          "id": "420100034395025",
          "stationId": "420100034395025",
          "nameZh": "汉阳火车站",
          "nameEn": "Han Yang Huo Che Zhan",
          "target": "han yang huo che zhan",
          "pinyin": "hanyanghuochezhan",
          "lat": 30.551732,
          "lon": 114.252849,
          "sequence": 18
        },
        {
          "id": "420100024335011",
          "stationId": "420100024335011",
          "nameZh": "钟家村",
          "nameEn": "Zhong Jia Cun",
          "target": "zhong jia cun",
          "pinyin": "zhongjiacun",
          "lat": 30.549283,
          "lon": 114.266158,
          "sequence": 19
        },
        {
          "id": "420100034395027",
          "stationId": "420100034395027",
          "nameZh": "拦江路",
          "nameEn": "Lan Jiang Lu",
          "target": "lan jiang lu",
          "pinyin": "lanjianglu",
          "lat": 30.542917,
          "lon": 114.269012,
          "sequence": 20
        },
        {
          "id": "420100034395028",
          "stationId": "420100034395028",
          "nameZh": "复兴路",
          "nameEn": "Fuxing Lu",
          "target": "fuxing lu",
          "pinyin": "fuxinglu",
          "lat": 30.534309,
          "lon": 114.301225,
          "sequence": 21
        },
        {
          "id": "420100034395029",
          "stationId": "420100034395029",
          "nameZh": "首义路",
          "nameEn": "Shou Yi Lu",
          "target": "shou yi lu",
          "pinyin": "shouyilu",
          "lat": 30.533612,
          "lon": 114.308531,
          "sequence": 22
        },
        {
          "id": "420100034395002",
          "stationId": "420100034395002",
          "nameZh": "武昌火车站",
          "nameEn": "Wu Chang Huo Che Zhan",
          "target": "wu chang huo che zhan",
          "pinyin": "wuchanghuochezhan",
          "lat": 30.530624,
          "lon": 114.316449,
          "sequence": 23
        },
        {
          "id": "420100034395003",
          "stationId": "420100034395003",
          "nameZh": "梅苑小区",
          "nameEn": "Mei Yuan Xiao Qu",
          "target": "mei yuan xiao qu",
          "pinyin": "meiyuanxiaoqu",
          "lat": 30.530916,
          "lon": 114.326149,
          "sequence": 24
        },
        {
          "id": "420100024404008",
          "stationId": "420100024404008",
          "nameZh": "中南路",
          "nameEn": "Zhong Nan Lu",
          "target": "zhong nan lu",
          "pinyin": "zhongnanlu",
          "lat": 30.537528,
          "lon": 114.332959,
          "sequence": 25
        },
        {
          "id": "420100024404009",
          "stationId": "420100024404009",
          "nameZh": "洪山广场",
          "nameEn": "Hong Shan Guang Chang",
          "target": "hong shan guang chang",
          "pinyin": "hongshanguangchang",
          "lat": 30.545298,
          "lon": 114.336354,
          "sequence": 26
        },
        {
          "id": "420100034395006",
          "stationId": "420100034395006",
          "nameZh": "楚河汉街",
          "nameEn": "Chu He Han Jie",
          "target": "chu he han jie",
          "pinyin": "chuhehanjie",
          "lat": 30.553848,
          "lon": 114.341415,
          "sequence": 27
        },
        {
          "id": "420100034395007",
          "stationId": "420100034395007",
          "nameZh": "青鱼嘴",
          "nameEn": "Qing Yu Zui",
          "target": "qing yu zui",
          "pinyin": "qingyuzui",
          "lat": 30.56372,
          "lon": 114.349884,
          "sequence": 28
        },
        {
          "id": "420100034395008",
          "stationId": "420100034395008",
          "nameZh": "东亭",
          "nameEn": "Dong Ting",
          "target": "dong ting",
          "pinyin": "dongting",
          "lat": 30.570267,
          "lon": 114.355809,
          "sequence": 29
        },
        {
          "id": "420100034395009",
          "stationId": "420100034395009",
          "nameZh": "岳家嘴",
          "nameEn": "Yue Jia Zui",
          "target": "yue jia zui",
          "pinyin": "yuejiazui",
          "lat": 30.577109,
          "lon": 114.36201,
          "sequence": 30
        },
        {
          "id": "420100034395010",
          "stationId": "420100034395010",
          "nameZh": "铁机路",
          "nameEn": "Tie Ji Lu",
          "target": "tie ji lu",
          "pinyin": "tiejilu",
          "lat": 30.583897,
          "lon": 114.368895,
          "sequence": 31
        },
        {
          "id": "420100034395011",
          "stationId": "420100034395011",
          "nameZh": "罗家港",
          "nameEn": "Luo Jia Gang",
          "target": "luo jia gang",
          "pinyin": "luojiagang",
          "lat": 30.5928,
          "lon": 114.37154,
          "sequence": 32
        },
        {
          "id": "420100034395012",
          "stationId": "420100034395012",
          "nameZh": "园林路",
          "nameEn": "Yuanlin Lu",
          "target": "yuanlin lu",
          "pinyin": "yuanlinlu",
          "lat": 30.600224,
          "lon": 114.378123,
          "sequence": 33
        },
        {
          "id": "420100034395013",
          "stationId": "420100034395013",
          "nameZh": "仁和路",
          "nameEn": "Ren He Lu",
          "target": "ren he lu",
          "pinyin": "renhelu",
          "lat": 30.605179,
          "lon": 114.38909,
          "sequence": 34
        },
        {
          "id": "420100034395014",
          "stationId": "420100034395014",
          "nameZh": "工业四路",
          "nameEn": "Gong Ye Si Lu",
          "target": "gong ye si lu",
          "pinyin": "gongyesilu",
          "lat": 30.607996,
          "lon": 114.405848,
          "sequence": 35
        },
        {
          "id": "420100034395015",
          "stationId": "420100034395015",
          "nameZh": "杨春湖",
          "nameEn": "Yang Chun Hu",
          "target": "yang chun hu",
          "pinyin": "yangchunhu",
          "lat": 30.6053,
          "lon": 114.416353,
          "sequence": 36
        },
        {
          "id": "420100034395016",
          "stationId": "420100034395016",
          "nameZh": "武汉火车站",
          "nameEn": "Wu Han Huo Che Zhan",
          "target": "wu han huo che zhan",
          "pinyin": "wuhanhuochezhan",
          "lat": 30.607375,
          "lon": 114.424376,
          "sequence": 37
        }
      ],
      "segments": [
        [
          "420100034395030",
          "420100034395031",
          "420100034395032",
          "420100034395033",
          "420100034395034",
          "420100034395035",
          "420100034395036",
          "420100034395037",
          "420100034395038",
          "420100034395017",
          "420100034395018",
          "420100034395019",
          "420100034395020",
          "420100024331017",
          "420100034395022",
          "420100034395023",
          "420100034395024",
          "420100034395025",
          "420100024335011",
          "420100034395027",
          "420100034395028",
          "420100034395029",
          "420100034395002",
          "420100034395003",
          "420100024404008",
          "420100024404009",
          "420100034395006",
          "420100034395007",
          "420100034395008",
          "420100034395009",
          "420100034395010",
          "420100034395011",
          "420100034395012",
          "420100034395013",
          "420100034395014",
          "420100034395015",
          "420100034395016"
        ]
      ]
    },
    {
      "id": "4201-5",
      "operatorId": "4201",
      "operatorName": "武汉地铁",
      "lineId": "5",
      "lineName": "5号线",
      "color": "#B85A4E",
      "loop": false,
      "stations": [
        {
          "id": "900000068659027",
          "stationId": "900000068659027",
          "nameZh": "红霞",
          "nameEn": "Hongxia",
          "target": "hongxia",
          "pinyin": "hongxia",
          "lat": 30.430968,
          "lon": 114.261845,
          "sequence": 1
        },
        {
          "id": "900000068659028",
          "stationId": "900000068659028",
          "nameZh": "黄家湖(武科大)",
          "nameEn": "Huangjiahu (wukeda)",
          "target": "huangjiahu wukeda",
          "pinyin": "huangjiahuwukeda",
          "lat": 30.443094,
          "lon": 114.262835,
          "sequence": 2
        },
        {
          "id": "900000068659001",
          "stationId": "900000068659001",
          "nameZh": "中医药大学",
          "nameEn": "Zhongyiyao Daxue",
          "target": "zhongyiyao daxue",
          "pinyin": "zhongyiyaodaxue",
          "lat": 30.453717,
          "lon": 114.268778,
          "sequence": 3
        },
        {
          "id": "900000068659002",
          "stationId": "900000068659002",
          "nameZh": "白沙六路",
          "nameEn": "Baisha Liu Lu",
          "target": "baisha liu lu",
          "pinyin": "baishaliulu",
          "lat": 30.468726,
          "lon": 114.293232,
          "sequence": 4
        },
        {
          "id": "900000068659003",
          "stationId": "900000068659003",
          "nameZh": "光霞",
          "nameEn": "Guangxia",
          "target": "guangxia",
          "pinyin": "guangxia",
          "lat": 30.478528,
          "lon": 114.293047,
          "sequence": 5
        },
        {
          "id": "900000068659004",
          "stationId": "900000068659004",
          "nameZh": "张家湾",
          "nameEn": "Zhangjiawan",
          "target": "zhangjiawan",
          "pinyin": "zhangjiawan",
          "lat": 30.495453,
          "lon": 114.29331,
          "sequence": 6
        },
        {
          "id": "900000068659006",
          "stationId": "900000068659006",
          "nameZh": "烽火村",
          "nameEn": "Fenghuocun",
          "target": "fenghuocun",
          "pinyin": "fenghuocun",
          "lat": 30.509093,
          "lon": 114.298051,
          "sequence": 7
        },
        {
          "id": "900000068659007",
          "stationId": "900000068659007",
          "nameZh": "八铺街",
          "nameEn": "Bapu Jie",
          "target": "bapu jie",
          "pinyin": "bapujie",
          "lat": 30.520002,
          "lon": 114.300559,
          "sequence": 8
        },
        {
          "id": "420100034395028",
          "stationId": "420100034395028",
          "nameZh": "复兴路",
          "nameEn": "Fuxing Lu",
          "target": "fuxing lu",
          "pinyin": "fuxinglu",
          "lat": 30.534309,
          "lon": 114.301225,
          "sequence": 9
        },
        {
          "id": "900000068659009",
          "stationId": "900000068659009",
          "nameZh": "彭刘杨",
          "nameEn": "Pengliuyang",
          "target": "pengliuyang",
          "pinyin": "pengliuyang",
          "lat": 30.541015,
          "lon": 114.30138,
          "sequence": 10
        },
        {
          "id": "900000068659010",
          "stationId": "900000068659010",
          "nameZh": "司门口黄鹤楼",
          "nameEn": "Simenkou Huanghelou",
          "target": "simenkou huanghelou",
          "pinyin": "simenkouhuanghelou",
          "lat": 30.546913,
          "lon": 114.302501,
          "sequence": 11
        },
        {
          "id": "900000068659011",
          "stationId": "900000068659011",
          "nameZh": "昙华林武胜门",
          "nameEn": "Tanhualin Wushengmen",
          "target": "tanhualin wushengmen",
          "pinyin": "tanhualinwushengmen",
          "lat": 30.554209,
          "lon": 114.305282,
          "sequence": 12
        },
        {
          "id": "420100024404012",
          "stationId": "420100024404012",
          "nameZh": "积玉桥",
          "nameEn": "Jiyuqiao",
          "target": "jiyuqiao",
          "pinyin": "jiyuqiao",
          "lat": 30.561284,
          "lon": 114.308679,
          "sequence": 13
        },
        {
          "id": "900000068659013",
          "stationId": "900000068659013",
          "nameZh": "三层楼",
          "nameEn": "Sanceng Lou",
          "target": "sanceng lou",
          "pinyin": "sancenglou",
          "lat": 30.569462,
          "lon": 114.314532,
          "sequence": 14
        },
        {
          "id": "900000068659014",
          "stationId": "900000068659014",
          "nameZh": "三角路",
          "nameEn": "Sanjiao Lu",
          "target": "sanjiao lu",
          "pinyin": "sanjiaolu",
          "lat": 30.58134,
          "lon": 114.325308,
          "sequence": 15
        },
        {
          "id": "900000044147008",
          "stationId": "900000044147008",
          "nameZh": "徐家棚",
          "nameEn": "Xujiapeng",
          "target": "xujiapeng",
          "pinyin": "xujiapeng",
          "lat": 30.588494,
          "lon": 114.332095,
          "sequence": 16
        },
        {
          "id": "900000068659016",
          "stationId": "900000068659016",
          "nameZh": "杨园铁四院",
          "nameEn": "Yangyuan Tiesiyuan",
          "target": "yangyuan tiesiyuan",
          "pinyin": "yangyuantiesiyuan",
          "lat": 30.599653,
          "lon": 114.342932,
          "sequence": 17
        },
        {
          "id": "900000068659017",
          "stationId": "900000068659017",
          "nameZh": "余家头",
          "nameEn": "Yujiatou",
          "target": "yujiatou",
          "pinyin": "yujiatou",
          "lat": 30.608032,
          "lon": 114.352171,
          "sequence": 18
        },
        {
          "id": "900000068659018",
          "stationId": "900000068659018",
          "nameZh": "科普公园",
          "nameEn": "Kepu Gongyuan",
          "target": "kepu gongyuan",
          "pinyin": "kepugongyuan",
          "lat": 30.617733,
          "lon": 114.364928,
          "sequence": 19
        },
        {
          "id": "900000068659019",
          "stationId": "900000068659019",
          "nameZh": "建设二路",
          "nameEn": "Jianshe Erlu",
          "target": "jianshe erlu",
          "pinyin": "jiansheerlu",
          "lat": 30.624951,
          "lon": 114.376403,
          "sequence": 20
        },
        {
          "id": "900000068659020",
          "stationId": "900000068659020",
          "nameZh": "和平公园",
          "nameEn": "Heping Gongyuan",
          "target": "heping gongyuan",
          "pinyin": "hepinggongyuan",
          "lat": 30.631463,
          "lon": 114.386836,
          "sequence": 21
        },
        {
          "id": "900000068659021",
          "stationId": "900000068659021",
          "nameZh": "红钢城",
          "nameEn": "Honggangcheng",
          "target": "honggangcheng",
          "pinyin": "honggangcheng",
          "lat": 30.639088,
          "lon": 114.401431,
          "sequence": 22
        },
        {
          "id": "900000068659022",
          "stationId": "900000068659022",
          "nameZh": "青宜居",
          "nameEn": "Qingyiju",
          "target": "qingyiju",
          "pinyin": "qingyiju",
          "lat": 30.642611,
          "lon": 114.41955,
          "sequence": 23
        },
        {
          "id": "900000068659023",
          "stationId": "900000068659023",
          "nameZh": "工人村",
          "nameEn": "Gongrencun",
          "target": "gongrencun",
          "pinyin": "gongrencun",
          "lat": 30.631836,
          "lon": 114.425801,
          "sequence": 24
        },
        {
          "id": "900000068659024",
          "stationId": "900000068659024",
          "nameZh": "武钢",
          "nameEn": "Wugang",
          "target": "wugang",
          "pinyin": "wugang",
          "lat": 30.618931,
          "lon": 114.437232,
          "sequence": 25
        },
        {
          "id": "900000068659025",
          "stationId": "900000068659025",
          "nameZh": "厂前",
          "nameEn": "Changqian",
          "target": "changqian",
          "pinyin": "changqian",
          "lat": 30.611409,
          "lon": 114.434239,
          "sequence": 26
        },
        {
          "id": "900000068659026",
          "stationId": "900000068659026",
          "nameZh": "武汉站东广场",
          "nameEn": "Wuhan Zhandong Guangchang",
          "target": "wuhan zhandong guangchang",
          "pinyin": "wuhanzhandongguangchang",
          "lat": 30.606713,
          "lon": 114.426897,
          "sequence": 27
        }
      ],
      "segments": [
        [
          "900000068659027",
          "900000068659028",
          "900000068659001",
          "900000068659002",
          "900000068659003",
          "900000068659004",
          "900000068659006",
          "900000068659007",
          "420100034395028",
          "900000068659009",
          "900000068659010",
          "900000068659011",
          "420100024404012",
          "900000068659013",
          "900000068659014",
          "900000044147008",
          "900000068659016",
          "900000068659017",
          "900000068659018",
          "900000068659019",
          "900000068659020",
          "900000068659021",
          "900000068659022",
          "900000068659023",
          "900000068659024",
          "900000068659025",
          "900000068659026"
        ]
      ]
    },
    {
      "id": "4201-6",
      "operatorId": "4201",
      "operatorName": "武汉地铁",
      "lineId": "6",
      "lineName": "6号线",
      "color": "#018237",
      "loop": false,
      "stations": [
        {
          "id": "420100024335033",
          "stationId": "420100024335033",
          "nameZh": "新城十一路",
          "nameEn": "Xincheng Shiyi Lu",
          "target": "xincheng shiyi lu",
          "pinyin": "xinchengshiyilu",
          "lat": 30.632773,
          "lon": 114.109439,
          "sequence": 1
        },
        {
          "id": "420100024335032",
          "stationId": "420100024335032",
          "nameZh": "码头潭公园",
          "nameEn": "Matoutan Gongyuan",
          "target": "matoutan gongyuan",
          "pinyin": "matoutangongyuan",
          "lat": 30.631684,
          "lon": 114.123644,
          "sequence": 2
        },
        {
          "id": "420100024335031",
          "stationId": "420100024335031",
          "nameZh": "五环体育中心",
          "nameEn": "Wuhuan Tiyu Zhongxin",
          "target": "wuhuan tiyu zhongxin",
          "pinyin": "wuhuantiyuzhongxin",
          "lat": 30.634026,
          "lon": 114.136902,
          "sequence": 3
        },
        {
          "id": "420100024335030",
          "stationId": "420100024335030",
          "nameZh": "二雅路",
          "nameEn": "Erya Lu",
          "target": "erya lu",
          "pinyin": "eryalu",
          "lat": 30.633044,
          "lon": 114.153009,
          "sequence": 4
        },
        {
          "id": "420100024335029",
          "stationId": "420100024335029",
          "nameZh": "海口三路",
          "nameEn": "Haikou San Lu",
          "target": "haikou san lu",
          "pinyin": "haikousanlu",
          "lat": 30.634344,
          "lon": 114.167486,
          "sequence": 5
        },
        {
          "id": "420100024335028",
          "stationId": "420100024335028",
          "nameZh": "金银湖公园",
          "nameEn": "Jin Yin Hu Gong Yuan",
          "target": "jin yin hu gong yuan",
          "pinyin": "jinyinhugongyuan",
          "lat": 30.636899,
          "lon": 114.180894,
          "sequence": 6
        },
        {
          "id": "420100024335027",
          "stationId": "420100024335027",
          "nameZh": "金银湖",
          "nameEn": "Jinyinhu",
          "target": "jinyinhu",
          "pinyin": "jinyinhu",
          "lat": 30.639308,
          "lon": 114.204948,
          "sequence": 7
        },
        {
          "id": "420100024335026",
          "stationId": "420100024335026",
          "nameZh": "园博园北",
          "nameEn": "Yuanboyuanbei",
          "target": "yuanboyuanbei",
          "pinyin": "yuanboyuanbei",
          "lat": 30.63799,
          "lon": 114.222603,
          "sequence": 8
        },
        {
          "id": "420100024335025",
          "stationId": "420100024335025",
          "nameZh": "轻工大学",
          "nameEn": "Qinggong Daxue",
          "target": "qinggong daxue",
          "pinyin": "qinggongdaxue",
          "lat": 30.63968,
          "lon": 114.234406,
          "sequence": 9
        },
        {
          "id": "420100024335024",
          "stationId": "420100024335024",
          "nameZh": "常青花园",
          "nameEn": "Chang Qing Hua Yuan",
          "target": "chang qing hua yuan",
          "pinyin": "changqinghuayuan",
          "lat": 30.640564,
          "lon": 114.242435,
          "sequence": 10
        },
        {
          "id": "420100024335023",
          "stationId": "420100024335023",
          "nameZh": "杨汊湖",
          "nameEn": "Yangchahu",
          "target": "yangchahu",
          "pinyin": "yangchahu",
          "lat": 30.635814,
          "lon": 114.261081,
          "sequence": 11
        },
        {
          "id": "420100024335022",
          "stationId": "420100024335022",
          "nameZh": "石桥",
          "nameEn": "Shiqiao",
          "target": "shiqiao",
          "pinyin": "shiqiao",
          "lat": 30.630637,
          "lon": 114.265265,
          "sequence": 12
        },
        {
          "id": "420100024335021",
          "stationId": "420100024335021",
          "nameZh": "唐家墩",
          "nameEn": "Tangjiadun",
          "target": "tangjiadun",
          "pinyin": "tangjiadun",
          "lat": 30.617653,
          "lon": 114.271276,
          "sequence": 13
        },
        {
          "id": "420100024335020",
          "stationId": "420100024335020",
          "nameZh": "三眼桥",
          "nameEn": "Sanyanqiao",
          "target": "sanyanqiao",
          "pinyin": "sanyanqiao",
          "lat": 30.610324,
          "lon": 114.275743,
          "sequence": 14
        },
        {
          "id": "420100024331010",
          "stationId": "420100024331010",
          "nameZh": "香港路",
          "nameEn": "Xiang Gang Lu",
          "target": "xiang gang lu",
          "pinyin": "xiangganglu",
          "lat": 30.605235,
          "lon": 114.284769,
          "sequence": 15
        },
        {
          "id": "420100024335018",
          "stationId": "420100024335018",
          "nameZh": "苗栗路",
          "nameEn": "Miao Li Lu",
          "target": "miao li lu",
          "pinyin": "miaolilu",
          "lat": 30.598804,
          "lon": 114.289952,
          "sequence": 16
        },
        {
          "id": "420100024335017",
          "stationId": "420100024335017",
          "nameZh": "大智路",
          "nameEn": "Da Zhi Lu",
          "target": "da zhi lu",
          "pinyin": "dazhilu",
          "lat": 30.592581,
          "lon": 114.295038,
          "sequence": 17
        },
        {
          "id": "420100024335016",
          "stationId": "420100024335016",
          "nameZh": "江汉路",
          "nameEn": "Jiang Han Lu",
          "target": "jiang han lu",
          "pinyin": "jianghanlu",
          "lat": 30.579581,
          "lon": 114.292306,
          "sequence": 18
        },
        {
          "id": "420100024335015",
          "stationId": "420100024335015",
          "nameZh": "六渡桥",
          "nameEn": "Liu Du Qiao",
          "target": "liu du qiao",
          "pinyin": "liuduqiao",
          "lat": 30.574991,
          "lon": 114.28427,
          "sequence": 19
        },
        {
          "id": "420100024335014",
          "stationId": "420100024335014",
          "nameZh": "汉正街",
          "nameEn": "Han Zheng Jie",
          "target": "han zheng jie",
          "pinyin": "hanzhengjie",
          "lat": 30.571218,
          "lon": 114.274677,
          "sequence": 20
        },
        {
          "id": "420100024335013",
          "stationId": "420100024335013",
          "nameZh": "武胜路",
          "nameEn": "Wu Sheng Lu",
          "target": "wu sheng lu",
          "pinyin": "wushenglu",
          "lat": 30.569459,
          "lon": 114.268958,
          "sequence": 21
        },
        {
          "id": "420100024335012",
          "stationId": "420100024335012",
          "nameZh": "琴台",
          "nameEn": "Qin Tai",
          "target": "qin tai",
          "pinyin": "qintai",
          "lat": 30.557559,
          "lon": 114.266282,
          "sequence": 22
        },
        {
          "id": "420100024335011",
          "stationId": "420100024335011",
          "nameZh": "钟家村",
          "nameEn": "Zhong Jia Cun",
          "target": "zhong jia cun",
          "pinyin": "zhongjiacun",
          "lat": 30.549283,
          "lon": 114.266158,
          "sequence": 23
        },
        {
          "id": "420100024335010",
          "stationId": "420100024335010",
          "nameZh": "马鹦路",
          "nameEn": "Ma Ying Lu",
          "target": "ma ying lu",
          "pinyin": "mayinglu",
          "lat": 30.537882,
          "lon": 114.266799,
          "sequence": 24
        },
        {
          "id": "420100024335009",
          "stationId": "420100024335009",
          "nameZh": "建港",
          "nameEn": "Jian Gang",
          "target": "jian gang",
          "pinyin": "jiangang",
          "lat": 30.526609,
          "lon": 114.259685,
          "sequence": 25
        },
        {
          "id": "420100024335008",
          "stationId": "420100024335008",
          "nameZh": "前进村",
          "nameEn": "Qian Jin Cun",
          "target": "qian jin cun",
          "pinyin": "qianjincun",
          "lat": 30.520144,
          "lon": 114.253366,
          "sequence": 26
        },
        {
          "id": "420100024335007",
          "stationId": "420100024335007",
          "nameZh": "国博中心北",
          "nameEn": "Guo Bo Zhong Xin Bei",
          "target": "guo bo zhong xin bei",
          "pinyin": "guobozhongxinbei",
          "lat": 30.510581,
          "lon": 114.242654,
          "sequence": 27
        },
        {
          "id": "420100024335006",
          "stationId": "420100024335006",
          "nameZh": "国博中心南",
          "nameEn": "Guobo Zhongxin Nan",
          "target": "guobo zhongxin nan",
          "pinyin": "guobozhongxinnan",
          "lat": 30.504431,
          "lon": 114.235797,
          "sequence": 28
        },
        {
          "id": "420100024335005",
          "stationId": "420100024335005",
          "nameZh": "老关村",
          "nameEn": "Laoguancun",
          "target": "laoguancun",
          "pinyin": "laoguancun",
          "lat": 30.49291,
          "lon": 114.225922,
          "sequence": 29
        },
        {
          "id": "420100024335004",
          "stationId": "420100024335004",
          "nameZh": "江城大道",
          "nameEn": "Jiang Cheng Da Dao",
          "target": "jiang cheng da dao",
          "pinyin": "jiangchengdadao",
          "lat": 30.496388,
          "lon": 114.202216,
          "sequence": 30
        },
        {
          "id": "420100024335003",
          "stationId": "420100024335003",
          "nameZh": "车城东路",
          "nameEn": "Che Cheng Dong Lu",
          "target": "che cheng dong lu",
          "pinyin": "chechengdonglu",
          "lat": 30.495551,
          "lon": 114.179988,
          "sequence": 31
        },
        {
          "id": "420100024331024",
          "stationId": "420100024331024",
          "nameZh": "东风公司",
          "nameEn": "Dong Feng Gong Si",
          "target": "dong feng gong si",
          "pinyin": "dongfenggongsi",
          "lat": 30.500107,
          "lon": 114.166088,
          "sequence": 32
        }
      ],
      "segments": [
        [
          "420100024335033",
          "420100024335032",
          "420100024335031",
          "420100024335030",
          "420100024335029",
          "420100024335028",
          "420100024335027",
          "420100024335026",
          "420100024335025",
          "420100024335024",
          "420100024335023",
          "420100024335022",
          "420100024335021",
          "420100024335020",
          "420100024331010",
          "420100024335018",
          "420100024335017",
          "420100024335016",
          "420100024335015",
          "420100024335014",
          "420100024335013",
          "420100024335012",
          "420100024335011",
          "420100024335010",
          "420100024335009",
          "420100024335008",
          "420100024335007",
          "420100024335006",
          "420100024335005",
          "420100024335004",
          "420100024335003",
          "420100024331024"
        ]
      ]
    },
    {
      "id": "4201-7",
      "operatorId": "4201",
      "operatorName": "武汉地铁",
      "lineId": "7",
      "lineName": "7号线",
      "color": "#EE782E",
      "loop": false,
      "stations": [
        {
          "id": "900000044148035",
          "stationId": "900000044148035",
          "nameZh": "黄陂广场",
          "nameEn": "Huangpi Guangchang",
          "target": "huangpi guangchang",
          "pinyin": "huangpiguangchang",
          "lat": 30.880839,
          "lon": 114.378753,
          "sequence": 1
        },
        {
          "id": "900000044148036",
          "stationId": "900000044148036",
          "nameZh": "百泰路",
          "nameEn": "Baitai Lu",
          "target": "baitai lu",
          "pinyin": "baitailu",
          "lat": 30.883566,
          "lon": 114.358958,
          "sequence": 2
        },
        {
          "id": "900000044148037",
          "stationId": "900000044148037",
          "nameZh": "青仔村(轨道产业基地)",
          "nameEn": "Qingzaicun (guidao Chanye Jidi)",
          "target": "qingzaicun guidao chanye jidi",
          "pinyin": "qingzaicunguidaochanyejidi",
          "lat": 30.882234,
          "lon": 114.332813,
          "sequence": 3
        },
        {
          "id": "900000044148028",
          "stationId": "900000044148028",
          "nameZh": "横店",
          "nameEn": "Hengdian",
          "target": "hengdian",
          "pinyin": "hengdian",
          "lat": 30.804287,
          "lon": 114.289753,
          "sequence": 4
        },
        {
          "id": "900000044148029",
          "stationId": "900000044148029",
          "nameZh": "裕福路",
          "nameEn": "Yufu Lu",
          "target": "yufu lu",
          "pinyin": "yufulu",
          "lat": 30.785748,
          "lon": 114.278294,
          "sequence": 5
        },
        {
          "id": "900000044148030",
          "stationId": "900000044148030",
          "nameZh": "天阳大道",
          "nameEn": "Tianyang Dadao",
          "target": "tianyang dadao",
          "pinyin": "tianyangdadao",
          "lat": 30.765499,
          "lon": 114.270219,
          "sequence": 6
        },
        {
          "id": "900000044148031",
          "stationId": "900000044148031",
          "nameZh": "腾龙大道",
          "nameEn": "Tenglong Dadao",
          "target": "tenglong dadao",
          "pinyin": "tenglongdadao",
          "lat": 30.727857,
          "lon": 114.259856,
          "sequence": 7
        },
        {
          "id": "420100024404026",
          "stationId": "420100024404026",
          "nameZh": "巨龙大道",
          "nameEn": "Julong Dadao",
          "target": "julong dadao",
          "pinyin": "julongdadao",
          "lat": 30.711596,
          "lon": 114.253845,
          "sequence": 8
        },
        {
          "id": "900000044148033",
          "stationId": "900000044148033",
          "nameZh": "汤云海路",
          "nameEn": "Tangyunhai Lu",
          "target": "tangyunhai lu",
          "pinyin": "tangyunhailu",
          "lat": 30.699759,
          "lon": 114.237858,
          "sequence": 9
        },
        {
          "id": "900000044148034",
          "stationId": "900000044148034",
          "nameZh": "马池",
          "nameEn": "Machi",
          "target": "machi",
          "pinyin": "machi",
          "lat": 30.655554,
          "lon": 114.225407,
          "sequence": 10
        },
        {
          "id": "420100024335026",
          "stationId": "420100024335026",
          "nameZh": "园博园北",
          "nameEn": "Yuanboyuanbei",
          "target": "yuanboyuanbei",
          "pinyin": "yuanboyuanbei",
          "lat": 30.63799,
          "lon": 114.222603,
          "sequence": 11
        },
        {
          "id": "900000044148002",
          "stationId": "900000044148002",
          "nameZh": "园博园",
          "nameEn": "Yuan Bo Yuan",
          "target": "yuan bo yuan",
          "pinyin": "yuanboyuan",
          "lat": 30.618327,
          "lon": 114.225873,
          "sequence": 12
        },
        {
          "id": "900000044148003",
          "stationId": "900000044148003",
          "nameZh": "常码头",
          "nameEn": "Chang Ma Tou",
          "target": "chang ma tou",
          "pinyin": "changmatou",
          "lat": 30.604632,
          "lon": 114.23479,
          "sequence": 13
        },
        {
          "id": "420100024331014",
          "stationId": "420100024331014",
          "nameZh": "武汉商务区",
          "nameEn": "Wu Han Shang Wu Qu",
          "target": "wu han shang wu qu",
          "pinyin": "wuhanshangwuqu",
          "lat": 30.597587,
          "lon": 114.246879,
          "sequence": 14
        },
        {
          "id": "420100024404017",
          "stationId": "420100024404017",
          "nameZh": "王家墩东",
          "nameEn": "Wang Jia Dun Dong",
          "target": "wang jia dun dong",
          "pinyin": "wangjiadundong",
          "lat": 30.594245,
          "lon": 114.263288,
          "sequence": 15
        },
        {
          "id": "900000044148006",
          "stationId": "900000044148006",
          "nameZh": "取水楼",
          "nameEn": "Qu Shui Lou",
          "target": "qu shui lou",
          "pinyin": "qushuilou",
          "lat": 30.597634,
          "lon": 114.274655,
          "sequence": 16
        },
        {
          "id": "420100024331010",
          "stationId": "420100024331010",
          "nameZh": "香港路",
          "nameEn": "Xiang Gang Lu",
          "target": "xiang gang lu",
          "pinyin": "xiangganglu",
          "lat": 30.605235,
          "lon": 114.284769,
          "sequence": 17
        },
        {
          "id": "420100034364020",
          "stationId": "420100034364020",
          "nameZh": "三阳路",
          "nameEn": "San Yang Lu",
          "target": "san yang lu",
          "pinyin": "sanyanglu",
          "lat": 30.598718,
          "lon": 114.301348,
          "sequence": 18
        },
        {
          "id": "900000044147008",
          "stationId": "900000044147008",
          "nameZh": "徐家棚",
          "nameEn": "Xujiapeng",
          "target": "xujiapeng",
          "pinyin": "xujiapeng",
          "lat": 30.588494,
          "lon": 114.332095,
          "sequence": 19
        },
        {
          "id": "900000044148010",
          "stationId": "900000044148010",
          "nameZh": "湖北大学",
          "nameEn": "Hu Bei Da Xue",
          "target": "hu bei da xue",
          "pinyin": "hubeidaxue",
          "lat": 30.577805,
          "lon": 114.32947,
          "sequence": 20
        },
        {
          "id": "900000044148011",
          "stationId": "900000044148011",
          "nameZh": "新河街",
          "nameEn": "Xin He Jie",
          "target": "xin he jie",
          "pinyin": "xinhejie",
          "lat": 30.56256,
          "lon": 114.317111,
          "sequence": 21
        },
        {
          "id": "420100024404011",
          "stationId": "420100024404011",
          "nameZh": "螃蟹岬",
          "nameEn": "Pang Xie Jia",
          "target": "pang xie jia",
          "pinyin": "pangxiejia",
          "lat": 30.553333,
          "lon": 114.317476,
          "sequence": 22
        },
        {
          "id": "900000044148013",
          "stationId": "900000044148013",
          "nameZh": "小东门",
          "nameEn": "Xiao Dong Men",
          "target": "xiao dong men",
          "pinyin": "xiaodongmen",
          "lat": 30.545012,
          "lon": 114.318461,
          "sequence": 23
        },
        {
          "id": "420100034395002",
          "stationId": "420100034395002",
          "nameZh": "武昌火车站",
          "nameEn": "Wu Chang Huo Che Zhan",
          "target": "wu chang huo che zhan",
          "pinyin": "wuchanghuochezhan",
          "lat": 30.530624,
          "lon": 114.316449,
          "sequence": 24
        },
        {
          "id": "900000044148015",
          "stationId": "900000044148015",
          "nameZh": "瑞安街",
          "nameEn": "Rui An Jie",
          "target": "rui an jie",
          "pinyin": "ruianjie",
          "lat": 30.516522,
          "lon": 114.314257,
          "sequence": 25
        },
        {
          "id": "900000044148016",
          "stationId": "900000044148016",
          "nameZh": "建安街",
          "nameEn": "Jian An Jie",
          "target": "jian an jie",
          "pinyin": "jiananjie",
          "lat": 30.504025,
          "lon": 114.313759,
          "sequence": 26
        },
        {
          "id": "900000044148017",
          "stationId": "900000044148017",
          "nameZh": "湖工大",
          "nameEn": "Hu Gong Da",
          "target": "hu gong da",
          "pinyin": "hugongda",
          "lat": 30.483656,
          "lon": 114.313384,
          "sequence": 27
        },
        {
          "id": "900000044148020",
          "stationId": "900000044148020",
          "nameZh": "板桥",
          "nameEn": "Ban Qiao",
          "target": "ban qiao",
          "pinyin": "banqiao",
          "lat": 30.474294,
          "lon": 114.313464,
          "sequence": 28
        },
        {
          "id": "900000044147024",
          "stationId": "900000044147024",
          "nameZh": "野芷湖",
          "nameEn": "Yezhihu",
          "target": "yezhihu",
          "pinyin": "yezhihu",
          "lat": 30.460928,
          "lon": 114.319502,
          "sequence": 29
        },
        {
          "id": "900000044148021",
          "stationId": "900000044148021",
          "nameZh": "新路村",
          "nameEn": "Xin Lu Cun",
          "target": "xin lu cun",
          "pinyin": "xinlucun",
          "lat": 30.441596,
          "lon": 114.318411,
          "sequence": 30
        },
        {
          "id": "900000044148022",
          "stationId": "900000044148022",
          "nameZh": "大花岭",
          "nameEn": "Da Hua Ling",
          "target": "da hua ling",
          "pinyin": "dahualing",
          "lat": 30.412329,
          "lon": 114.320107,
          "sequence": 31
        },
        {
          "id": "900000044148023",
          "stationId": "900000044148023",
          "nameZh": "江夏客厅",
          "nameEn": "Jiang Xia Ke Ting",
          "target": "jiang xia ke ting",
          "pinyin": "jiangxiaketing",
          "lat": 30.389156,
          "lon": 114.321746,
          "sequence": 32
        },
        {
          "id": "900000044148024",
          "stationId": "900000044148024",
          "nameZh": "谭鑫培公园",
          "nameEn": "Tan Xin Pei Gong Yuan",
          "target": "tan xin pei gong yuan",
          "pinyin": "tanxinpeigongyuan",
          "lat": 30.370536,
          "lon": 114.322041,
          "sequence": 33
        },
        {
          "id": "900000044148025",
          "stationId": "900000044148025",
          "nameZh": "北华街",
          "nameEn": "Bei Hua Jie",
          "target": "bei hua jie",
          "pinyin": "beihuajie",
          "lat": 30.3581,
          "lon": 114.323569,
          "sequence": 34
        },
        {
          "id": "900000044148026",
          "stationId": "900000044148026",
          "nameZh": "纸坊大街",
          "nameEn": "Zhi Fang Da Jie",
          "target": "zhi fang da jie",
          "pinyin": "zhifangdajie",
          "lat": 30.344775,
          "lon": 114.324577,
          "sequence": 35
        },
        {
          "id": "900000044148027",
          "stationId": "900000044148027",
          "nameZh": "青龙山地铁小镇",
          "nameEn": "Qing Long Shan Di Tie Xiao Zhen",
          "target": "qing long shan di tie xiao zhen",
          "pinyin": "qinglongshanditiexiaozhen",
          "lat": 30.3188,
          "lon": 114.334041,
          "sequence": 36
        }
      ],
      "segments": [
        [
          "900000044148035",
          "900000044148036",
          "900000044148037",
          "900000044148028",
          "900000044148029",
          "900000044148030",
          "900000044148031",
          "420100024404026",
          "900000044148033",
          "900000044148034",
          "420100024335026",
          "900000044148002",
          "900000044148003",
          "420100024331014",
          "420100024404017",
          "900000044148006",
          "420100024331010",
          "420100034364020",
          "900000044147008",
          "900000044148010",
          "900000044148011",
          "420100024404011",
          "900000044148013",
          "420100034395002",
          "900000044148015",
          "900000044148016",
          "900000044148017",
          "900000044148020",
          "900000044147024",
          "900000044148021",
          "900000044148022",
          "900000044148023",
          "900000044148024",
          "900000044148025",
          "900000044148026",
          "900000044148027"
        ]
      ]
    },
    {
      "id": "4201-8",
      "operatorId": "4201",
      "operatorName": "武汉地铁",
      "lineId": "8",
      "lineName": "8号线",
      "color": "#99ADAC",
      "loop": false,
      "stations": [
        {
          "id": "900000044147001",
          "stationId": "900000044147001",
          "nameZh": "金潭路",
          "nameEn": "Jin Tan Lu",
          "target": "jin tan lu",
          "pinyin": "jintanlu",
          "lat": 30.6772,
          "lon": 114.28404,
          "sequence": 1
        },
        {
          "id": "420100024331002",
          "stationId": "420100024331002",
          "nameZh": "宏图大道",
          "nameEn": "Hong Tu Da Dao",
          "target": "hong tu da dao",
          "pinyin": "hongtudadao",
          "lat": 30.670353,
          "lon": 114.277759,
          "sequence": 2
        },
        {
          "id": "900000044147003",
          "stationId": "900000044147003",
          "nameZh": "塔子湖",
          "nameEn": "Ta Zi Hu",
          "target": "ta zi hu",
          "pinyin": "tazihu",
          "lat": 30.652594,
          "lon": 114.280364,
          "sequence": 3
        },
        {
          "id": "900000044147004",
          "stationId": "900000044147004",
          "nameZh": "中一路",
          "nameEn": "Zhong Yi Lu",
          "target": "zhong yi lu",
          "pinyin": "zhongyilu",
          "lat": 30.639903,
          "lon": 114.281162,
          "sequence": 4
        },
        {
          "id": "900000044147005",
          "stationId": "900000044147005",
          "nameZh": "竹叶山",
          "nameEn": "Zhuye Shan",
          "target": "zhuye shan",
          "pinyin": "zhuyeshan",
          "lat": 30.625318,
          "lon": 114.287104,
          "sequence": 5
        },
        {
          "id": "420100024331008",
          "stationId": "420100024331008",
          "nameZh": "赵家条",
          "nameEn": "Zhao Jia Tiao",
          "target": "zhao jia tiao",
          "pinyin": "zhaojiatiao",
          "lat": 30.617866,
          "lon": 114.297076,
          "sequence": 6
        },
        {
          "id": "420100034364021",
          "stationId": "420100034364021",
          "nameZh": "黄浦路",
          "nameEn": "Huang Pu Lu",
          "target": "huang pu lu",
          "pinyin": "huangpulu",
          "lat": 30.608404,
          "lon": 114.308156,
          "sequence": 7
        },
        {
          "id": "900000044147008",
          "stationId": "900000044147008",
          "nameZh": "徐家棚",
          "nameEn": "Xujiapeng",
          "target": "xujiapeng",
          "pinyin": "xujiapeng",
          "lat": 30.588494,
          "lon": 114.332095,
          "sequence": 8
        },
        {
          "id": "900000044147012",
          "stationId": "900000044147012",
          "nameZh": "徐东",
          "nameEn": "Xu Dong",
          "target": "xu dong",
          "pinyin": "xudong",
          "lat": 30.587975,
          "lon": 114.346233,
          "sequence": 9
        },
        {
          "id": "900000044147009",
          "stationId": "900000044147009",
          "nameZh": "汪家墩",
          "nameEn": "Wangjiadun",
          "target": "wangjiadun",
          "pinyin": "wangjiadun",
          "lat": 30.585167,
          "lon": 114.350076,
          "sequence": 10
        },
        {
          "id": "420100034395009",
          "stationId": "420100034395009",
          "nameZh": "岳家嘴",
          "nameEn": "Yue Jia Zui",
          "target": "yue jia zui",
          "pinyin": "yuejiazui",
          "lat": 30.577109,
          "lon": 114.36201,
          "sequence": 11
        },
        {
          "id": "900000044147011",
          "stationId": "900000044147011",
          "nameZh": "梨园",
          "nameEn": "Li Yuan",
          "target": "li yuan",
          "pinyin": "liyuan",
          "lat": 30.574832,
          "lon": 114.370081,
          "sequence": 12
        },
        {
          "id": "900000044147013",
          "stationId": "900000044147013",
          "nameZh": "省博湖北日报",
          "nameEn": "Shengbo Hubei Ribao",
          "target": "shengbo hubei ribao",
          "pinyin": "shengbohubeiribao",
          "lat": 30.564871,
          "lon": 114.365294,
          "sequence": 13
        },
        {
          "id": "900000044147014",
          "stationId": "900000044147014",
          "nameZh": "中南医院",
          "nameEn": "Zhongnan Yiyuan",
          "target": "zhongnan yiyuan",
          "pinyin": "zhongnanyiyuan",
          "lat": 30.556807,
          "lon": 114.357089,
          "sequence": 14
        },
        {
          "id": "900000044147015",
          "stationId": "900000044147015",
          "nameZh": "水果湖",
          "nameEn": "Shuiguohu",
          "target": "shuiguohu",
          "pinyin": "shuiguohu",
          "lat": 30.551863,
          "lon": 114.346346,
          "sequence": 15
        },
        {
          "id": "900000044147016",
          "stationId": "900000044147016",
          "nameZh": "洪山路",
          "nameEn": "Hongshan Lu",
          "target": "hongshan lu",
          "pinyin": "hongshanlu",
          "lat": 30.545492,
          "lon": 114.343812,
          "sequence": 16
        },
        {
          "id": "900000044147017",
          "stationId": "900000044147017",
          "nameZh": "小洪山",
          "nameEn": "Xiao Hongshan",
          "target": "xiao hongshan",
          "pinyin": "xiaohongshan",
          "lat": 30.53561,
          "lon": 114.352367,
          "sequence": 17
        },
        {
          "id": "420100024404006",
          "stationId": "420100024404006",
          "nameZh": "街道口",
          "nameEn": "Jiedao Kou",
          "target": "jiedao kou",
          "pinyin": "jiedaokou",
          "lat": 30.526597,
          "lon": 114.353503,
          "sequence": 18
        },
        {
          "id": "900000044147019",
          "stationId": "900000044147019",
          "nameZh": "马房山",
          "nameEn": "Ma Fangshan",
          "target": "ma fangshan",
          "pinyin": "mafangshan",
          "lat": 30.514069,
          "lon": 114.348079,
          "sequence": 19
        },
        {
          "id": "900000044147020",
          "stationId": "900000044147020",
          "nameZh": "文治街",
          "nameEn": "Wenzhi Jie",
          "target": "wenzhi jie",
          "pinyin": "wenzhijie",
          "lat": 30.49999,
          "lon": 114.344226,
          "sequence": 20
        },
        {
          "id": "900000044147021",
          "stationId": "900000044147021",
          "nameZh": "文昌路",
          "nameEn": "Wenchang Lu",
          "target": "wenchang lu",
          "pinyin": "wenchanglu",
          "lat": 30.492013,
          "lon": 114.329911,
          "sequence": 21
        },
        {
          "id": "900000044147022",
          "stationId": "900000044147022",
          "nameZh": "省农科院",
          "nameEn": "Sheng Nongkeyuan",
          "target": "sheng nongkeyuan",
          "pinyin": "shengnongkeyuan",
          "lat": 30.481799,
          "lon": 114.325808,
          "sequence": 22
        },
        {
          "id": "900000044147023",
          "stationId": "900000044147023",
          "nameZh": "马湖",
          "nameEn": "Mahu",
          "target": "mahu",
          "pinyin": "mahu",
          "lat": 30.471754,
          "lon": 114.32504,
          "sequence": 23
        },
        {
          "id": "900000044147024",
          "stationId": "900000044147024",
          "nameZh": "野芷湖",
          "nameEn": "Yezhihu",
          "target": "yezhihu",
          "pinyin": "yezhihu",
          "lat": 30.460928,
          "lon": 114.319502,
          "sequence": 24
        },
        {
          "id": "900000044147025",
          "stationId": "900000044147025",
          "nameZh": "黄家湖地铁小镇",
          "nameEn": "Huangjiahu Ditie Xiaozhen",
          "target": "huangjiahu ditie xiaozhen",
          "pinyin": "huangjiahuditiexiaozhen",
          "lat": 30.436741,
          "lon": 114.298049,
          "sequence": 25
        },
        {
          "id": "900000044147026",
          "stationId": "900000044147026",
          "nameZh": "军运村",
          "nameEn": "Junyuncun",
          "target": "junyuncun",
          "pinyin": "junyuncun",
          "lat": 30.427348,
          "lon": 114.295024,
          "sequence": 26
        }
      ],
      "segments": [
        [
          "900000044147001",
          "420100024331002",
          "900000044147003",
          "900000044147004",
          "900000044147005",
          "420100024331008",
          "420100034364021",
          "900000044147008",
          "900000044147012",
          "900000044147009",
          "420100034395009",
          "900000044147011",
          "900000044147013",
          "900000044147014",
          "900000044147015",
          "900000044147016",
          "900000044147017",
          "420100024404006",
          "900000044147019",
          "900000044147020",
          "900000044147021",
          "900000044147022",
          "900000044147023",
          "900000044147024",
          "900000044147025",
          "900000044147026"
        ]
      ]
    },
    {
      "id": "4201-11",
      "operatorId": "4201",
      "operatorName": "武汉地铁",
      "lineId": "11",
      "lineName": "11号线",
      "color": "#FCD600",
      "loop": false,
      "stations": [
        {
          "id": "900000073743015",
          "stationId": "900000073743015",
          "nameZh": "江安路",
          "nameEn": "Jiangan Lu",
          "target": "jiangan lu",
          "pinyin": "jianganlu",
          "lat": 30.518833,
          "lon": 114.293411,
          "sequence": 1
        },
        {
          "id": "900000073743016",
          "stationId": "900000073743016",
          "nameZh": "紫阳湖",
          "nameEn": "Ziyanghu",
          "target": "ziyanghu",
          "pinyin": "ziyanghu",
          "lat": 30.52794,
          "lon": 114.301175,
          "sequence": 2
        },
        {
          "id": "900000073743017",
          "stationId": "900000073743017",
          "nameZh": "武昌站东广场",
          "nameEn": "Wuchang Zhandong Guangchang",
          "target": "wuchang zhandong guangchang",
          "pinyin": "wuchangzhandongguangchang",
          "lat": 30.528977,
          "lon": 114.32224,
          "sequence": 3
        },
        {
          "id": "900000073743018",
          "stationId": "900000073743018",
          "nameZh": "丁字桥",
          "nameEn": "Dingzi Qiao",
          "target": "dingzi qiao",
          "pinyin": "dingziqiao",
          "lat": 30.521467,
          "lon": 114.33093,
          "sequence": 4
        },
        {
          "id": "900000044147019",
          "stationId": "900000044147019",
          "nameZh": "马房山",
          "nameEn": "Ma Fangshan",
          "target": "ma fangshan",
          "pinyin": "mafangshan",
          "lat": 30.514069,
          "lon": 114.348079,
          "sequence": 5
        },
        {
          "id": "420100024404004",
          "stationId": "420100024404004",
          "nameZh": "虎泉",
          "nameEn": "Huquan",
          "target": "huquan",
          "pinyin": "huquan",
          "lat": 30.512359,
          "lon": 114.370478,
          "sequence": 6
        },
        {
          "id": "900000073743021",
          "stationId": "900000073743021",
          "nameZh": "武汉体育学院",
          "nameEn": "Wuhan Tiyu Xueyuan",
          "target": "wuhan tiyu xueyuan",
          "pinyin": "wuhantiyuxueyuan",
          "lat": 30.516978,
          "lon": 114.37946,
          "sequence": 7
        },
        {
          "id": "420100024404002",
          "stationId": "420100024404002",
          "nameZh": "光谷广场",
          "nameEn": "Guanggu Guangchang",
          "target": "guanggu guangchang",
          "pinyin": "guangguguangchang",
          "lat": 30.506016,
          "lon": 114.398936,
          "sequence": 8
        },
        {
          "id": "900000073743023",
          "stationId": "900000073743023",
          "nameZh": "关山大道",
          "nameEn": "Guanshan Dadao",
          "target": "guanshan dadao",
          "pinyin": "guanshandadao",
          "lat": 30.497038,
          "lon": 114.413429,
          "sequence": 9
        },
        {
          "id": "420100024404035",
          "stationId": "420100024404035",
          "nameZh": "武汉东站",
          "nameEn": "Wuhan Dongzhan",
          "target": "wuhan dongzhan",
          "pinyin": "wuhandongzhan",
          "lat": 30.486956,
          "lon": 114.431755,
          "sequence": 10
        },
        {
          "id": "900000073743002",
          "stationId": "900000073743002",
          "nameZh": "湖口",
          "nameEn": "Hukou",
          "target": "hukou",
          "pinyin": "hukou",
          "lat": 30.487938,
          "lon": 114.448734,
          "sequence": 11
        },
        {
          "id": "900000073743003",
          "stationId": "900000073743003",
          "nameZh": "光谷同济医院",
          "nameEn": "Guanggu Tongji Yiyuan",
          "target": "guanggu tongji yiyuan",
          "pinyin": "guanggutongjiyiyuan",
          "lat": 30.485267,
          "lon": 114.466409,
          "sequence": 12
        },
        {
          "id": "900000073743004",
          "stationId": "900000073743004",
          "nameZh": "光谷生物园",
          "nameEn": "Guanggu Shengwu Yuan",
          "target": "guanggu shengwu yuan",
          "pinyin": "guanggushengwuyuan",
          "lat": 30.48761,
          "lon": 114.481231,
          "sequence": 13
        },
        {
          "id": "900000073743005",
          "stationId": "900000073743005",
          "nameZh": "光谷四路",
          "nameEn": "Guanggu Si Lu",
          "target": "guanggu si lu",
          "pinyin": "guanggusilu",
          "lat": 30.489155,
          "lon": 114.492018,
          "sequence": 14
        },
        {
          "id": "900000073743006",
          "stationId": "900000073743006",
          "nameZh": "光谷五路",
          "nameEn": "Guanggu Wu Lu",
          "target": "guanggu wu lu",
          "pinyin": "guangguwulu",
          "lat": 30.485101,
          "lon": 114.502876,
          "sequence": 15
        },
        {
          "id": "900000073743007",
          "stationId": "900000073743007",
          "nameZh": "光谷六路",
          "nameEn": "Guanggu Liu Lu",
          "target": "guanggu liu lu",
          "pinyin": "guangguliulu",
          "lat": 30.485028,
          "lon": 114.512862,
          "sequence": 16
        },
        {
          "id": "900000073743008",
          "stationId": "900000073743008",
          "nameZh": "豹澥",
          "nameEn": "Baoxie",
          "target": "baoxie",
          "pinyin": "baoxie",
          "lat": 30.488736,
          "lon": 114.522905,
          "sequence": 17
        },
        {
          "id": "900000073743009",
          "stationId": "900000073743009",
          "nameZh": "光谷七路",
          "nameEn": "Guanggu Qi Lu",
          "target": "guanggu qi lu",
          "pinyin": "guangguqilu",
          "lat": 30.488447,
          "lon": 114.534098,
          "sequence": 18
        },
        {
          "id": "900000073743010",
          "stationId": "900000073743010",
          "nameZh": "长岭山",
          "nameEn": "Changling Shan",
          "target": "changling shan",
          "pinyin": "changlingshan",
          "lat": 30.487628,
          "lon": 114.563156,
          "sequence": 19
        },
        {
          "id": "900000073743011",
          "stationId": "900000073743011",
          "nameZh": "未来一路",
          "nameEn": "Weilai Yilu",
          "target": "weilai yilu",
          "pinyin": "weilaiyilu",
          "lat": 30.484577,
          "lon": 114.585145,
          "sequence": 20
        },
        {
          "id": "900000073743012",
          "stationId": "900000073743012",
          "nameZh": "未来三路",
          "nameEn": "Weilai San Lu",
          "target": "weilai san lu",
          "pinyin": "weilaisanlu",
          "lat": 30.48645,
          "lon": 114.605998,
          "sequence": 21
        },
        {
          "id": "900000073743013",
          "stationId": "900000073743013",
          "nameZh": "左岭",
          "nameEn": "Zuoling",
          "target": "zuoling",
          "pinyin": "zuoling",
          "lat": 30.488119,
          "lon": 114.620662,
          "sequence": 22
        },
        {
          "id": "900000073743014",
          "stationId": "900000073743014",
          "nameZh": "葛店南站",
          "nameEn": "Gedian Nanzhan",
          "target": "gedian nanzhan",
          "pinyin": "gediannanzhan",
          "lat": 30.48932,
          "lon": 114.660675,
          "sequence": 23
        }
      ],
      "segments": [
        [
          "900000073743015",
          "900000073743016",
          "900000073743017",
          "900000073743018",
          "900000044147019",
          "420100024404004",
          "900000073743021",
          "420100024404002",
          "900000073743023",
          "420100024404035",
          "900000073743002",
          "900000073743003",
          "900000073743004",
          "900000073743005",
          "900000073743006",
          "900000073743007",
          "900000073743008",
          "900000073743009",
          "900000073743010",
          "900000073743011",
          "900000073743012",
          "900000073743013",
          "900000073743014"
        ]
      ]
    },
    {
      "id": "4201-12",
      "operatorId": "4201",
      "operatorName": "武汉地铁",
      "lineId": "12",
      "lineName": "12号线",
      "color": "#01A2E2",
      "loop": false,
      "stations": [
        {
          "id": "900000078508024",
          "stationId": "900000078508024",
          "nameZh": "墨水湖公园",
          "nameEn": "Moshuihu Gongyuan",
          "target": "moshuihu gongyuan",
          "pinyin": "moshuihugongyuan",
          "lat": 30.549475,
          "lon": 114.213982,
          "sequence": 1
        },
        {
          "id": "900000078508025",
          "stationId": "900000078508025",
          "nameZh": "港口村",
          "nameEn": "Gangkou Cun",
          "target": "gangkou cun",
          "pinyin": "gangkoucun",
          "lat": 30.537657,
          "lon": 114.207398,
          "sequence": 2
        },
        {
          "id": "900000078508034",
          "stationId": "900000078508034",
          "nameZh": "芳草路",
          "nameEn": "Fangcao Lu",
          "target": "fangcao lu",
          "pinyin": "fangcaolu",
          "lat": 30.528261,
          "lon": 114.202145,
          "sequence": 3
        },
        {
          "id": "900000078508035",
          "stationId": "900000078508035",
          "nameZh": "四新中路",
          "nameEn": "Sixin Zhonglu",
          "target": "sixin zhonglu",
          "pinyin": "sixinzhonglu",
          "lat": 30.518765,
          "lon": 114.206062,
          "sequence": 4
        },
        {
          "id": "900000078508026",
          "stationId": "900000078508026",
          "nameZh": "四新南路",
          "nameEn": "Sixin Nanlu",
          "target": "sixin nanlu",
          "pinyin": "sixinnanlu",
          "lat": 30.512824,
          "lon": 114.215734,
          "sequence": 5
        },
        {
          "id": "900000078508036",
          "stationId": "900000078508036",
          "nameZh": "国博新城",
          "nameEn": "Guobo Xincheng",
          "target": "guobo xincheng",
          "pinyin": "guoboxincheng",
          "lat": 30.506961,
          "lon": 114.227197,
          "sequence": 6
        },
        {
          "id": "420100024335006",
          "stationId": "420100024335006",
          "nameZh": "国博中心南",
          "nameEn": "Guobo Zhongxin Nan",
          "target": "guobo zhongxin nan",
          "pinyin": "guobozhongxinnan",
          "lat": 30.504431,
          "lon": 114.235797,
          "sequence": 7
        },
        {
          "id": "900000078508037",
          "stationId": "900000078508037",
          "nameZh": "夹套河",
          "nameEn": "Jiataohe",
          "target": "jiataohe",
          "pinyin": "jiataohe",
          "lat": 30.484012,
          "lon": 114.268577,
          "sequence": 8
        },