{
  "city": "tianjin",
  "cityNameZh": "天津",
  "cityNameEn": "Tianjin",
  "source": "高德地图地铁数据（非官方接口）· 官方英文站名整理自 Wikipedia",
  "generatedAt": "2026-07-14T13:55:03.237Z",
  "lines": [
    {
      "id": "1200-1",
      "operatorId": "1200",
      "operatorName": "天津地铁",
      "lineId": "1",
      "lineName": "1号线",
      "color": "#CC0000",
      "loop": false,
      "stations": [
        {
          "id": "120100021504002",
          "stationId": "120100021504002",
          "nameZh": "刘园",
          "nameEn": "Liu Yuan",
          "target": "liu yuan",
          "pinyin": "liuyuan",
          "lat": 39.207953,
          "lon": 117.115904,
          "sequence": 1
        },
        {
          "id": "120100021504003",
          "stationId": "120100021504003",
          "nameZh": "瑞景新苑",
          "nameEn": "Rui Jing Xin Yuan",
          "target": "rui jing xin yuan",
          "pinyin": "ruijingxinyuan",
          "lat": 39.200203,
          "lon": 117.12186,
          "sequence": 2
        },
        {
          "id": "120100021504004",
          "stationId": "120100021504004",
          "nameZh": "佳园里",
          "nameEn": "Jia Yuan Li",
          "target": "jia yuan li",
          "pinyin": "jiayuanli",
          "lat": 39.191974,
          "lon": 117.128158,
          "sequence": 3
        },
        {
          "id": "120100021504005",
          "stationId": "120100021504005",
          "nameZh": "本溪路",
          "nameEn": "Ben Xi Lu",
          "target": "ben xi lu",
          "pinyin": "benxilu",
          "lat": 39.185432,
          "lon": 117.139463,
          "sequence": 4
        },
        {
          "id": "120100021504006",
          "stationId": "120100021504006",
          "nameZh": "勤俭道",
          "nameEn": "Qin Jian Dao",
          "target": "qin jian dao",
          "pinyin": "qinjiandao",
          "lat": 39.178342,
          "lon": 117.153675,
          "sequence": 5
        },
        {
          "id": "120100021504007",
          "stationId": "120100021504007",
          "nameZh": "洪湖里",
          "nameEn": "Hong Hu Li",
          "target": "hong hu li",
          "pinyin": "honghuli",
          "lat": 39.170889,
          "lon": 117.161912,
          "sequence": 6
        },
        {
          "id": "120100021325065",
          "stationId": "120100021325065",
          "nameZh": "西站",
          "nameEn": "Xizhan",
          "target": "xizhan",
          "pinyin": "xizhan",
          "lat": 39.156977,
          "lon": 117.166787,
          "sequence": 7
        },
        {
          "id": "120100021504009",
          "stationId": "120100021504009",
          "nameZh": "西北角",
          "nameEn": "Xi Bei Jiao",
          "target": "xi bei jiao",
          "pinyin": "xibeijiao",
          "lat": 39.146568,
          "lon": 117.171661,
          "sequence": 8
        },
        {
          "id": "120100021504010",
          "stationId": "120100021504010",
          "nameZh": "西南角",
          "nameEn": "Xi Nan Jiao",
          "target": "xi nan jiao",
          "pinyin": "xinanjiao",
          "lat": 39.137364,
          "lon": 117.171996,
          "sequence": 9
        },
        {
          "id": "120100021504011",
          "stationId": "120100021504011",
          "nameZh": "二纬路",
          "nameEn": "Er Wei Lu",
          "target": "er wei lu",
          "pinyin": "erweilu",
          "lat": 39.130318,
          "lon": 117.174737,
          "sequence": 10
        },
        {
          "id": "120100021504012",
          "stationId": "120100021504012",
          "nameZh": "海光寺",
          "nameEn": "Haiguangsi",
          "target": "haiguangsi",
          "pinyin": "haiguangsi",
          "lat": 39.122349,
          "lon": 117.177534,
          "sequence": 11
        },
        {
          "id": "120100021504013",
          "stationId": "120100021504013",
          "nameZh": "鞍山道",
          "nameEn": "An Shan Dao",
          "target": "an shan dao",
          "pinyin": "anshandao",
          "lat": 39.120355,
          "lon": 117.187336,
          "sequence": 12
        },
        {
          "id": "120100021500015",
          "stationId": "120100021500015",
          "nameZh": "营口道",
          "nameEn": "Ying Kou Dao",
          "target": "ying kou dao",
          "pinyin": "yingkoudao",
          "lat": 39.118628,
          "lon": 117.197685,
          "sequence": 13
        },
        {
          "id": "120100021504015",
          "stationId": "120100021504015",
          "nameZh": "小白楼",
          "nameEn": "Xiao Bai Lou",
          "target": "xiao bai lou",
          "pinyin": "xiaobailou",
          "lat": 39.114911,
          "lon": 117.215406,
          "sequence": 14
        },
        {
          "id": "120100021323021",
          "stationId": "120100021323021",
          "nameZh": "下瓦房",
          "nameEn": "Xia Wa Fang",
          "target": "xia wa fang",
          "pinyin": "xiawafang",
          "lat": 39.1052,
          "lon": 117.222893,
          "sequence": 15
        },
        {
          "id": "120100021504017",
          "stationId": "120100021504017",
          "nameZh": "南楼",
          "nameEn": "Nan Lou",
          "target": "nan lou",
          "pinyin": "nanlou",
          "lat": 39.095998,
          "lon": 117.223877,
          "sequence": 16
        },
        {
          "id": "120100021504018",
          "stationId": "120100021504018",
          "nameZh": "土城",
          "nameEn": "Tu Cheng",
          "target": "tu cheng",
          "pinyin": "tucheng",
          "lat": 39.089216,
          "lon": 117.232283,
          "sequence": 17
        },
        {
          "id": "120100021504019",
          "stationId": "120100021504019",
          "nameZh": "陈塘庄",
          "nameEn": "Chen Tang Zhuang",
          "target": "chen tang zhuang",
          "pinyin": "chentangzhuang",
          "lat": 39.083497,
          "lon": 117.248489,
          "sequence": 18
        },
        {
          "id": "120100021504020",
          "stationId": "120100021504020",
          "nameZh": "复兴门",
          "nameEn": "Fuxingmen",
          "target": "fuxingmen",
          "pinyin": "fuxingmen",
          "lat": 39.077205,
          "lon": 117.260182,
          "sequence": 19
        },
        {
          "id": "120100021504021",
          "stationId": "120100021504021",
          "nameZh": "华山里",
          "nameEn": "Hua Shan Li",
          "target": "hua shan li",
          "pinyin": "huashanli",
          "lat": 39.06616,
          "lon": 117.261895,
          "sequence": 20
        },
        {
          "id": "120100021504022",
          "stationId": "120100021504022",
          "nameZh": "财经大学",
          "nameEn": "Caijing Daxue",
          "target": "caijing daxue",
          "pinyin": "caijingdaxue",
          "lat": 39.063938,
          "lon": 117.276919,
          "sequence": 21
        },
        {
          "id": "120100021504024",
          "stationId": "120100021504024",
          "nameZh": "双林",
          "nameEn": "Shuang Lin",
          "target": "shuang lin",
          "pinyin": "shuanglin",
          "lat": 39.057365,
          "lon": 117.292143,
          "sequence": 22
        },
        {
          "id": "120100021504025",
          "stationId": "120100021504025",
          "nameZh": "李楼",
          "nameEn": "Li Lou",
          "target": "li lou",
          "pinyin": "lilou",
          "lat": 39.054449,
          "lon": 117.317171,
          "sequence": 23
        },
        {
          "id": "120100021504027",
          "stationId": "120100021504027",
          "nameZh": "洪泥河东",
          "nameEn": "Hongni Hedong",
          "target": "hongni hedong",
          "pinyin": "hongnihedong",
          "lat": 39.047609,
          "lon": 117.344889,
          "sequence": 24
        },
        {
          "id": "120100021504028",
          "stationId": "120100021504028",
          "nameZh": "高庄子",
          "nameEn": "Gaozhuangzi",
          "target": "gaozhuangzi",
          "pinyin": "gaozhuangzi",
          "lat": 39.043101,
          "lon": 117.360797,
          "sequence": 25
        },
        {
          "id": "120100021504030",
          "stationId": "120100021504030",
          "nameZh": "国家会展中心",
          "nameEn": "Guojia Huizhan Zhongxin",
          "target": "guojia huizhan zhongxin",
          "pinyin": "guojiahuizhanzhongxin",
          "lat": 39.028975,
          "lon": 117.383988,
          "sequence": 26
        },
        {
          "id": "120100021504031",
          "stationId": "120100021504031",
          "nameZh": "国瑞路",
          "nameEn": "Guorui Lu",
          "target": "guorui lu",
          "pinyin": "guoruilu",
          "lat": 39.021933,
          "lon": 117.390747,
          "sequence": 27
        },
        {
          "id": "120100021504032",
          "stationId": "120100021504032",
          "nameZh": "东沽路",
          "nameEn": "Donggu Lu",
          "target": "donggu lu",
          "pinyin": "donggulu",
          "lat": 39.012409,
          "lon": 117.408398,
          "sequence": 28
        },
        {
          "id": "120100021504034",
          "stationId": "120100021504034",
          "nameZh": "双桥河",
          "nameEn": "Shuangqiaohe",
          "target": "shuangqiaohe",
          "pinyin": "shuangqiaohe",
          "lat": 39.002798,
          "lon": 117.431298,
          "sequence": 29
        }
      ],
      "segments": [
        [
          "120100021504002",
          "120100021504003",
          "120100021504004",
          "120100021504005",
          "120100021504006",
          "120100021504007",
          "120100021325065",
          "120100021504009",
          "120100021504010",
          "120100021504011",
          "120100021504012",
          "120100021504013",
          "120100021500015",
          "120100021504015",
          "120100021323021",
          "120100021504017",
          "120100021504018",
          "120100021504019",
          "120100021504020",
          "120100021504021",
          "120100021504022",
          "120100021504024",
          "120100021504025",
          "120100021504027",
          "120100021504028",
          "120100021504030",
          "120100021504031",
          "120100021504032",
          "120100021504034"
        ]
      ]
    },
    {
      "id": "1200-2",
      "operatorId": "1200",
      "operatorName": "天津地铁",
      "lineId": "2",
      "lineName": "2号线",
      "color": "#FCD600",
      "loop": false,
      "stations": [
        {
          "id": "120100021904021",
          "stationId": "120100021904021",
          "nameZh": "滨海国际机场",
          "nameEn": "Bin Hai Guo Ji Ji Chang",
          "target": "bin hai guo ji ji chang",
          "pinyin": "binhaiguojijichang",
          "lat": 39.132116,
          "lon": 117.362628,
          "sequence": 1
        },
        {
          "id": "120100021904020",
          "stationId": "120100021904020",
          "nameZh": "空港经济区",
          "nameEn": "Kong Gang Jing Ji Qu",
          "target": "kong gang jing ji qu",
          "pinyin": "konggangjingjiqu",
          "lat": 39.1577,
          "lon": 117.335,
          "sequence": 2
        },
        {
          "id": "120100021904019",
          "stationId": "120100021904019",
          "nameZh": "国山路",
          "nameEn": "Guo Shan Lu",
          "target": "guo shan lu",
          "pinyin": "guoshanlu",
          "lat": 39.1541,
          "lon": 117.31,
          "sequence": 3
        },
        {
          "id": "120100021904018",
          "stationId": "120100021904018",
          "nameZh": "登州路",
          "nameEn": "Deng Zhou Lu",
          "target": "deng zhou lu",
          "pinyin": "dengzhoulu",
          "lat": 39.1505,
          "lon": 117.296,
          "sequence": 4
        },
        {
          "id": "120100021904017",
          "stationId": "120100021904017",
          "nameZh": "屿东城",
          "nameEn": "Yudongcheng",
          "target": "yudongcheng",
          "pinyin": "yudongcheng",
          "lat": 39.147214,
          "lon": 117.27984,
          "sequence": 5
        },
        {
          "id": "120100021904016",
          "stationId": "120100021904016",
          "nameZh": "翠阜新村",
          "nameEn": "Cui Fu Xin Cun",
          "target": "cui fu xin cun",
          "pinyin": "cuifuxincun",
          "lat": 39.144,
          "lon": 117.258,
          "sequence": 6
        },
        {
          "id": "120100021323017",
          "stationId": "120100021323017",
          "nameZh": "靖江路",
          "nameEn": "Jing Jiang Lu",
          "target": "jing jiang lu",
          "pinyin": "jingjianglu",
          "lat": 39.14252,
          "lon": 117.244243,
          "sequence": 7
        },
        {
          "id": "120100021904014",
          "stationId": "120100021904014",
          "nameZh": "顺驰桥",
          "nameEn": "Shun Chi Qiao",
          "target": "shun chi qiao",
          "pinyin": "shunchiqiao",
          "lat": 39.1414,
          "lon": 117.234,
          "sequence": 8
        },
        {
          "id": "120100021904013",
          "stationId": "120100021904013",
          "nameZh": "远洋国际中心",
          "nameEn": "Yuan Yang Guo Ji Zhong Xin",
          "target": "yuan yang guo ji zhong xin",
          "pinyin": "yuanyangguojizhongxin",
          "lat": 39.1365,
          "lon": 117.221,
          "sequence": 9
        },
        {
          "id": "120100021500012",
          "stationId": "120100021500012",
          "nameZh": "天津站",
          "nameEn": "Tianjin Zhan",
          "target": "tianjin zhan",
          "pinyin": "tianjinzhan",
          "lat": 39.137783,
          "lon": 117.211693,
          "sequence": 10
        },
        {
          "id": "120100021904011",
          "stationId": "120100021904011",
          "nameZh": "建国道意风区",
          "nameEn": "Jianguo Dao Yifengqu",
          "target": "jianguo dao yifengqu",
          "pinyin": "jianguodaoyifengqu",
          "lat": 39.139008,
          "lon": 117.200889,
          "sequence": 11
        },
        {
          "id": "120100021319010",
          "stationId": "120100021319010",
          "nameZh": "东南角",
          "nameEn": "Dongnanjiao",
          "target": "dongnanjiao",
          "pinyin": "dongnanjiao",
          "lat": 39.136881,
          "lon": 117.190293,
          "sequence": 12
        },
        {
          "id": "120100021904009",
          "stationId": "120100021904009",
          "nameZh": "鼓楼",
          "nameEn": "Gulou",
          "target": "gulou",
          "pinyin": "gulou",
          "lat": 39.137127,
          "lon": 117.181228,
          "sequence": 13
        },
        {
          "id": "120100021504010",
          "stationId": "120100021504010",
          "nameZh": "西南角",
          "nameEn": "Xi Nan Jiao",
          "target": "xi nan jiao",
          "pinyin": "xinanjiao",
          "lat": 39.137364,
          "lon": 117.171996,
          "sequence": 14
        },
        {
          "id": "120100021904007",
          "stationId": "120100021904007",
          "nameZh": "广开四马路",
          "nameEn": "Guang Kai Si Ma Lu",
          "target": "guang kai si ma lu",
          "pinyin": "guangkaisimalu",
          "lat": 39.1377,
          "lon": 117.162,
          "sequence": 15
        },
        {
          "id": "120100021325019",
          "stationId": "120100021325019",
          "nameZh": "长虹公园",
          "nameEn": "Chang Hong Gong Yuan",
          "target": "chang hong gong yuan",
          "pinyin": "changhonggongyuan",
          "lat": 39.137806,
          "lon": 117.149444,
          "sequence": 16
        },
        {
          "id": "120100021904005",
          "stationId": "120100021904005",
          "nameZh": "咸阳路",
          "nameEn": "Xian Yang Lu",
          "target": "xian yang lu",
          "pinyin": "xianyanglu",
          "lat": 39.1378,
          "lon": 117.135,
          "sequence": 17
        },
        {
          "id": "120100021904004",
          "stationId": "120100021904004",
          "nameZh": "芥园西道",
          "nameEn": "Jie Yuan Xi Dao",
          "target": "jie yuan xi dao",
          "pinyin": "jieyuanxidao",
          "lat": 39.1427,
          "lon": 117.12,
          "sequence": 18
        },
        {
          "id": "120100021904003",
          "stationId": "120100021904003",
          "nameZh": "卞兴",
          "nameEn": "Bian Xing",
          "target": "bian xing",
          "pinyin": "bianxing",
          "lat": 39.1462,
          "lon": 117.109,
          "sequence": 19
        },
        {
          "id": "120100021904002",
          "stationId": "120100021904002",
          "nameZh": "曹庄",
          "nameEn": "Cao Zhuang",
          "target": "cao zhuang",
          "pinyin": "caozhuang",
          "lat": 39.1457,
          "lon": 117.090954,
          "sequence": 20
        }
      ],
      "segments": [
        [
          "120100021904021",
          "120100021904020",
          "120100021904019",
          "120100021904018",
          "120100021904017",
          "120100021904016",
          "120100021323017",
          "120100021904014",
          "120100021904013",
          "120100021500012",
          "120100021904011",
          "120100021319010",
          "120100021904009",
          "120100021504010",
          "120100021904007",
          "120100021325019",
          "120100021904005",
          "120100021904004",
          "120100021904003",
          "120100021904002"
        ]
      ]
    },
    {
      "id": "1200-3",
      "operatorId": "1200",
      "operatorName": "天津地铁",
      "lineId": "3",
      "lineName": "3号线",
      "color": "#019AC3",
      "loop": false,
      "stations": [
        {
          "id": "120100021500002",
          "stationId": "120100021500002",
          "nameZh": "小淀",
          "nameEn": "Xiao Dian",
          "target": "xiao dian",
          "pinyin": "xiaodian",
          "lat": 39.239186,
          "lon": 117.257642,
          "sequence": 1
        },
        {
          "id": "120100021500003",
          "stationId": "120100021500003",
          "nameZh": "丰产河",
          "nameEn": "Feng Chan He",
          "target": "feng chan he",
          "pinyin": "fengchanhe",
          "lat": 39.23816,
          "lon": 117.23602,
          "sequence": 2
        },
        {
          "id": "120100021500004",
          "stationId": "120100021500004",
          "nameZh": "华北集团",
          "nameEn": "Hua Bei Ji Tuan",
          "target": "hua bei ji tuan",
          "pinyin": "huabeijituan",
          "lat": 39.2276,
          "lon": 117.228,
          "sequence": 3
        },
        {
          "id": "120100021500005",
          "stationId": "120100021500005",
          "nameZh": "天士力",
          "nameEn": "Tian Shi Li",
          "target": "tian shi li",
          "pinyin": "tianshili",
          "lat": 39.2059,
          "lon": 117.215,
          "sequence": 4
        },
        {
          "id": "120100021500006",
          "stationId": "120100021500006",
          "nameZh": "宜兴埠",
          "nameEn": "Yi Xing Bu",
          "target": "yi xing bu",
          "pinyin": "yixingbu",
          "lat": 39.1976,
          "lon": 117.219,
          "sequence": 5
        },
        {
          "id": "120100021323010",
          "stationId": "120100021323010",
          "nameZh": "张兴庄",
          "nameEn": "Zhang Xing Zhuang",
          "target": "zhang xing zhuang",
          "pinyin": "zhangxingzhuang",
          "lat": 39.191928,
          "lon": 117.21482,
          "sequence": 6
        },
        {
          "id": "120100021500008",
          "stationId": "120100021500008",
          "nameZh": "铁东路",
          "nameEn": "Tie Dong Lu",
          "target": "tie dong lu",
          "pinyin": "tiedonglu",
          "lat": 39.1799,
          "lon": 117.207,
          "sequence": 7
        },
        {
          "id": "120100021325059",
          "stationId": "120100021325059",
          "nameZh": "北站",
          "nameEn": "Bei Zhan",
          "target": "bei zhan",
          "pinyin": "beizhan",
          "lat": 39.166648,
          "lon": 117.207438,
          "sequence": 8
        },
        {
          "id": "120100021500010",
          "stationId": "120100021500010",
          "nameZh": "中山路",
          "nameEn": "Zhong Shan Lu",
          "target": "zhong shan lu",
          "pinyin": "zhongshanlu",
          "lat": 39.1618,
          "lon": 117.206,
          "sequence": 9
        },
        {
          "id": "120100021500011",
          "stationId": "120100021500011",
          "nameZh": "金狮桥",
          "nameEn": "Jin Shi Qiao",
          "target": "jin shi qiao",
          "pinyin": "jinshiqiao",
          "lat": 39.1511,
          "lon": 117.208,
          "sequence": 10
        },
        {
          "id": "120100021500012",
          "stationId": "120100021500012",
          "nameZh": "天津站",
          "nameEn": "Tianjin Zhan",
          "target": "tianjin zhan",
          "pinyin": "tianjinzhan",
          "lat": 39.137783,
          "lon": 117.211693,
          "sequence": 11
        },
        {
          "id": "120100021500013",
          "stationId": "120100021500013",
          "nameZh": "津湾广场",
          "nameEn": "Jin Wan Guang Chang",
          "target": "jin wan guang chang",
          "pinyin": "jinwanguangchang",
          "lat": 39.132,
          "lon": 117.208,
          "sequence": 12
        },
        {
          "id": "120100021319012",
          "stationId": "120100021319012",
          "nameZh": "和平路",
          "nameEn": "Heping Lu",
          "target": "heping lu",
          "pinyin": "hepinglu",
          "lat": 39.126896,
          "lon": 117.204654,
          "sequence": 13
        },
        {
          "id": "120100021500015",
          "stationId": "120100021500015",
          "nameZh": "营口道",
          "nameEn": "Ying Kou Dao",
          "target": "ying kou dao",
          "pinyin": "yingkoudao",
          "lat": 39.118628,
          "lon": 117.197685,
          "sequence": 14
        },
        {
          "id": "120100021500016",
          "stationId": "120100021500016",
          "nameZh": "西康路",
          "nameEn": "Xi Kang Lu",
          "target": "xi kang lu",
          "pinyin": "xikanglu",
          "lat": 39.1122,
          "lon": 117.188,
          "sequence": 15
        },
        {
          "id": "120100021500017",
          "stationId": "120100021500017",
          "nameZh": "吴家窑",
          "nameEn": "Wujiayao",
          "target": "wujiayao",
          "pinyin": "wujiayao",
          "lat": 39.099781,
          "lon": 117.186144,
          "sequence": 16
        },
        {
          "id": "120100021500018",
          "stationId": "120100021500018",
          "nameZh": "天塔",
          "nameEn": "Tianta",
          "target": "tianta",
          "pinyin": "tianta",
          "lat": 39.095775,
          "lon": 117.177759,
          "sequence": 17
        },
        {
          "id": "120100021500019",
          "stationId": "120100021500019",
          "nameZh": "周邓纪念馆",
          "nameEn": "Zhou Deng Ji Nian Guan",
          "target": "zhou deng ji nian guan",
          "pinyin": "zhoudengjinianguan",
          "lat": 39.0927,
          "lon": 117.164,
          "sequence": 18
        },
        {
          "id": "120100021325024",
          "stationId": "120100021325024",
          "nameZh": "红旗南路",
          "nameEn": "Hong Qi Nan Lu",
          "target": "hong qi nan lu",
          "pinyin": "hongqinanlu",
          "lat": 39.092757,
          "lon": 117.148149,
          "sequence": 19
        },
        {
          "id": "120100021500021",
          "stationId": "120100021500021",
          "nameZh": "王顶堤",
          "nameEn": "Wang Ding Di",
          "target": "wang ding di",
          "pinyin": "wangdingdi",
          "lat": 39.0921,
          "lon": 117.139,
          "sequence": 20
        },
        {
          "id": "120100021500022",
          "stationId": "120100021500022",
          "nameZh": "华苑",
          "nameEn": "Hua Yuan",
          "target": "hua yuan",
          "pinyin": "huayuan",
          "lat": 39.0872,
          "lon": 117.129,
          "sequence": 21
        },
        {
          "id": "120100021500023",
          "stationId": "120100021500023",
          "nameZh": "大学城",
          "nameEn": "Da Xue Cheng",
          "target": "da xue cheng",
          "pinyin": "daxuecheng",
          "lat": 39.0724,
          "lon": 117.112,
          "sequence": 22
        },
        {
          "id": "120100021500024",
          "stationId": "120100021500024",
          "nameZh": "高新区",
          "nameEn": "Gao Xin Qu",
          "target": "gao xin qu",
          "pinyin": "gaoxinqu",
          "lat": 39.0719,
          "lon": 117.099,
          "sequence": 23
        },
        {
          "id": "120100021500025",
          "stationId": "120100021500025",
          "nameZh": "学府工业区",
          "nameEn": "Xue Fu Gong Ye Qu",
          "target": "xue fu gong ye qu",
          "pinyin": "xuefugongyequ",
          "lat": 39.0719,
          "lon": 117.079,
          "sequence": 24
        },
        {
          "id": "120100021500026",
          "stationId": "120100021500026",
          "nameZh": "杨伍庄",
          "nameEn": "Yang Wu Zhuang",
          "target": "yang wu zhuang",
          "pinyin": "yangwuzhuang",
          "lat": 39.0683,
          "lon": 117.07,
          "sequence": 25
        },
        {
          "id": "120100021500027",
          "stationId": "120100021500027",
          "nameZh": "南站",
          "nameEn": "Nan Zhan",
          "target": "nan zhan",
          "pinyin": "nanzhan",
          "lat": 39.057038,
          "lon": 117.062101,
          "sequence": 26
        }
      ],
      "segments": [
        [
          "120100021500002",
          "120100021500003",
          "120100021500004",
          "120100021500005",
          "120100021500006",
          "120100021323010",
          "120100021500008",
          "120100021325059",
          "120100021500010",
          "120100021500011",
          "120100021500012",
          "120100021500013",
          "120100021319012",
          "120100021500015",
          "120100021500016",
          "120100021500017",
          "120100021500018",
          "120100021500019",
          "120100021325024",
          "120100021500021",
          "120100021500022",
          "120100021500023",
          "120100021500024",
          "120100021500025",
          "120100021500026",
          "120100021500027"
        ]
      ]
    },
    {
      "id": "1200-Z4",
      "operatorId": "1200",
      "operatorName": "天津地铁",
      "lineId": "Z4",
      "lineName": "Z4线",
      "color": "#B97CAF",
      "loop": false,
      "stations": [
        {
          "id": "900000076881001",
          "stationId": "900000076881001",
          "nameZh": "寨上",
          "nameEn": "Zhaishang",
          "target": "zhaishang",
          "pinyin": "zhaishang",
          "lat": 39.227289,
          "lon": 117.817838,
          "sequence": 1
        },
        {
          "id": "900000076881002",
          "stationId": "900000076881002",
          "nameZh": "汉沽医院",
          "nameEn": "Hangu Yiyuan",
          "target": "hangu yiyuan",
          "pinyin": "hanguyiyuan",
          "lat": 39.221343,
          "lon": 117.830121,
          "sequence": 2
        },
        {
          "id": "900000076881003",
          "stationId": "900000076881003",
          "nameZh": "中心渔港",
          "nameEn": "Zhongxin Yugang",
          "target": "zhongxin yugang",
          "pinyin": "zhongxinyugang",
          "lat": 39.208928,
          "lon": 117.850375,
          "sequence": 3
        },
        {
          "id": "900000076881004",
          "stationId": "900000076881004",
          "nameZh": "玉砂道",
          "nameEn": "Yusha Dao",
          "target": "yusha dao",
          "pinyin": "yushadao",
          "lat": 39.182932,
          "lon": 117.818402,
          "sequence": 4
        },
        {
          "id": "900000076881005",
          "stationId": "900000076881005",
          "nameZh": "航母公园",
          "nameEn": "Hangmu Gongyuan",
          "target": "hangmu gongyuan",
          "pinyin": "hangmugongyuan",
          "lat": 39.166619,
          "lon": 117.802015,
          "sequence": 5
        },
        {
          "id": "900000076881006",
          "stationId": "900000076881006",
          "nameZh": "软件园",
          "nameEn": "Ruanjianyuan",
          "target": "ruanjianyuan",
          "pinyin": "ruanjianyuan",
          "lat": 39.150538,
          "lon": 117.79206,
          "sequence": 6
        },
        {
          "id": "900000076881007",
          "stationId": "900000076881007",
          "nameZh": "绿创园",
          "nameEn": "Lvchuangyuan",
          "target": "lvchuangyuan",
          "pinyin": "lvchuangyuan",
          "lat": 39.135219,
          "lon": 117.77887,
          "sequence": 7
        },
        {
          "id": "900000076881008",
          "stationId": "900000076881008",
          "nameZh": "和顺路",
          "nameEn": "Heshun Lu",
          "target": "heshun lu",
          "pinyin": "heshunlu",
          "lat": 39.118959,
          "lon": 117.762927,
          "sequence": 8
        },
        {
          "id": "900000076881009",
          "stationId": "900000076881009",
          "nameZh": "中新生态城",
          "nameEn": "Zhongxin Shengtaicheng",
          "target": "zhongxin shengtaicheng",
          "pinyin": "zhongxinshengtaicheng",
          "lat": 39.108335,
          "lon": 117.752486,
          "sequence": 9
        },
        {
          "id": "900000076881010",
          "stationId": "900000076881010",
          "nameZh": "北塘",
          "nameEn": "Beitang",
          "target": "beitang",
          "pinyin": "beitang",
          "lat": 39.093904,
          "lon": 117.72555,
          "sequence": 10
        }
      ],
      "segments": [
        [
          "900000076881001",
          "900000076881002",
          "900000076881003",
          "900000076881004",
          "900000076881005",
          "900000076881006",
          "900000076881007",
          "900000076881008",
          "900000076881009",
          "900000076881010"
        ]
      ]
    },
    {
      "id": "1200-4",
      "operatorId": "1200",
      "operatorName": "天津地铁",
      "lineId": "4",
      "lineName": "4号线",
      "color": "#018237",
      "loop": false,
      "stations": [
        {
          "id": "900000075525012",
          "stationId": "900000075525012",
          "nameZh": "小街",
          "nameEn": "Xiaojie",
          "target": "xiaojie",
          "pinyin": "xiaojie",
          "lat": 39.305302,
          "lon": 117.097704,
          "sequence": 1
        },
        {
          "id": "900000075525021",
          "stationId": "900000075525021",
          "nameZh": "郎园",
          "nameEn": "Langyuan",
          "target": "langyuan",
          "pinyin": "langyuan",
          "lat": 39.283923,
          "lon": 117.104787,
          "sequence": 2
        },
        {
          "id": "900000075525009",
          "stationId": "900000075525009",
          "nameZh": "柴楼",
          "nameEn": "Chailou",
          "target": "chailou",
          "pinyin": "chailou",
          "lat": 39.271183,
          "lon": 117.107823,
          "sequence": 3
        },
        {
          "id": "900000075525008",
          "stationId": "900000075525008",
          "nameZh": "双街",
          "nameEn": "Shuang Jie",
          "target": "shuang jie",
          "pinyin": "shuangjie",
          "lat": 39.262836,
          "lon": 117.1107,
          "sequence": 4
        },
        {
          "id": "900000075525007",
          "stationId": "900000075525007",
          "nameZh": "西赵庄",
          "nameEn": "Xizhaozhuang",
          "target": "xizhaozhuang",
          "pinyin": "xizhaozhuang",
          "lat": 39.252692,
          "lon": 117.116134,
          "sequence": 5
        },
        {
          "id": "900000075525006",
          "stationId": "900000075525006",
          "nameZh": "延吉道",
          "nameEn": "Yanji Dao",
          "target": "yanji dao",
          "pinyin": "yanjidao",
          "lat": 39.232692,
          "lon": 117.124184,
          "sequence": 6
        },
        {
          "id": "900000075525005",
          "stationId": "900000075525005",
          "nameZh": "北仓",
          "nameEn": "Beicang",
          "target": "beicang",
          "pinyin": "beicang",
          "lat": 39.222601,
          "lon": 117.13052,
          "sequence": 7
        },
        {
          "id": "900000075525004",
          "stationId": "900000075525004",
          "nameZh": "果园南道",
          "nameEn": "Guoyuan Nandao",
          "target": "guoyuan nandao",
          "pinyin": "guoyuannandao",
          "lat": 39.214399,
          "lon": 117.138288,
          "sequence": 8
        },
        {
          "id": "900000075525003",
          "stationId": "900000075525003",
          "nameZh": "南仓",
          "nameEn": "Nancang",
          "target": "nancang",
          "pinyin": "nancang",
          "lat": 39.207894,
          "lon": 117.143953,
          "sequence": 9
        },
        {
          "id": "900000075525002",
          "stationId": "900000075525002",
          "nameZh": "天穆",
          "nameEn": "Tianmu",
          "target": "tianmu",
          "pinyin": "tianmu",
          "lat": 39.198773,
          "lon": 117.151523,
          "sequence": 10
        },
        {
          "id": "900000075525001",
          "stationId": "900000075525001",
          "nameZh": "柳滩",
          "nameEn": "Liutan",
          "target": "liutan",
          "pinyin": "liutan",
          "lat": 39.18803,
          "lon": 117.164243,
          "sequence": 11
        },
        {
          "id": "900000075525022",
          "stationId": "900000075525022",
          "nameZh": "白庙",
          "nameEn": "Baimiao",
          "target": "baimiao",
          "pinyin": "baimiao",
          "lat": 39.183871,
          "lon": 117.171536,
          "sequence": 12
        },
        {
          "id": "900000075525020",
          "stationId": "900000075525020",
          "nameZh": "北洋桥",
          "nameEn": "Beiyangqiao",
          "target": "beiyangqiao",
          "pinyin": "beiyangqiao",
          "lat": 39.177714,
          "lon": 117.179638,
          "sequence": 13
        },
        {
          "id": "900000075525019",
          "stationId": "900000075525019",
          "nameZh": "西沽公园",
          "nameEn": "Xigu Gongyuan",
          "target": "xigu gongyuan",
          "pinyin": "xigugongyuan",
          "lat": 39.172437,
          "lon": 117.170875,
          "sequence": 14
        },
        {
          "id": "900000075525018",
          "stationId": "900000075525018",
          "nameZh": "同城商务区西于庄",
          "nameEn": "Tongcheng Shangwu Qu Xiyuzhuang",
          "target": "tongcheng shangwu qu xiyuzhuang",
          "pinyin": "tongchengshangwuquxiyuzhuang",
          "lat": 39.166512,
          "lon": 117.166101,
          "sequence": 15
        },
        {
          "id": "120100021325065",
          "stationId": "120100021325065",
          "nameZh": "西站",
          "nameEn": "Xizhan",
          "target": "xizhan",
          "pinyin": "xizhan",
          "lat": 39.156977,
          "lon": 117.166787,
          "sequence": 16
        },
        {
          "id": "120100021319010",
          "stationId": "120100021319010",
          "nameZh": "东南角",
          "nameEn": "Dongnanjiao",
          "target": "dongnanjiao",
          "pinyin": "dongnanjiao",
          "lat": 39.136881,
          "lon": 117.190293,
          "sequence": 17
        },
        {
          "id": "120100021319011",
          "stationId": "120100021319011",
          "nameZh": "金街",
          "nameEn": "Jin Jie",
          "target": "jin jie",
          "pinyin": "jinjie",
          "lat": 39.13181,
          "lon": 117.192177,
          "sequence": 18
        },
        {
          "id": "120100021319012",
          "stationId": "120100021319012",
          "nameZh": "和平路",
          "nameEn": "Heping Lu",
          "target": "heping lu",
          "pinyin": "hepinglu",
          "lat": 39.126896,
          "lon": 117.204654,
          "sequence": 19
        },
        {
          "id": "120100021319013",
          "stationId": "120100021319013",
          "nameZh": "徐州道",
          "nameEn": "Xuzhou Dao",
          "target": "xuzhou dao",
          "pinyin": "xuzhoudao",
          "lat": 39.115443,
          "lon": 117.218497,
          "sequence": 20
        },
        {
          "id": "120100021319014",
          "stationId": "120100021319014",
          "nameZh": "六纬路",
          "nameEn": "Liuwei Lu",
          "target": "liuwei lu",
          "pinyin": "liuweilu",
          "lat": 39.115665,
          "lon": 117.2275,
          "sequence": 21
        },
        {
          "id": "120100021319015",
          "stationId": "120100021319015",
          "nameZh": "成林道",
          "nameEn": "Chenglindao",
          "target": "chenglindao",
          "pinyin": "chenglindao",
          "lat": 39.1303,
          "lon": 117.245626,
          "sequence": 22
        },
        {
          "id": "120100021319016",
          "stationId": "120100021319016",
          "nameZh": "泰昌路",
          "nameEn": "Taichang Lu",
          "target": "taichang lu",
          "pinyin": "taichanglu",
          "lat": 39.122322,
          "lon": 117.256498,
          "sequence": 23
        },
        {
          "id": "120100021319017",
          "stationId": "120100021319017",
          "nameZh": "万东路",
          "nameEn": "Wandong Lu",
          "target": "wandong lu",
          "pinyin": "wandonglu",
          "lat": 39.119474,
          "lon": 117.267386,
          "sequence": 24
        },
        {
          "id": "120100021319018",
          "stationId": "120100021319018",
          "nameZh": "沙柳南路",
          "nameEn": "Shaliu Nanlu",
          "target": "shaliu nanlu",
          "pinyin": "shaliunanlu",
          "lat": 39.117388,
          "lon": 117.288921,
          "sequence": 25
        },
        {
          "id": "120100021319019",
          "stationId": "120100021319019",
          "nameZh": "登州南路",
          "nameEn": "Dengzhou Nanlu",
          "target": "dengzhou nanlu",
          "pinyin": "dengzhounanlu",
          "lat": 39.116534,
          "lon": 117.305429,
          "sequence": 26
        },
        {
          "id": "120100021319020",
          "stationId": "120100021319020",
          "nameZh": "跃进北路",
          "nameEn": "Yuejin Beilu",
          "target": "yuejin beilu",
          "pinyin": "yuejinbeilu",
          "lat": 39.114015,
          "lon": 117.318812,
          "sequence": 27
        },
        {
          "id": "120100021319021",
          "stationId": "120100021319021",
          "nameZh": "航双路",
          "nameEn": "Hangshuang Lu",
          "target": "hangshuang lu",
          "pinyin": "hangshuanglu",
          "lat": 39.111105,
          "lon": 117.333949,
          "sequence": 28
        },
        {
          "id": "120100021319022",
          "stationId": "120100021319022",
          "nameZh": "民航大学",
          "nameEn": "Minhang Daxue",
          "target": "minhang daxue",
          "pinyin": "minhangdaxue",
          "lat": 39.108842,
          "lon": 117.349129,
          "sequence": 29
        },
        {
          "id": "120100021319023",
          "stationId": "120100021319023",
          "nameZh": "新兴村",
          "nameEn": "Xinxingcun",
          "target": "xinxingcun",
          "pinyin": "xinxingcun",
          "lat": 39.101571,
          "lon": 117.370481,
          "sequence": 30
        }
      ],
      "segments": [
        [
          "900000075525012",
          "900000075525021",
          "900000075525009",
          "900000075525008",
          "900000075525007",
          "900000075525006",
          "900000075525005",
          "900000075525004",
          "900000075525003",
          "900000075525002",
          "900000075525001",
          "900000075525022",
          "900000075525020",
          "900000075525019",
          "900000075525018",
          "120100021325065"
        ],
        [
          "120100021319010",
          "120100021319011",
          "120100021319012",
          "120100021319013",
          "120100021319014",
          "120100021319015",
          "120100021319016",
          "120100021319017",
          "120100021319018",
          "120100021319019",
          "120100021319020",
          "120100021319021",
          "120100021319022",
          "120100021319023"
        ]
      ]
    },
    {
      "id": "1200-5",
      "operatorId": "1200",
      "operatorName": "天津地铁",
      "lineId": "5",
      "lineName": "5号线",
      "color": "#EE782E",
      "loop": false,
      "stations": [
        {
          "id": "120100021323031",
          "stationId": "120100021323031",
          "nameZh": "京华东道",
          "nameEn": "Jinghua Dongdao",
          "target": "jinghua dongdao",
          "pinyin": "jinghuadongdao",
          "lat": 39.031339,
          "lon": 117.1567,
          "sequence": 1
        },
        {
          "id": "120100021323030",
          "stationId": "120100021323030",
          "nameZh": "李七庄南",
          "nameEn": "Liqizhuang Nan",
          "target": "liqizhuang nan",
          "pinyin": "liqizhuangnan",
          "lat": 39.036434,
          "lon": 117.170661,
          "sequence": 2
        },
        {
          "id": "120100021323029",
          "stationId": "120100021323029",
          "nameZh": "中医一附院",
          "nameEn": "Zhong Yi Yi Fu Yuan",
          "target": "zhong yi yi fu yuan",
          "pinyin": "zhongyiyifuyuan",
          "lat": 39.046873,
          "lon": 117.184741,
          "sequence": 3
        },
        {
          "id": "120100021323028",
          "stationId": "120100021323028",
          "nameZh": "昌凌路",
          "nameEn": "Changling Lu",
          "target": "changling lu",
          "pinyin": "changlinglu",
          "lat": 39.056723,
          "lon": 117.184695,
          "sequence": 4
        },
        {
          "id": "120100021323027",
          "stationId": "120100021323027",
          "nameZh": "凌宾路",
          "nameEn": "Ling Bin Lu",
          "target": "ling bin lu",
          "pinyin": "lingbinlu",
          "lat": 39.068057,
          "lon": 117.17201,
          "sequence": 5
        },
        {
          "id": "120100021323026",
          "stationId": "120100021323026",
          "nameZh": "体育中心",
          "nameEn": "Ti Yu Zhong Xin",
          "target": "ti yu zhong xin",
          "pinyin": "tiyuzhongxin",
          "lat": 39.074732,
          "lon": 117.172458,
          "sequence": 6
        },
        {
          "id": "120100021323025",
          "stationId": "120100021323025",
          "nameZh": "肿瘤医院",
          "nameEn": "Zhongliu Yiyuan",
          "target": "zhongliu yiyuan",
          "pinyin": "zhongliuyiyuan",
          "lat": 39.080114,
          "lon": 117.182043,
          "sequence": 7
        },
        {
          "id": "120100021323024",
          "stationId": "120100021323024",
          "nameZh": "天津宾馆",
          "nameEn": "Tian Jin Bin Guan",
          "target": "tian jin bin guan",
          "pinyin": "tianjinbinguan",
          "lat": 39.08533,
          "lon": 117.198548,
          "sequence": 8
        },
        {
          "id": "120100021323023",
          "stationId": "120100021323023",
          "nameZh": "文化中心",
          "nameEn": "Wenhua Zhongxin",
          "target": "wenhua zhongxin",
          "pinyin": "wenhuazhongxin",
          "lat": 39.086142,
          "lon": 117.206855,
          "sequence": 9
        },
        {
          "id": "120100021323022",
          "stationId": "120100021323022",
          "nameZh": "西南楼",
          "nameEn": "Xi Nan Lou",
          "target": "xi nan lou",
          "pinyin": "xinanlou",
          "lat": 39.09543,
          "lon": 117.21606,
          "sequence": 10
        },
        {
          "id": "120100021323021",
          "stationId": "120100021323021",
          "nameZh": "下瓦房",
          "nameEn": "Xia Wa Fang",
          "target": "xia wa fang",
          "pinyin": "xiawafang",
          "lat": 39.1052,
          "lon": 117.222893,
          "sequence": 11
        },
        {
          "id": "120100021323020",
          "stationId": "120100021323020",
          "nameZh": "直沽",
          "nameEn": "Zhigu",
          "target": "zhigu",
          "pinyin": "zhigu",
          "lat": 39.111012,
          "lon": 117.233925,
          "sequence": 12
        },
        {
          "id": "120100021323019",
          "stationId": "120100021323019",
          "nameZh": "津塘路",
          "nameEn": "Jin Tang Lu",
          "target": "jin tang lu",
          "pinyin": "jintanglu",
          "lat": 39.116533,
          "lon": 117.241396,
          "sequence": 13
        },
        {
          "id": "120100021319015",
          "stationId": "120100021319015",
          "nameZh": "成林道",
          "nameEn": "Chenglindao",
          "target": "chenglindao",
          "pinyin": "chenglindao",
          "lat": 39.1303,
          "lon": 117.245626,
          "sequence": 14
        },
        {
          "id": "120100021323017",
          "stationId": "120100021323017",
          "nameZh": "靖江路",
          "nameEn": "Jing Jiang Lu",
          "target": "jing jiang lu",
          "pinyin": "jingjianglu",
          "lat": 39.14252,
          "lon": 117.244243,
          "sequence": 15
        },
        {
          "id": "120100021323016",
          "stationId": "120100021323016",
          "nameZh": "幸福公园",
          "nameEn": "Xing Fu Gong Yuan",
          "target": "xing fu gong yuan",
          "pinyin": "xingfugongyuan",
          "lat": 39.154124,
          "lon": 117.24419,
          "sequence": 16
        },
        {
          "id": "120100021323015",
          "stationId": "120100021323015",
          "nameZh": "月牙河",
          "nameEn": "Yue Ya He",
          "target": "yue ya he",
          "pinyin": "yueyahe",
          "lat": 39.164793,
          "lon": 117.245788,
          "sequence": 17
        },
        {
          "id": "120100021323014",
          "stationId": "120100021323014",
          "nameZh": "金钟河大街",
          "nameEn": "Jin Zhong He Da Jie",
          "target": "jin zhong he da jie",
          "pinyin": "jinzhonghedajie",
          "lat": 39.172135,
          "lon": 117.241892,
          "sequence": 18
        },
        {
          "id": "120100021323013",
          "stationId": "120100021323013",
          "nameZh": "建昌道",
          "nameEn": "Jian Chang Dao",
          "target": "jian chang dao",
          "pinyin": "jianchangdao",
          "lat": 39.179628,
          "lon": 117.234644,
          "sequence": 19
        },
        {
          "id": "120100021323012",
          "stationId": "120100021323012",
          "nameZh": "思源路",
          "nameEn": "Si Yuan Lu",
          "target": "si yuan lu",
          "pinyin": "siyuanlu",
          "lat": 39.183388,
          "lon": 117.227463,
          "sequence": 20
        },
        {
          "id": "120100021323011",
          "stationId": "120100021323011",
          "nameZh": "志成路",
          "nameEn": "Zhi Cheng Lu",
          "target": "zhi cheng lu",
          "pinyin": "zhichenglu",
          "lat": 39.187116,
          "lon": 117.219132,
          "sequence": 21
        },
        {
          "id": "120100021323010",
          "stationId": "120100021323010",
          "nameZh": "张兴庄",
          "nameEn": "Zhang Xing Zhuang",
          "target": "zhang xing zhuang",
          "pinyin": "zhangxingzhuang",
          "lat": 39.191928,
          "lon": 117.21482,
          "sequence": 22
        },
        {
          "id": "120100021323009",
          "stationId": "120100021323009",
          "nameZh": "宜兴埠北",
          "nameEn": "Yi Xing Bu Bei",
          "target": "yi xing bu bei",
          "pinyin": "yixingbubei",
          "lat": 39.203038,
          "lon": 117.205425,
          "sequence": 23
        },
        {
          "id": "120100021323008",
          "stationId": "120100021323008",
          "nameZh": "辽河北道",
          "nameEn": "Liao He Bei Dao",
          "target": "liao he bei dao",
          "pinyin": "liaohebeidao",
          "lat": 39.209751,
          "lon": 117.2,
          "sequence": 24
        },
        {
          "id": "120100021323007",
          "stationId": "120100021323007",
          "nameZh": "淮河道",
          "nameEn": "Huai He Dao",
          "target": "huai he dao",
          "pinyin": "huaihedao",
          "lat": 39.218578,
          "lon": 117.192484,
          "sequence": 25
        },
        {
          "id": "120100021323006",
          "stationId": "120100021323006",
          "nameZh": "职业大学",
          "nameEn": "Zhi Ye Da Xue",
          "target": "zhi ye da xue",
          "pinyin": "zhiyedaxue",
          "lat": 39.231034,
          "lon": 117.181972,
          "sequence": 26
        },
        {
          "id": "120100021323005",
          "stationId": "120100021323005",
          "nameZh": "北辰道",
          "nameEn": "Bei Chen Dao",
          "target": "bei chen dao",
          "pinyin": "beichendao",
          "lat": 39.240641,
          "lon": 117.173656,
          "sequence": 27
        },
        {
          "id": "120100021323004",
          "stationId": "120100021323004",
          "nameZh": "丹河北道",
          "nameEn": "Dan He Bei Dao",
          "target": "dan he bei dao",
          "pinyin": "danhebeidao",
          "lat": 39.252431,
          "lon": 117.163651,
          "sequence": 28
        },
        {
          "id": "120100021323003",
          "stationId": "120100021323003",
          "nameZh": "北辰科技园北",
          "nameEn": "Bei Chen Ke Ji Yuan Bei",
          "target": "bei chen ke ji yuan bei",
          "pinyin": "beichenkejiyuanbei",
          "lat": 39.267876,
          "lon": 117.149889,
          "sequence": 29
        }
      ],
      "segments": [
        [
          "120100021323031",
          "120100021323030",
          "120100021323029",
          "120100021323028",
          "120100021323027",
          "120100021323026",
          "120100021323025",
          "120100021323024",
          "120100021323023",
          "120100021323022",
          "120100021323021",
          "120100021323020",
          "120100021323019",
          "120100021319015",
          "120100021323017",
          "120100021323016",
          "120100021323015",
          "120100021323014",
          "120100021323013",
          "120100021323012",
          "120100021323011",
          "120100021323010",
          "120100021323009",
          "120100021323008",
          "120100021323007",
          "120100021323006",
          "120100021323005",
          "120100021323004",
          "120100021323003"
        ]
      ]
    },
    {
      "id": "1200-6",
      "operatorId": "1200",
      "operatorName": "天津地铁",
      "lineId": "6",
      "lineName": "6号线",
      "color": "#A61D7F",
      "loop": false,
      "stations": [
        {
          "id": "120100021325051",
          "stationId": "120100021325051",
          "nameZh": "南孙庄",
          "nameEn": "Nan Sun Zhuang",
          "target": "nan sun zhuang",
          "pinyin": "nansunzhuang",
          "lat": 39.206528,
          "lon": 117.318352,
          "sequence": 1
        },
        {
          "id": "120100021325052",
          "stationId": "120100021325052",
          "nameZh": "南何庄",
          "nameEn": "Nan He Zhuang",
          "target": "nan he zhuang",
          "pinyin": "nanhezhuang",
          "lat": 39.206352,
          "lon": 117.291016,
          "sequence": 2
        },
        {
          "id": "120100021325053",
          "stationId": "120100021325053",
          "nameZh": "大毕庄",
          "nameEn": "Da Bi Zhuang",
          "target": "da bi zhuang",
          "pinyin": "dabizhuang",
          "lat": 39.202998,
          "lon": 117.279144,
          "sequence": 3
        },
        {
          "id": "120100021325054",
          "stationId": "120100021325054",
          "nameZh": "金钟街",
          "nameEn": "Jin Zhong Jie",
          "target": "jin zhong jie",
          "pinyin": "jinzhongjie",
          "lat": 39.19988,
          "lon": 117.266101,
          "sequence": 4
        },
        {
          "id": "120100021325055",
          "stationId": "120100021325055",
          "nameZh": "徐庄子",
          "nameEn": "Xu Zhuang Zi",
          "target": "xu zhuang zi",
          "pinyin": "xuzhuangzi",
          "lat": 39.190924,
          "lon": 117.254154,
          "sequence": 5
        },
        {
          "id": "120100021323014",
          "stationId": "120100021323014",
          "nameZh": "金钟河大街",
          "nameEn": "Jin Zhong He Da Jie",
          "target": "jin zhong he da jie",
          "pinyin": "jinzhonghedajie",
          "lat": 39.172135,
          "lon": 117.241892,
          "sequence": 6
        },
        {
          "id": "120100021325057",
          "stationId": "120100021325057",
          "nameZh": "民权门",
          "nameEn": "Min Quan Men",
          "target": "min quan men",
          "pinyin": "minquanmen",
          "lat": 39.168658,
          "lon": 117.233382,
          "sequence": 7
        },
        {
          "id": "120100021325058",
          "stationId": "120100021325058",
          "nameZh": "北宁公园",
          "nameEn": "Bei Ning Gong Yuan",
          "target": "bei ning gong yuan",
          "pinyin": "beininggongyuan",
          "lat": 39.166274,
          "lon": 117.223159,
          "sequence": 8
        },
        {
          "id": "120100021325059",
          "stationId": "120100021325059",
          "nameZh": "北站",
          "nameEn": "Bei Zhan",
          "target": "bei zhan",
          "pinyin": "beizhan",
          "lat": 39.166648,
          "lon": 117.207438,
          "sequence": 9
        },
        {
          "id": "120100021325060",
          "stationId": "120100021325060",
          "nameZh": "新开河",
          "nameEn": "Xin Kai He",
          "target": "xin kai he",
          "pinyin": "xinkaihe",
          "lat": 39.168877,
          "lon": 117.202847,
          "sequence": 10
        },
        {
          "id": "120100021325061",
          "stationId": "120100021325061",
          "nameZh": "外院附中",
          "nameEn": "Wai Yuan Fu Zhong",
          "target": "wai yuan fu zhong",
          "pinyin": "waiyuanfuzhong",
          "lat": 39.171266,
          "lon": 117.19183,
          "sequence": 11
        },
        {
          "id": "120100021325062",
          "stationId": "120100021325062",
          "nameZh": "天泰路",
          "nameEn": "Tian Tai Lu",
          "target": "tian tai lu",
          "pinyin": "tiantailu",
          "lat": 39.168219,
          "lon": 117.183317,
          "sequence": 12
        },
        {
          "id": "120100021325064",
          "stationId": "120100021325064",
          "nameZh": "北竹林",
          "nameEn": "Bei Zhu Lin",
          "target": "bei zhu lin",
          "pinyin": "beizhulin",
          "lat": 39.160215,
          "lon": 117.172709,
          "sequence": 13
        },
        {
          "id": "120100021325065",
          "stationId": "120100021325065",
          "nameZh": "西站",
          "nameEn": "Xizhan",
          "target": "xizhan",
          "pinyin": "xizhan",
          "lat": 39.156977,
          "lon": 117.166787,
          "sequence": 14
        },
        {
          "id": "120100021325066",
          "stationId": "120100021325066",
          "nameZh": "复兴路",
          "nameEn": "Fu Xing Lu",
          "target": "fu xing lu",
          "pinyin": "fuxinglu",
          "lat": 39.156157,
          "lon": 117.157852,
          "sequence": 15
        },
        {
          "id": "120100021325067",
          "stationId": "120100021325067",
          "nameZh": "人民医院",
          "nameEn": "Ren Min Yi Yuan",
          "target": "ren min yi yuan",
          "pinyin": "renminyiyuan",
          "lat": 39.147393,
          "lon": 117.149712,
          "sequence": 16
        },
        {
          "id": "120100021325019",
          "stationId": "120100021325019",
          "nameZh": "长虹公园",
          "nameEn": "Chang Hong Gong Yuan",
          "target": "chang hong gong yuan",
          "pinyin": "changhonggongyuan",
          "lat": 39.137806,
          "lon": 117.149444,
          "sequence": 17
        },
        {
          "id": "120100021325020",
          "stationId": "120100021325020",
          "nameZh": "宜宾道",
          "nameEn": "Yi Bin Dao",
          "target": "yi bin dao",
          "pinyin": "yibindao",
          "lat": 39.126417,
          "lon": 117.149321,
          "sequence": 18
        },
        {
          "id": "120100021325021",
          "stationId": "120100021325021",
          "nameZh": "鞍山西道",
          "nameEn": "An Shan Xi Dao",
          "target": "an shan xi dao",
          "pinyin": "anshanxidao",
          "lat": 39.11653,
          "lon": 117.149365,
          "sequence": 19
        },
        {
          "id": "120100021325022",
          "stationId": "120100021325022",
          "nameZh": "天拖",
          "nameEn": "Tian Tuo",
          "target": "tian tuo",
          "pinyin": "tiantuo",
          "lat": 39.109224,
          "lon": 117.149438,
          "sequence": 20
        },
        {
          "id": "120100021325023",
          "stationId": "120100021325023",
          "nameZh": "一中心医院",
          "nameEn": "Yi Zhong Xin Yi Yuan",
          "target": "yi zhong xin yi yuan",
          "pinyin": "yizhongxinyiyuan",
          "lat": 39.103145,
          "lon": 117.149454,
          "sequence": 21
        },
        {
          "id": "120100021325024",
          "stationId": "120100021325024",
          "nameZh": "红旗南路",
          "nameEn": "Hong Qi Nan Lu",
          "target": "hong qi nan lu",
          "pinyin": "hongqinanlu",
          "lat": 39.092757,
          "lon": 117.148149,
          "sequence": 22
        },
        {
          "id": "120100021325025",
          "stationId": "120100021325025",
          "nameZh": "迎风道",
          "nameEn": "Ying Feng Dao",
          "target": "ying feng dao",
          "pinyin": "yingfengdao",
          "lat": 39.086153,
          "lon": 117.149468,
          "sequence": 23
        },
        {
          "id": "120100021325026",
          "stationId": "120100021325026",
          "nameZh": "南翠屏",
          "nameEn": "Nan Cui Ping",
          "target": "nan cui ping",
          "pinyin": "nancuiping",
          "lat": 39.079964,
          "lon": 117.15864,
          "sequence": 24
        },
        {
          "id": "120100021325069",
          "stationId": "120100021325069",
          "nameZh": "水上公园东路",
          "nameEn": "Shui Shang Gong Yuan Dong Lu",
          "target": "shui shang gong yuan dong lu",
          "pinyin": "shuishanggongyuandonglu",
          "lat": 39.079509,
          "lon": 117.173133,
          "sequence": 25
        },
        {
          "id": "120100021323025",
          "stationId": "120100021323025",
          "nameZh": "肿瘤医院",
          "nameEn": "Zhongliu Yiyuan",
          "target": "zhongliu yiyuan",
          "pinyin": "zhongliuyiyuan",
          "lat": 39.080114,
          "lon": 117.182043,
          "sequence": 26
        },
        {
          "id": "120100021323024",
          "stationId": "120100021323024",
          "nameZh": "天津宾馆",
          "nameEn": "Tian Jin Bin Guan",
          "target": "tian jin bin guan",
          "pinyin": "tianjinbinguan",
          "lat": 39.08533,
          "lon": 117.198548,
          "sequence": 27
        },
        {
          "id": "120100021323023",
          "stationId": "120100021323023",
          "nameZh": "文化中心",
          "nameEn": "Wenhua Zhongxin",
          "target": "wenhua zhongxin",
          "pinyin": "wenhuazhongxin",
          "lat": 39.086142,
          "lon": 117.206855,
          "sequence": 28
        },
        {
          "id": "120100021325073",
          "stationId": "120100021325073",
          "nameZh": "乐园道",
          "nameEn": "Le Yuan Dao",
          "target": "le yuan dao",
          "pinyin": "leyuandao",
          "lat": 39.091252,
          "lon": 117.217504,
          "sequence": 29
        },
        {
          "id": "120100021325074",
          "stationId": "120100021325074",
          "nameZh": "尖山路",
          "nameEn": "Jian Shan Lu",
          "target": "jian shan lu",
          "pinyin": "jianshanlu",
          "lat": 39.087236,
          "lon": 117.224,
          "sequence": 30
        },
        {
          "id": "120100021325075",
          "stationId": "120100021325075",
          "nameZh": "医大二院",
          "nameEn": "Yida Eryuan",
          "target": "yida eryuan",
          "pinyin": "yidaeryuan",
          "lat": 39.081375,
          "lon": 117.222935,
          "sequence": 31
        },
        {
          "id": "120100021325076",
          "stationId": "120100021325076",
          "nameZh": "梅江道",
          "nameEn": "Mei Jiang Dao",
          "target": "mei jiang dao",
          "pinyin": "meijiangdao",
          "lat": 39.06881,
          "lon": 117.225609,
          "sequence": 32
        },
        {
          "id": "120100021325077",
          "stationId": "120100021325077",
          "nameZh": "左江道",
          "nameEn": "Zuo Jiang Dao",
          "target": "zuo jiang dao",
          "pinyin": "zuojiangdao",
          "lat": 39.06001,
          "lon": 117.217741,
          "sequence": 33
        },
        {
          "id": "120100021325078",
          "stationId": "120100021325078",
          "nameZh": "梅江公园",
          "nameEn": "Mei Jiang Gong Yuan",
          "target": "mei jiang gong yuan",
          "pinyin": "meijianggongyuan",
          "lat": 39.052331,
          "lon": 117.217558,
          "sequence": 34
        },
        {
          "id": "120100021325079",
          "stationId": "120100021325079",
          "nameZh": "梅江会展中心",
          "nameEn": "Mei Jiang Hui Zhan Zhong Xin",
          "target": "mei jiang hui zhan zhong xin",
          "pinyin": "meijianghuizhanzhongxin",
          "lat": 39.044312,
          "lon": 117.217726,
          "sequence": 35
        },
        {
          "id": "120100021325080",
          "stationId": "120100021325080",
          "nameZh": "解放南路",
          "nameEn": "Jie Fang Nan Lu",
          "target": "jie fang nan lu",
          "pinyin": "jiefangnanlu",
          "lat": 39.040749,
          "lon": 117.234015,
          "sequence": 36
        },
        {
          "id": "120100021325081",
          "stationId": "120100021325081",
          "nameZh": "洞庭路",
          "nameEn": "Dong Ting Lu",
          "target": "dong ting lu",
          "pinyin": "dongtinglu",
          "lat": 39.04359,
          "lon": 117.245877,
          "sequence": 37
        },
        {
          "id": "120100021325082",
          "stationId": "120100021325082",
          "nameZh": "梅林路",
          "nameEn": "Mei Lin Lu",
          "target": "mei lin lu",
          "pinyin": "meilinlu",
          "lat": 39.04482,
          "lon": 117.25478,
          "sequence": 38
        },
        {
          "id": "120100021321024",
          "stationId": "120100021321024",
          "nameZh": "渌水道",
          "nameEn": "Lushuidao",
          "target": "lushuidao",
          "pinyin": "lushuidao",
          "lat": 39.045553,
          "lon": 117.270007,
          "sequence": 39
        },
        {
          "id": "900000115252002",
          "stationId": "900000115252002",
          "nameZh": "双港",
          "nameEn": "Shuanggang",
          "target": "shuanggang",
          "pinyin": "shuanggang",
          "lat": 39.030276,
          "lon": 117.277584,
          "sequence": 40
        },
        {
          "id": "900000115252003",
          "stationId": "900000115252003",
          "nameZh": "景荷道",
          "nameEn": "Jinghe Dao",
          "target": "jinghe dao",
          "pinyin": "jinghedao",
          "lat": 39.019941,
          "lon": 117.284097,
          "sequence": 41
        },
        {
          "id": "900000115252004",
          "stationId": "900000115252004",
          "nameZh": "景荔道",
          "nameEn": "Jingli Dao",
          "target": "jingli dao",
          "pinyin": "jinglidao",
          "lat": 39.011383,
          "lon": 117.289639,
          "sequence": 42
        },
        {
          "id": "900000115252005",
          "stationId": "900000115252005",
          "nameZh": "天津大学北洋园校区",
          "nameEn": "Tianjin Daxue Beiyang Yuanxiaoqu",
          "target": "tianjin daxue beiyang yuanxiaoqu",
          "pinyin": "tianjindaxuebeiyangyuanxiaoqu",
          "lat": 38.992667,
          "lon": 117.308574,
          "sequence": 43
        },
        {
          "id": "900000115252006",
          "stationId": "900000115252006",
          "nameZh": "海河教育园区",
          "nameEn": "Haihe Jiaoyu Yuanqu",
          "target": "haihe jiaoyu yuanqu",
          "pinyin": "haihejiaoyuyuanqu",
          "lat": 38.988951,
          "lon": 117.322181,
          "sequence": 44
        },
        {
          "id": "900000115252007",
          "stationId": "900000115252007",
          "nameZh": "南开大学津南校区",
          "nameEn": "Nankai Daxue Jinnan Xiaoqu",
          "target": "nankai daxue jinnan xiaoqu",
          "pinyin": "nankaidaxuejinnanxiaoqu",
          "lat": 38.982799,
          "lon": 117.341553,
          "sequence": 45
        },
        {
          "id": "900000115252008",
          "stationId": "900000115252008",
          "nameZh": "和慧南路",
          "nameEn": "Hehui Nanlu",
          "target": "hehui nanlu",
          "pinyin": "hehuinanlu",
          "lat": 38.981306,
          "lon": 117.360346,
          "sequence": 46
        },
        {
          "id": "900000115252009",
          "stationId": "900000115252009",
          "nameZh": "咸水沽西",
          "nameEn": "Xianshui Guxi",
          "target": "xianshui guxi",
          "pinyin": "xianshuiguxi",
          "lat": 38.980612,
          "lon": 117.373829,
          "sequence": 47
        }
      ],
      "segments": [
        [
          "120100021325051",
          "120100021325052",
          "120100021325053",
          "120100021325054",
          "120100021325055",
          "120100021323014",
          "120100021325057",
          "120100021325058",
          "120100021325059",
          "120100021325060",
          "120100021325061",
          "120100021325062",
          "120100021325064",
          "120100021325065",
          "120100021325066",
          "120100021325067",
          "120100021325019",
          "120100021325020",
          "120100021325021",
          "120100021325022",
          "120100021325023",
          "120100021325024",
          "120100021325025",
          "120100021325026",
          "120100021325069",
          "120100021323025",
          "120100021323024",
          "120100021323023",
          "120100021325073",
          "120100021325074",
          "120100021325075",
          "120100021325076",
          "120100021325077",
          "120100021325078",
          "120100021325079",
          "120100021325080",
          "120100021325081",
          "120100021325082",
          "120100021321024"
        ],
        [
          "120100021321024",
          "900000115252002",
          "900000115252003",
          "900000115252004",
          "900000115252005",
          "900000115252006",
          "900000115252007",
          "900000115252008",
          "900000115252009"
        ]
      ]
    },
    {
      "id": "1200-7",
      "operatorId": "1200",
      "operatorName": "天津地铁",
      "lineId": "7",
      "lineName": "7号线",
      "color": "#D0970A",
      "loop": false,
      "stations": [
        {
          "id": "120100021904009",
          "stationId": "120100021904009",
          "nameZh": "鼓楼",
          "nameEn": "Gulou",
          "target": "gulou",
          "pinyin": "gulou",
          "lat": 39.137127,
          "lon": 117.181228,
          "sequence": 1
        },
        {
          "id": "900000088730008",
          "stationId": "900000088730008",
          "nameZh": "福安大街",
          "nameEn": "Fuan Dajie",
          "target": "fuan dajie",
          "pinyin": "fuandajie",
          "lat": 39.128985,
          "lon": 117.180606,
          "sequence": 2
        },
        {
          "id": "120100021504012",
          "stationId": "120100021504012",
          "nameZh": "海光寺",
          "nameEn": "Haiguangsi",
          "target": "haiguangsi",
          "pinyin": "haiguangsi",
          "lat": 39.122349,
          "lon": 117.177534,
          "sequence": 3
        },
        {
          "id": "120100021321011",
          "stationId": "120100021321011",
          "nameZh": "天津大学六里台",
          "nameEn": "Tianjin Daxue Liuli Tai",
          "target": "tianjin daxue liuli tai",
          "pinyin": "tianjindaxueliulitai",
          "lat": 39.11284,
          "lon": 117.179632,
          "sequence": 4
        },
        {
          "id": "900000082333023",
          "stationId": "900000082333023",
          "nameZh": "南开大学八里台",
          "nameEn": "Nankai Daxue Balitai",
          "target": "nankai daxue balitai",
          "pinyin": "nankaidaxuebalitai",
          "lat": 39.102527,
          "lon": 117.179299,
          "sequence": 5
        },
        {
          "id": "120100021500018",
          "stationId": "120100021500018",
          "nameZh": "天塔",
          "nameEn": "Tianta",
          "target": "tianta",
          "pinyin": "tianta",
          "lat": 39.095775,
          "lon": 117.177759,
          "sequence": 6
        },
        {
          "id": "120100021323025",
          "stationId": "120100021323025",
          "nameZh": "肿瘤医院",
          "nameEn": "Zhongliu Yiyuan",
          "target": "zhongliu yiyuan",
          "pinyin": "zhongliuyiyuan",
          "lat": 39.080114,
          "lon": 117.182043,
          "sequence": 7
        },
        {
          "id": "900000079480018",
          "stationId": "900000079480018",
          "nameZh": "丽江道",
          "nameEn": "Lijiang Dao",
          "target": "lijiang dao",
          "pinyin": "lijiangdao",
          "lat": 39.062765,
          "lon": 117.19417,
          "sequence": 8
        },
        {
          "id": "900000088730015",
          "stationId": "900000088730015",
          "nameZh": "王兰庄",
          "nameEn": "Wanglanzhuang",
          "target": "wanglanzhuang",
          "pinyin": "wanglanzhuang",
          "lat": 39.05069,
          "lon": 117.195232,
          "sequence": 9
        },
        {
          "id": "900000088730016",
          "stationId": "900000088730016",
          "nameZh": "梅江会展中心南",
          "nameEn": "Meijiang Huizhan Zhongxin Nan",
          "target": "meijiang huizhan zhongxin nan",
          "pinyin": "meijianghuizhanzhongxinnan",
          "lat": 39.036741,
          "lon": 117.20581,
          "sequence": 10
        },
        {
          "id": "900000088730017",
          "stationId": "900000088730017",
          "nameZh": "张道口",
          "nameEn": "Zhang Daokou",
          "target": "zhang daokou",
          "pinyin": "zhangdaokou",
          "lat": 39.02882,
          "lon": 117.218019,
          "sequence": 11
        },
        {
          "id": "900000088730018",
          "stationId": "900000088730018",
          "nameZh": "兴华道",
          "nameEn": "Xinghua Dao",
          "target": "xinghua dao",
          "pinyin": "xinghuadao",
          "lat": 39.018892,
          "lon": 117.216217,
          "sequence": 12
        },
        {
          "id": "900000088730019",
          "stationId": "900000088730019",
          "nameZh": "宏源道",
          "nameEn": "Hongyuan Dao",
          "target": "hongyuan dao",
          "pinyin": "hongyuandao",
          "lat": 39.006893,
          "lon": 117.222001,
          "sequence": 13
        },
        {
          "id": "900000088730020",
          "stationId": "900000088730020",
          "nameZh": "芦北路",
          "nameEn": "Lubei Lu",
          "target": "lubei lu",
          "pinyin": "lubeilu",
          "lat": 38.990335,
          "lon": 117.229383,
          "sequence": 14
        },
        {
          "id": "900000088730021",
          "stationId": "900000088730021",
          "nameZh": "赛达路",
          "nameEn": "Saida Lu",
          "target": "saida lu",
          "pinyin": "saidalu",
          "lat": 38.982127,
          "lon": 117.231981,
          "sequence": 15
        }
      ],
      "segments": [
        [
          "120100021904009",
          "900000088730008",
          "120100021504012",
          "120100021321011",
          "900000082333023",
          "120100021500018",
          "120100021323025",
          "900000079480018",
          "900000088730015",
          "900000088730016",
          "900000088730017",
          "900000088730018",
          "900000088730019",
          "900000088730020",
          "900000088730021"
        ]
      ]
    },
    {
      "id": "1200-9",
      "operatorId": "1200",
      "operatorName": "天津地铁",
      "lineId": "9",
      "lineName": "9号线",
      "color": "#2249A3",
      "loop": false,
      "stations": [
        {
          "id": "120100031870020",
          "stationId": "120100031870020",
          "nameZh": "东海路",
          "nameEn": "Donghai Lu",
          "target": "donghai lu",
          "pinyin": "donghailu",
          "lat": 39.040571,
          "lon": 117.737288,
          "sequence": 1
        },
        {
          "id": "120100031870019",
          "stationId": "120100031870019",
          "nameZh": "会展中心",
          "nameEn": "Huizhan Zhongxin",
          "target": "huizhan zhongxin",
          "pinyin": "huizhanzhongxin",
          "lat": 39.029989,
          "lon": 117.731698,
          "sequence": 2
        },
        {
          "id": "120100031870022",
          "stationId": "120100031870022",
          "nameZh": "太湖路",
          "nameEn": "Taihu Lu",
          "target": "taihu lu",
          "pinyin": "taihulu",
          "lat": 39.019896,
          "lon": 117.723405,
          "sequence": 3
        },
        {
          "id": "120100031870018",
          "stationId": "120100031870018",
          "nameZh": "市民广场",
          "nameEn": "Shimin Guangchang",
          "target": "shimin guangchang",
          "pinyin": "shiminguangchang",
          "lat": 39.018183,
          "lon": 117.70306,
          "sequence": 4
        },
        {
          "id": "120100031870017",
          "stationId": "120100031870017",
          "nameZh": "泰达",
          "nameEn": "Taida",
          "target": "taida",
          "pinyin": "taida",
          "lat": 39.025523,
          "lon": 117.679373,
          "sequence": 5
        },
        {
          "id": "120100031870016",
          "stationId": "120100031870016",
          "nameZh": "塘沽",
          "nameEn": "Tanggu",
          "target": "tanggu",
          "pinyin": "tanggu",
          "lat": 39.029556,
          "lon": 117.66105,
          "sequence": 6
        },
        {
          "id": "120100031870015",
          "stationId": "120100031870015",
          "nameZh": "胡家园",
          "nameEn": "Hujiayuan",
          "target": "hujiayuan",
          "pinyin": "hujiayuan",
          "lat": 39.040524,
          "lon": 117.607373,
          "sequence": 7
        },
        {
          "id": "120100031870014",
          "stationId": "120100031870014",
          "nameZh": "钢管公司",
          "nameEn": "Gangguan Gongsi",
          "target": "gangguan gongsi",
          "pinyin": "gangguangongsi",
          "lat": 39.039772,
          "lon": 117.503891,
          "sequence": 8
        },
        {
          "id": "120100031870013",
          "stationId": "120100031870013",
          "nameZh": "军粮城",
          "nameEn": "Junliangcheng",
          "target": "junliangcheng",
          "pinyin": "junliangcheng",
          "lat": 39.048049,
          "lon": 117.456102,
          "sequence": 9
        },
        {
          "id": "120100031870012",
          "stationId": "120100031870012",
          "nameZh": "小东庄",
          "nameEn": "Xiaodongzhuang",
          "target": "xiaodongzhuang",
          "pinyin": "xiaodongzhuang",
          "lat": 39.064397,
          "lon": 117.403344,
          "sequence": 10
        },
        {
          "id": "120100031870011",
          "stationId": "120100031870011",
          "nameZh": "东丽开发区",
          "nameEn": "Dongli Kaifaqu",
          "target": "dongli kaifaqu",
          "pinyin": "donglikaifaqu",
          "lat": 39.079404,
          "lon": 117.357421,
          "sequence": 11
        },
        {
          "id": "120100031870010",
          "stationId": "120100031870010",
          "nameZh": "新立",
          "nameEn": "Xinli",
          "target": "xinli",
          "pinyin": "xinli",
          "lat": 39.085873,
          "lon": 117.336003,
          "sequence": 12
        },
        {
          "id": "120100031870021",
          "stationId": "120100031870021",
          "nameZh": "张贵庄",
          "nameEn": "Zhangguizhuang",
          "target": "zhangguizhuang",
          "pinyin": "zhangguizhuang",
          "lat": 39.092098,
          "lon": 117.307795,
          "sequence": 13
        },
        {
          "id": "120100031870009",
          "stationId": "120100031870009",
          "nameZh": "二号桥",
          "nameEn": "Erhao Qiao",
          "target": "erhao qiao",
          "pinyin": "erhaoqiao",
          "lat": 39.09518,
          "lon": 117.29315,
          "sequence": 14
        },
        {
          "id": "120100031870008",
          "stationId": "120100031870008",
          "nameZh": "一号桥",
          "nameEn": "Yihao Qiao",
          "target": "yihao qiao",
          "pinyin": "yihaoqiao",
          "lat": 39.096056,
          "lon": 117.282944,
          "sequence": 15
        },
        {
          "id": "120100031870007",
          "stationId": "120100031870007",
          "nameZh": "中山门",
          "nameEn": "Zhongshanmen",
          "target": "zhongshanmen",
          "pinyin": "zhongshanmen",
          "lat": 39.100884,
          "lon": 117.264325,
          "sequence": 16
        },
        {
          "id": "120100031870006",
          "stationId": "120100031870006",
          "nameZh": "东兴路",
          "nameEn": "Dongxing Lu",
          "target": "dongxing lu",
          "pinyin": "dongxinglu",
          "lat": 39.103422,
          "lon": 117.24257,
          "sequence": 17
        },
        {
          "id": "120100021323020",
          "stationId": "120100021323020",
          "nameZh": "直沽",
          "nameEn": "Zhigu",
          "target": "zhigu",
          "pinyin": "zhigu",
          "lat": 39.111012,
          "lon": 117.233925,
          "sequence": 18
        },
        {
          "id": "120100031870004",
          "stationId": "120100031870004",
          "nameZh": "十一经路",
          "nameEn": "Shiyijing Lu",
          "target": "shiyijing lu",
          "pinyin": "shiyijinglu",
          "lat": 39.121377,
          "lon": 117.223951,
          "sequence": 19
        },
        {
          "id": "120100031870003",
          "stationId": "120100031870003",
          "nameZh": "大王庄",
          "nameEn": "Dawangzhuang",
          "target": "dawangzhuang",
          "pinyin": "dawangzhuang",
          "lat": 39.127225,
          "lon": 117.218471,
          "sequence": 20
        },
        {
          "id": "120100021500012",
          "stationId": "120100021500012",
          "nameZh": "天津站",
          "nameEn": "Tianjin Zhan",
          "target": "tianjin zhan",
          "pinyin": "tianjinzhan",
          "lat": 39.137783,
          "lon": 117.211693,
          "sequence": 21
        }
      ],
      "segments": [
        [
          "120100031870020",
          "120100031870019",
          "120100031870022",
          "120100031870018",
          "120100031870017",
          "120100031870016",
          "120100031870015",
          "120100031870014",
          "120100031870013",
          "120100031870012",
          "120100031870011",
          "120100031870010",
          "120100031870021",
          "120100031870009",
          "120100031870008",
          "120100031870007",
          "120100031870006",
          "120100021323020",
          "120100031870004",
          "120100031870003",
          "120100021500012"
        ]
      ]
    },
    {
      "id": "1200-10",
      "operatorId": "1200",
      "operatorName": "天津地铁",
      "lineId": "10",
      "lineName": "10号线",
      "color": "#B8D201",
      "loop": false,
      "stations": [
        {
          "id": "120100021904017",
          "stationId": "120100021904017",
          "nameZh": "屿东城",
          "nameEn": "Yudongcheng",
          "target": "yudongcheng",
          "pinyin": "yudongcheng",
          "lat": 39.147214,
          "lon": 117.27984,
          "sequence": 1
        },
        {
          "id": "900000079480002",
          "stationId": "900000079480002",
          "nameZh": "崂山道",
          "nameEn": "Laoshan Dao",
          "target": "laoshan dao",
          "pinyin": "laoshandao",
          "lat": 39.1387,
          "lon": 117.283592,
          "sequence": 2
        },
        {
          "id": "900000079480003",
          "stationId": "900000079480003",
          "nameZh": "香山道",
          "nameEn": "Xiangshan Dao",
          "target": "xiangshan dao",
          "pinyin": "xiangshandao",
          "lat": 39.131684,
          "lon": 117.286522,
          "sequence": 3
        },
        {
          "id": "900000079480004",
          "stationId": "900000079480004",
          "nameZh": "万山道",
          "nameEn": "Wanshan Dao",
          "target": "wanshan dao",
          "pinyin": "wanshandao",
          "lat": 39.124755,
          "lon": 117.287628,
          "sequence": 4
        },
        {
          "id": "120100021319018",
          "stationId": "120100021319018",
          "nameZh": "沙柳南路",
          "nameEn": "Shaliu Nanlu",
          "target": "shaliu nanlu",
          "pinyin": "shaliunanlu",
          "lat": 39.117388,
          "lon": 117.288921,
          "sequence": 5
        },
        {
          "id": "900000079480006",
          "stationId": "900000079480006",
          "nameZh": "方山道",
          "nameEn": "Fangshan Dao",
          "target": "fangshan dao",
          "pinyin": "fangshandao",
          "lat": 39.11014,
          "lon": 117.289429,
          "sequence": 6
        },
        {
          "id": "900000079480007",
          "stationId": "900000079480007",
          "nameZh": "金贸产业园",
          "nameEn": "Jinmao Chanyeyuan",
          "target": "jinmao chanyeyuan",
          "pinyin": "jinmaochanyeyuan",
          "lat": 39.102761,
          "lon": 117.287541,
          "sequence": 7
        },
        {
          "id": "900000079480008",
          "stationId": "900000079480008",
          "nameZh": "龙涵道",
          "nameEn": "Longhan Dao",
          "target": "longhan dao",
          "pinyin": "longhandao",
          "lat": 39.094459,
          "lon": 117.287063,
          "sequence": 8
        },
        {
          "id": "900000079480009",
          "stationId": "900000079480009",
          "nameZh": "环宇道",
          "nameEn": "Huanyu Dao",
          "target": "huanyu dao",
          "pinyin": "huanyudao",
          "lat": 39.084306,
          "lon": 117.285842,
          "sequence": 9
        },
        {
          "id": "900000079480010",
          "stationId": "900000079480010",
          "nameZh": "柳林路",
          "nameEn": "Liulin Lu",
          "target": "liulin lu",
          "pinyin": "liulinlu",
          "lat": 39.072173,
          "lon": 117.284779,
          "sequence": 10
        },
        {
          "id": "120100021504022",
          "stationId": "120100021504022",
          "nameZh": "财经大学",
          "nameEn": "Caijing Daxue",
          "target": "caijing daxue",
          "pinyin": "caijingdaxue",
          "lat": 39.063938,
          "lon": 117.276919,
          "sequence": 11
        },
        {
          "id": "900000079480012",
          "stationId": "900000079480012",
          "nameZh": "微山路",
          "nameEn": "Weishan Lu",
          "target": "weishan lu",
          "pinyin": "weishanlu",
          "lat": 39.062922,
          "lon": 117.259748,
          "sequence": 12
        },
        {
          "id": "900000079480013",
          "stationId": "900000079480013",
          "nameZh": "玛钢厂",
          "nameEn": "Magangchang",
          "target": "magangchang",
          "pinyin": "magangchang",
          "lat": 39.062545,
          "lon": 117.252721,
          "sequence": 13
        },
        {
          "id": "900000079480014",
          "stationId": "900000079480014",
          "nameZh": "春海路",
          "nameEn": "Chunhai Lu",
          "target": "chunhai lu",
          "pinyin": "chunhailu",
          "lat": 39.06296,
          "lon": 117.243057,
          "sequence": 14
        },
        {
          "id": "120100021321021",
          "stationId": "120100021321021",
          "nameZh": "南珠桥",
          "nameEn": "Nanzhuqiao",
          "target": "nanzhuqiao",
          "pinyin": "nanzhuqiao",
          "lat": 39.063683,
          "lon": 117.227425,
          "sequence": 15
        },
        {
          "id": "900000079480016",
          "stationId": "900000079480016",
          "nameZh": "友谊南路",
          "nameEn": "Youyi Nanlu",
          "target": "youyi nanlu",
          "pinyin": "youyinanlu",
          "lat": 39.063806,
          "lon": 117.21752,
          "sequence": 16
        },
        {
          "id": "900000079480017",
          "stationId": "900000079480017",
          "nameZh": "江湾二支路",
          "nameEn": "Jiangwan Er Zhilu",
          "target": "jiangwan er zhilu",
          "pinyin": "jiangwanerzhilu",
          "lat": 39.063799,
          "lon": 117.205862,
          "sequence": 17
        },
        {
          "id": "900000079480018",
          "stationId": "900000079480018",
          "nameZh": "丽江道",
          "nameEn": "Lijiang Dao",
          "target": "lijiang dao",
          "pinyin": "lijiangdao",
          "lat": 39.062765,
          "lon": 117.19417,
          "sequence": 18
        },
        {
          "id": "120100021323028",
          "stationId": "120100021323028",
          "nameZh": "昌凌路",
          "nameEn": "Changling Lu",
          "target": "changling lu",
          "pinyin": "changlinglu",
          "lat": 39.056723,
          "lon": 117.184695,
          "sequence": 19
        },
        {
          "id": "900000079480020",
          "stationId": "900000079480020",
          "nameZh": "瑶环路",
          "nameEn": "Yaohuan Lu",
          "target": "yaohuan lu",
          "pinyin": "yaohuanlu",
          "lat": 39.054725,
          "lon": 117.174953,
          "sequence": 20
        },
        {
          "id": "900000079480022",
          "stationId": "900000079480022",
          "nameZh": "于台",
          "nameEn": "Yutai",
          "target": "yutai",
          "pinyin": "yutai",
          "lat": 39.046497,
          "lon": 117.162563,
          "sequence": 21
        }
      ],
      "segments": [
        [
          "120100021904017",
          "900000079480002",
          "900000079480003",
          "900000079480004",
          "120100021319018",
          "900000079480006",
          "900000079480007",
          "900000079480008",
          "900000079480009",
          "900000079480010",
          "120100021504022",
          "900000079480012",
          "900000079480013",
          "900000079480014",
          "120100021321021",
          "900000079480016",
          "900000079480017",
          "900000079480018",
          "120100021323028",
          "900000079480020",
          "900000079480022"
        ]
      ]
    },
    {
      "id": "1200-11",
      "operatorId": "1200",
      "operatorName": "天津地铁",
      "lineId": "11",
      "lineName": "11号线",
      "color": "#2249A3",
      "loop": false,
      "stations": [
        {
          "id": "900000082333022",
          "stationId": "900000082333022",
          "nameZh": "水上公园西路",
          "nameEn": "Shuishang Gongyuan Xilu",
          "target": "shuishang gongyuan xilu",
          "pinyin": "shuishanggongyuanxilu",
          "lat": 39.099813,
          "lon": 117.164606,
          "sequence": 1
        },
        {
          "id": "900000082333023",
          "stationId": "900000082333023",
          "nameZh": "南开大学八里台",
          "nameEn": "Nankai Daxue Balitai",
          "target": "nankai daxue balitai",
          "pinyin": "nankaidaxuebalitai",
          "lat": 39.102527,
          "lon": 117.179299,
          "sequence": 2
        },
        {
          "id": "120100021500017",
          "stationId": "120100021500017",
          "nameZh": "吴家窑",
          "nameEn": "Wujiayao",
          "target": "wujiayao",
          "pinyin": "wujiayao",
          "lat": 39.099781,
          "lon": 117.186144,
          "sequence": 3
        },
        {
          "id": "900000082333025",
          "stationId": "900000082333025",
          "nameZh": "佟楼",
          "nameEn": "Tonglou",
          "target": "tonglou",
          "pinyin": "tonglou",
          "lat": 39.099749,
          "lon": 117.198392,
          "sequence": 4
        },
        {
          "id": "900000082333026",
          "stationId": "900000082333026",
          "nameZh": "迎宾馆",
          "nameEn": "Yingbinguan",
          "target": "yingbinguan",
          "pinyin": "yingbinguan",
          "lat": 39.094203,
          "lon": 117.203106,
          "sequence": 5
        },
        {
          "id": "120100021323023",
          "stationId": "120100021323023",
          "nameZh": "文化中心",
          "nameEn": "Wenhua Zhongxin",
          "target": "wenhua zhongxin",
          "pinyin": "wenhuazhongxin",
          "lat": 39.086142,
          "lon": 117.206855,
          "sequence": 6
        },
        {
          "id": "120100021325075",
          "stationId": "120100021325075",
          "nameZh": "医大二院",
          "nameEn": "Yida Eryuan",
          "target": "yida eryuan",
          "pinyin": "yidaeryuan",
          "lat": 39.081375,
          "lon": 117.222935,
          "sequence": 7
        },
        {
          "id": "120100021321019",
          "stationId": "120100021321019",
          "nameZh": "澧水道",
          "nameEn": "Lishui Dao",
          "target": "lishui dao",
          "pinyin": "lishuidao",
          "lat": 39.082621,
          "lon": 117.233517,
          "sequence": 8
        },
        {
          "id": "900000082333030",
          "stationId": "900000082333030",
          "nameZh": "内江路",
          "nameEn": "Neijiang Lu",
          "target": "neijiang lu",
          "pinyin": "neijianglu",
          "lat": 39.075834,
          "lon": 117.24561,
          "sequence": 9
        },
        {
          "id": "900000082333031",
          "stationId": "900000082333031",
          "nameZh": "陈塘",
          "nameEn": "Chentang",
          "target": "chentang",
          "pinyin": "chentang",
          "lat": 39.070858,
          "lon": 117.249458,
          "sequence": 10
        },
        {
          "id": "900000082333011",
          "stationId": "900000082333011",
          "nameZh": "东江道",
          "nameEn": "Dongjiangdao",
          "target": "dongjiangdao",
          "pinyin": "dongjiangdao",
          "lat": 39.068285,
          "lon": 117.25995,
          "sequence": 11
        },
        {
          "id": "900000082333012",
          "stationId": "900000082333012",
          "nameZh": "学苑北路",
          "nameEn": "Xueyuan Beilu",
          "target": "xueyuan beilu",
          "pinyin": "xueyuanbeilu",
          "lat": 39.074215,
          "lon": 117.272234,
          "sequence": 12
        },
        {
          "id": "900000082333013",
          "stationId": "900000082333013",
          "nameZh": "海河东路",
          "nameEn": "Haihe Donglu",
          "target": "haihe donglu",
          "pinyin": "haihedonglu",
          "lat": 39.082801,
          "lon": 117.276518,
          "sequence": 13
        },
        {
          "id": "900000079480009",
          "stationId": "900000079480009",
          "nameZh": "环宇道",
          "nameEn": "Huanyu Dao",
          "target": "huanyu dao",
          "pinyin": "huanyudao",
          "lat": 39.084306,
          "lon": 117.285842,
          "sequence": 14
        },
        {
          "id": "900000082333015",
          "stationId": "900000082333015",
          "nameZh": "雪莲南路",
          "nameEn": "Xuelian Nanlu",
          "target": "xuelian nanlu",
          "pinyin": "xueliannanlu",
          "lat": 39.082974,
          "lon": 117.29994,
          "sequence": 15
        },
        {
          "id": "900000082333016",
          "stationId": "900000082333016",
          "nameZh": "招远路",
          "nameEn": "Zhaoyuan Lu",
          "target": "zhaoyuan lu",
          "pinyin": "zhaoyuanlu",
          "lat": 39.080929,
          "lon": 117.310733,
          "sequence": 16
        },
        {
          "id": "900000082333017",
          "stationId": "900000082333017",
          "nameZh": "东丽文体中心",
          "nameEn": "Dongli Wenti Zhongxin",
          "target": "dongli wenti zhongxin",
          "pinyin": "dongliwentizhongxin",
          "lat": 39.079021,
          "lon": 117.328674,
          "sequence": 17
        },
        {
          "id": "900000082333018",
          "stationId": "900000082333018",
          "nameZh": "驯海路",
          "nameEn": "Xunhai Lu",
          "target": "xunhai lu",
          "pinyin": "xunhailu",
          "lat": 39.07625,
          "lon": 117.338756,
          "sequence": 18
        },
        {
          "id": "900000082333019",
          "stationId": "900000082333019",
          "nameZh": "东丽一经路",
          "nameEn": "Dongli Yijing Lu",
          "target": "dongli yijing lu",
          "pinyin": "dongliyijinglu",
          "lat": 39.073214,
          "lon": 117.349852,
          "sequence": 19
        },
        {
          "id": "900000082333020",
          "stationId": "900000082333020",
          "nameZh": "东丽三经路",
          "nameEn": "Dongli Sanjing Lu",
          "target": "dongli sanjing lu",
          "pinyin": "donglisanjinglu",
          "lat": 39.070246,
          "lon": 117.358351,
          "sequence": 20
        },
        {
          "id": "900000082333021",
          "stationId": "900000082333021",
          "nameZh": "东丽六经路",
          "nameEn": "Dongli Liujing Lu",
          "target": "dongli liujing lu",
          "pinyin": "dongliliujinglu",
          "lat": 39.065196,
          "lon": 117.374493,
          "sequence": 21
        }
      ],
      "segments": [
        [
          "900000082333022",
          "900000082333023",
          "120100021500017",
          "900000082333025",
          "900000082333026",
          "120100021323023",
          "120100021325075",
          "120100021321019",
          "900000082333030",
          "900000082333031",
          "900000082333011",
          "900000082333012",
          "900000082333013",
          "900000079480009",
          "900000082333015",
          "900000082333016",
          "900000082333017",
          "900000082333018",
          "900000082333019",
          "900000082333020",
          "900000082333021"
        ]
      ]
    },
    {
      "id": "1200-津静",
      "operatorId": "1200",
      "operatorName": "天津地铁",
      "lineId": "津静",
      "lineName": "津静线",
      "color": "#E4A8A3",
      "loop": false,
      "stations": [
        {
          "id": "120100021323031",
          "stationId": "120100021323031",
          "nameZh": "京华东道",
          "nameEn": "Jinghua Dongdao",
          "target": "jinghua dongdao",
          "pinyin": "jinghuadongdao",
          "lat": 39.031339,
          "lon": 117.1567,
          "sequence": 1
        },
        {
          "id": "900000179507003",
          "stationId": "900000179507003",
          "nameZh": "精武",
          "nameEn": "Jingwu",
          "target": "jingwu",
          "pinyin": "jingwu",
          "lat": 39.021337,
          "lon": 117.124683,
          "sequence": 2
        },
        {
          "id": "900000179507002",
          "stationId": "900000179507002",
          "nameZh": "团泊健康城",
          "nameEn": "Tuanbo Jiankang Cheng",
          "target": "tuanbo jiankang cheng",
          "pinyin": "tuanbojiankangcheng",
          "lat": 38.974129,
          "lon": 117.086721,
          "sequence": 3
        },
        {
          "id": "900000179507001",
          "stationId": "900000179507001",
          "nameZh": "团泊医学园",
          "nameEn": "Tuanboyi Xueyuan",
          "target": "tuanboyi xueyuan",
          "pinyin": "tuanboyixueyuan",
          "lat": 38.949306,
          "lon": 117.079724,
          "sequence": 4
        }
      ],
      "segments": [
        [
          "120100021323031",
          "900000179507003",
          "900000179507002",
          "900000179507001"
        ]
      ]
    }
  ]
}