{
  "city": "jinan",
  "cityNameZh": "济南",
  "cityNameEn": "Jinan",
  "source": "高德地图地铁数据（非官方接口）· 官方英文站名整理自 Wikipedia",
  "generatedAt": "2026-07-14T15:53:19.988Z",
  "lines": [
    {
      "id": "3701-1",
      "operatorId": "3701",
      "operatorName": "济南地铁",
      "lineId": "1",
      "lineName": "1号线",
      "color": "#D10195",
      "loop": false,
      "stations": [
        {
          "id": "900000071030001",
          "stationId": "900000071030001",
          "nameZh": "方特",
          "nameEn": "Fangte",
          "target": "fangte",
          "pinyin": "fangte",
          "lat": 36.68258,
          "lon": 116.894884,
          "sequence": 1
        },
        {
          "id": "900000071030002",
          "stationId": "900000071030002",
          "nameZh": "济南西站",
          "nameEn": "Jinanxi Railway Station",
          "target": "jinanxi railway station",
          "pinyin": "jinanxizhan",
          "lat": 36.669486,
          "lon": 116.893758,
          "sequence": 2
        },
        {
          "id": "900000071030003",
          "stationId": "900000071030003",
          "nameZh": "大杨",
          "nameEn": "Dayang",
          "target": "dayang",
          "pinyin": "dayang",
          "lat": 36.650122,
          "lon": 116.896207,
          "sequence": 3
        },
        {
          "id": "900000071030004",
          "stationId": "900000071030004",
          "nameZh": "王府庄",
          "nameEn": "Wangfuzhuang",
          "target": "wangfuzhuang",
          "pinyin": "wangfuzhuang",
          "lat": 36.623802,
          "lon": 116.881587,
          "sequence": 4
        },
        {
          "id": "900000071030005",
          "stationId": "900000071030005",
          "nameZh": "玉符河",
          "nameEn": "Yufuhe",
          "target": "yufuhe",
          "pinyin": "yufuhe",
          "lat": 36.610067,
          "lon": 116.857649,
          "sequence": 5
        },
        {
          "id": "900000071030006",
          "stationId": "900000071030006",
          "nameZh": "赵营",
          "nameEn": "Zhaoying",
          "target": "zhaoying",
          "pinyin": "zhaoying",
          "lat": 36.590704,
          "lon": 116.834664,
          "sequence": 6
        },
        {
          "id": "900000071030007",
          "stationId": "900000071030007",
          "nameZh": "紫薇路",
          "nameEn": "Ziweilu",
          "target": "ziweilu",
          "pinyin": "ziweilu",
          "lat": 36.568575,
          "lon": 116.810216,
          "sequence": 7
        },
        {
          "id": "900000071030008",
          "stationId": "900000071030008",
          "nameZh": "大学城",
          "nameEn": "Daxuecheng",
          "target": "daxuecheng",
          "pinyin": "daxuecheng",
          "lat": 36.552291,
          "lon": 116.803741,
          "sequence": 8
        },
        {
          "id": "900000071030009",
          "stationId": "900000071030009",
          "nameZh": "园博园",
          "nameEn": "Yuanboyuan",
          "target": "yuanboyuan",
          "pinyin": "yuanboyuan",
          "lat": 36.536088,
          "lon": 116.79996,
          "sequence": 9
        },
        {
          "id": "900000071030010",
          "stationId": "900000071030010",
          "nameZh": "创新谷",
          "nameEn": "Chuangxingu",
          "target": "chuangxingu",
          "pinyin": "chuangxingu",
          "lat": 36.510099,
          "lon": 116.805017,
          "sequence": 10
        },
        {
          "id": "900000071030011",
          "stationId": "900000071030011",
          "nameZh": "工研院",
          "nameEn": "Gongyanyuan",
          "target": "gongyanyuan",
          "pinyin": "gongyanyuan",
          "lat": 36.498445,
          "lon": 116.795194,
          "sequence": 11
        }
      ],
      "segments": [
        [
          "900000071030001",
          "900000071030002",
          "900000071030003",
          "900000071030004",
          "900000071030005",
          "900000071030006",
          "900000071030007",
          "900000071030008",
          "900000071030009",
          "900000071030010",
          "900000071030011"
        ]
      ]
    },
    {
      "id": "3701-云巴",
      "operatorId": "3701",
      "operatorName": "济南地铁",
      "lineId": "云巴",
      "lineName": "云巴1号线",
      "color": "#3080B7",
      "loop": true,
      "stations": [
        {
          "id": "900000235330022",
          "stationId": "900000235330022",
          "nameZh": "徐马",
          "nameEn": "Xuma",
          "target": "xuma",
          "pinyin": "xuma",
          "lat": 36.693946,
          "lon": 117.335413,
          "sequence": 1
        },
        {
          "id": "900000235330053",
          "stationId": "900000235330053",
          "nameZh": "春园路",
          "nameEn": "Chunyuan Lu",
          "target": "chunyuan lu",
          "pinyin": "chunyuanlu",
          "lat": 36.684813,
          "lon": 117.337984,
          "sequence": 2
        },
        {
          "id": "900000235330052",
          "stationId": "900000235330052",
          "nameZh": "市妇幼东院",
          "nameEn": "Shifuyou Dongyuan",
          "target": "shifuyou dongyuan",
          "pinyin": "shifuyoudongyuan",
          "lat": 36.683047,
          "lon": 117.330552,
          "sequence": 3
        },
        {
          "id": "900000235330051",
          "stationId": "900000235330051",
          "nameZh": "山东职业学院(云巴)",
          "nameEn": "Shandong Polytechnic",
          "target": "shandong polytechnic",
          "pinyin": "shandongzhiyexueyuanyunba",
          "lat": 36.674649,
          "lon": 117.325931,
          "sequence": 4
        },
        {
          "id": "900000235330050",
          "stationId": "900000235330050",
          "nameZh": "庄科",
          "nameEn": "Zhuangke",
          "target": "zhuangke",
          "pinyin": "zhuangke",
          "lat": 36.665214,
          "lon": 117.323684,
          "sequence": 5
        },
        {
          "id": "900000235330049",
          "stationId": "900000235330049",
          "nameZh": "春景路",
          "nameEn": "Chunjing Lu",
          "target": "chunjing lu",
          "pinyin": "chunjinglu",
          "lat": 36.658828,
          "lon": 117.318291,
          "sequence": 6
        },
        {
          "id": "900000235330048",
          "stationId": "900000235330048",
          "nameZh": "科创城",
          "nameEn": "Kechuangcheng",
          "target": "kechuangcheng",
          "pinyin": "kechuangcheng",
          "lat": 36.662325,
          "lon": 117.31085,
          "sequence": 7
        },
        {
          "id": "900000235330047",
          "stationId": "900000235330047",
          "nameZh": "春博路(云巴)",
          "nameEn": "Chunbo Lu",
          "target": "chunbo lu",
          "pinyin": "chunboluyunba",
          "lat": 36.670395,
          "lon": 117.307231,
          "sequence": 8
        },
        {
          "id": "900000235330046",
          "stationId": "900000235330046",
          "nameZh": "孙村",
          "nameEn": "Suncun",
          "target": "suncun",
          "pinyin": "suncun",
          "lat": 36.67869,
          "lon": 117.306675,
          "sequence": 9
        },
        {
          "id": "900000235330045",
          "stationId": "900000235330045",
          "nameZh": "彩虹湖东",
          "nameEn": "Caihong Hudong",
          "target": "caihong hudong",
          "pinyin": "caihonghudong",
          "lat": 36.679041,
          "lon": 117.300487,
          "sequence": 10
        },
        {
          "id": "900000235330044",
          "stationId": "900000235330044",
          "nameZh": "彩虹湖",
          "nameEn": "Caihonghu",
          "target": "caihonghu",
          "pinyin": "caihonghu",
          "lat": 36.67808,
          "lon": 117.293929,
          "sequence": 11
        },
        {
          "id": "900000235330043",
          "stationId": "900000235330043",
          "nameZh": "春意路",
          "nameEn": "Chunyi Lu",
          "target": "chunyi lu",
          "pinyin": "chunyilu",
          "lat": 36.677296,
          "lon": 117.28146,
          "sequence": 12
        },
        {
          "id": "900000235330042",
          "stationId": "900000235330042",
          "nameZh": "春喧路",
          "nameEn": "Chunxuan Lu",
          "target": "chunxuan lu",
          "pinyin": "chunxuanlu",
          "lat": 36.677606,
          "lon": 117.272654,
          "sequence": 13
        },
        {
          "id": "900000235330041",
          "stationId": "900000235330041",
          "nameZh": "沙沟",
          "nameEn": "Shagou",
          "target": "shagou",
          "pinyin": "shagou",
          "lat": 36.679707,
          "lon": 117.266092,
          "sequence": 14
        },
        {
          "id": "900000235330040",
          "stationId": "900000235330040",
          "nameZh": "科航路",
          "nameEn": "Kehang Lu",
          "target": "kehang lu",
          "pinyin": "kehanglu",
          "lat": 36.687625,
          "lon": 117.263624,
          "sequence": 15
        },
        {
          "id": "900000235330039",
          "stationId": "900000235330039",
          "nameZh": "春秀路",
          "nameEn": "Chunxiu Lu",
          "target": "chunxiu lu",
          "pinyin": "chunxiulu",
          "lat": 36.694257,
          "lon": 117.25816,
          "sequence": 16
        },
        {
          "id": "900000235330038",
          "stationId": "900000235330038",
          "nameZh": "唐宣路",
          "nameEn": "Tangxuan Lu",
          "target": "tangxuan lu",
          "pinyin": "tangxuanlu",
          "lat": 36.689588,
          "lon": 117.236914,
          "sequence": 17
        },
        {
          "id": "900000235330037",
          "stationId": "900000235330037",
          "nameZh": "历城文博中心",
          "nameEn": "Licheng Wenbo Zhongxin",
          "target": "licheng wenbo zhongxin",
          "pinyin": "lichengwenbozhongxin",
          "lat": 36.689668,
          "lon": 117.232445,
          "sequence": 18
        },
        {
          "id": "900000235330036",
          "stationId": "900000235330036",
          "nameZh": "唐冶(云巴)",
          "nameEn": "Tangye",
          "target": "tangye",
          "pinyin": "tangyeyunba",
          "lat": 36.689863,
          "lon": 117.227784,
          "sequence": 19
        },
        {
          "id": "900000235330035",
          "stationId": "900000235330035",
          "nameZh": "贞观街",
          "nameEn": "Zhenguan Jie",
          "target": "zhenguan jie",
          "pinyin": "zhenguanjie",
          "lat": 36.696429,
          "lon": 117.228032,
          "sequence": 20
        },
        {
          "id": "900000235330034",
          "stationId": "900000235330034",
          "nameZh": "历城二中唐冶校区(云巴)",
          "nameEn": "Licheng No.2 High School Tangye Campus",
          "target": "licheng no 2 high school tangye campus",
          "pinyin": "lichengerzhongtangyexiaoquyunba",
          "lat": 36.703699,
          "lon": 117.229278,
          "sequence": 21
        },
        {
          "id": "900000235330033",
          "stationId": "900000235330033",
          "nameZh": "彭家庄(云巴)",
          "nameEn": "Pengjiazhuang",
          "target": "pengjiazhuang",
          "pinyin": "pengjiazhuangyunba",
          "lat": 36.709118,
          "lon": 117.230211,
          "sequence": 22
        },
        {
          "id": "900000235330032",
          "stationId": "900000235330032",
          "nameZh": "唐冶东路",
          "nameEn": "Tangye Donglu",
          "target": "tangye donglu",
          "pinyin": "tangyedonglu",
          "lat": 36.709132,
          "lon": 117.237277,
          "sequence": 23
        },
        {
          "id": "900000235330031",
          "stationId": "900000235330031",
          "nameZh": "武家庄",
          "nameEn": "Wujiazhuang",
          "target": "wujiazhuang",
          "pinyin": "wujiazhuang",
          "lat": 36.709993,
          "lon": 117.253805,
          "sequence": 24
        },
        {
          "id": "900000235330030",
          "stationId": "900000235330030",
          "nameZh": "武将山东",
          "nameEn": "Wujiang Shandong",
          "target": "wujiang shandong",
          "pinyin": "wujiangshandong",
          "lat": 36.709401,
          "lon": 117.268328,
          "sequence": 25
        },
        {
          "id": "900000235330029",
          "stationId": "900000235330029",
          "nameZh": "科远路",
          "nameEn": "Keyuan Lu",
          "target": "keyuan lu",
          "pinyin": "keyuanlu",
          "lat": 36.703863,
          "lon": 117.270516,
          "sequence": 26
        },
        {
          "id": "900000235330028",
          "stationId": "900000235330028",
          "nameZh": "世纪大道春喧路",
          "nameEn": "Shiji Dadao Chunxuan Lu",
          "target": "shiji dadao chunxuan lu",
          "pinyin": "shijidadaochunxuanlu",
          "lat": 36.695202,
          "lon": 117.273828,
          "sequence": 27
        },
        {
          "id": "900000235330027",
          "stationId": "900000235330027",
          "nameZh": "春晖路",
          "nameEn": "Chunhui Lu",
          "target": "chunhui lu",
          "pinyin": "chunhuilu",
          "lat": 36.695163,
          "lon": 117.291774,
          "sequence": 28
        },
        {
          "id": "900000235330026",
          "stationId": "900000235330026",
          "nameZh": "高新实验中学",
          "nameEn": "Gaoxin Shiyan Zhongxue",
          "target": "gaoxin shiyan zhongxue",
          "pinyin": "gaoxinshiyanzhongxue",
          "lat": 36.695291,
          "lon": 117.298384,
          "sequence": 29
        },
        {
          "id": "900000235330025",
          "stationId": "900000235330025",
          "nameZh": "高新一中",
          "nameEn": "Gaoxin Yizhong",
          "target": "gaoxin yizhong",
          "pinyin": "gaoxinyizhong",
          "lat": 36.695123,
          "lon": 117.306509,
          "sequence": 30
        },
        {
          "id": "900000235330024",
          "stationId": "900000235330024",
          "nameZh": "西巨野河",
          "nameEn": "Xi Juyehe",
          "target": "xi juyehe",
          "pinyin": "xijuyehe",
          "lat": 36.694523,
          "lon": 117.316034,
          "sequence": 31
        },
        {
          "id": "900000235330023",
          "stationId": "900000235330023",
          "nameZh": "大正路",
          "nameEn": "Dazheng Lu",
          "target": "dazheng lu",
          "pinyin": "dazhenglu",
          "lat": 36.694114,
          "lon": 117.33028,
          "sequence": 32
        }
      ],
      "segments": [
        [
          "900000235330022",
          "900000235330053",
          "900000235330052",
          "900000235330051",
          "900000235330050",
          "900000235330049",
          "900000235330048",
          "900000235330047",
          "900000235330046",
          "900000235330045",
          "900000235330044",
          "900000235330043",
          "900000235330042",
          "900000235330041",
          "900000235330040",
          "900000235330039",
          "900000235330038",
          "900000235330037",
          "900000235330036",
          "900000235330035",
          "900000235330034",
          "900000235330033",
          "900000235330032",
          "900000235330031",
          "900000235330030",
          "900000235330029",
          "900000235330028",
          "900000235330027",
          "900000235330026",
          "900000235330025",
          "900000235330024",
          "900000235330023"
        ]
      ]
    },
    {
      "id": "3701-2",
      "operatorId": "3701",
      "operatorName": "济南地铁",
      "lineId": "2",
      "lineName": "2号线",
      "color": "#FFA500",
      "loop": false,
      "stations": [
        {
          "id": "900000071030004",
          "stationId": "900000071030004",
          "nameZh": "王府庄",
          "nameEn": "Wangfuzhuang",
          "target": "wangfuzhuang",
          "pinyin": "wangfuzhuang",
          "lat": 36.623802,
          "lon": 116.881587,
          "sequence": 1
        },
        {
          "id": "900000073474037",
          "stationId": "900000073474037",
          "nameZh": "腊山南",
          "nameEn": "Lashannan",
          "target": "lashannan",
          "pinyin": "lashannan",
          "lat": 36.624847,
          "lon": 116.902058,
          "sequence": 2
        },
        {
          "id": "900000073474036",
          "stationId": "900000073474036",
          "nameZh": "腊山",
          "nameEn": "Lashan",
          "target": "lashan",
          "pinyin": "lashan",
          "lat": 36.652471,
          "lon": 116.918965,
          "sequence": 3
        },
        {
          "id": "900000073474035",
          "stationId": "900000073474035",
          "nameZh": "二环西路",
          "nameEn": "Erhuanxilu",
          "target": "erhuanxilu",
          "pinyin": "erhuanxilu",
          "lat": 36.663397,
          "lon": 116.932335,
          "sequence": 4
        },
        {
          "id": "900000073474034",
          "stationId": "900000073474034",
          "nameZh": "老屯",
          "nameEn": "Laotun",
          "target": "laotun",
          "pinyin": "laotun",
          "lat": 36.666121,
          "lon": 116.95404,
          "sequence": 5
        },
        {
          "id": "900000073474033",
          "stationId": "900000073474033",
          "nameZh": "八里桥",
          "nameEn": "Baliqiao",
          "target": "baliqiao",
          "pinyin": "baliqiao",
          "lat": 36.670251,
          "lon": 116.962142,
          "sequence": 6
        },
        {
          "id": "900000073474032",
          "stationId": "900000073474032",
          "nameZh": "益康路",
          "nameEn": "Yikanglu",
          "target": "yikanglu",
          "pinyin": "yikanglu",
          "lat": 36.673391,
          "lon": 116.972487,
          "sequence": 7
        },
        {
          "id": "900000073474031",
          "stationId": "900000073474031",
          "nameZh": "济南站北",
          "nameEn": "Jinan Railway Station North",
          "target": "jinan railway station north",
          "pinyin": "jinanzhanbei",
          "lat": 36.677061,
          "lon": 116.985296,
          "sequence": 8
        },
        {
          "id": "900000073474030",
          "stationId": "900000073474030",
          "nameZh": "济泺路",
          "nameEn": "Jiluolu",
          "target": "jiluolu",
          "pinyin": "jiluolu",
          "lat": 36.684591,
          "lon": 116.994501,
          "sequence": 9
        },
        {
          "id": "900000073474029",
          "stationId": "900000073474029",
          "nameZh": "生产路",
          "nameEn": "Shengchanlu",
          "target": "shengchanlu",
          "pinyin": "shengchanlu",
          "lat": 36.684554,
          "lon": 117.016792,
          "sequence": 10
        },
        {
          "id": "900000073474028",
          "stationId": "900000073474028",
          "nameZh": "北园",
          "nameEn": "Beiyuan",
          "target": "beiyuan",
          "pinyin": "beiyuan",
          "lat": 36.686266,
          "lon": 117.033849,
          "sequence": 11
        },
        {
          "id": "900000073474027",
          "stationId": "900000073474027",
          "nameZh": "历山路",
          "nameEn": "Lishanlu",
          "target": "lishanlu",
          "pinyin": "lishanlu",
          "lat": 36.688889,
          "lon": 117.041955,
          "sequence": 12
        },
        {
          "id": "900000073474026",
          "stationId": "900000073474026",
          "nameZh": "七里堡",
          "nameEn": "Qilipu",
          "target": "qilipu",
          "pinyin": "qilipu",
          "lat": 36.690665,
          "lon": 117.067563,
          "sequence": 13
        },
        {
          "id": "900000073474025",
          "stationId": "900000073474025",
          "nameZh": "祝甸",
          "nameEn": "Zhudian",
          "target": "zhudian",
          "pinyin": "zhudian",
          "lat": 36.697363,
          "lon": 117.082382,
          "sequence": 14
        },
        {
          "id": "900000066599010",
          "stationId": "900000066599010",
          "nameZh": "八涧堡",
          "nameEn": "Bajianpu",
          "target": "bajianpu",
          "pinyin": "bajianbao",
          "lat": 36.704998,
          "lon": 117.103395,
          "sequence": 15
        },
        {
          "id": "900000073474023",
          "stationId": "900000073474023",
          "nameZh": "姜家庄",
          "nameEn": "Jiangjiazhuang",
          "target": "jiangjiazhuang",
          "pinyin": "jiangjiazhuang",
          "lat": 36.706385,
          "lon": 117.127551,
          "sequence": 16
        },
        {
          "id": "900000073474022",
          "stationId": "900000073474022",
          "nameZh": "凤凰北路",
          "nameEn": "Fenghuang Beilu",
          "target": "fenghuang beilu",
          "pinyin": "fenghuangbeilu",
          "lat": 36.708422,
          "lon": 117.145572,
          "sequence": 17
        },
        {
          "id": "900000073474021",
          "stationId": "900000073474021",
          "nameZh": "鲍山",
          "nameEn": "Baoshan",
          "target": "baoshan",
          "pinyin": "baoshan",
          "lat": 36.709211,
          "lon": 117.187961,
          "sequence": 18
        },
        {
          "id": "900000073474020",
          "stationId": "900000073474020",
          "nameZh": "彭家庄",
          "nameEn": "Pengjiazhuang",
          "target": "pengjiazhuang",
          "pinyin": "pengjiazhuang",
          "lat": 36.70961,
          "lon": 117.229862,
          "sequence": 19
        }
      ],
      "segments": [
        [
          "900000071030004",
          "900000073474037",
          "900000073474036",
          "900000073474035",
          "900000073474034",
          "900000073474033",
          "900000073474032",
          "900000073474031",
          "900000073474030",
          "900000073474029",
          "900000073474028",
          "900000073474027",
          "900000073474026",
          "900000073474025",
          "900000066599010",
          "900000073474023",
          "900000073474022",
          "900000073474021",
          "900000073474020"
        ]
      ]
    },
    {
      "id": "3701-3",
      "operatorId": "3701",
      "operatorName": "济南地铁",
      "lineId": "3",
      "lineName": "3号线",
      "color": "#2249A3",
      "loop": false,
      "stations": [
        {
          "id": "900000066599022",
          "stationId": "900000066599022",
          "nameZh": "机场南",
          "nameEn": "Jichangnan (Jinan International Airport South)",
          "target": "jichangnan jinan international airport south",
          "pinyin": "jichangnan",
          "lat": 36.85161,
          "lon": 117.210757,
          "sequence": 1
        },
        {
          "id": "900000066599018",
          "stationId": "900000066599018",
          "nameZh": "临空",
          "nameEn": "Linkong",
          "target": "linkong",
          "pinyin": "linkong",
          "lat": 36.829518,
          "lon": 117.209664,
          "sequence": 2
        },
        {
          "id": "900000066599019",
          "stationId": "900000066599019",
          "nameZh": "临港北路",
          "nameEn": "Lingangbeilu",
          "target": "lingangbeilu",
          "pinyin": "lingangbeilu",
          "lat": 36.798486,
          "lon": 117.207155,
          "sequence": 3
        },
        {
          "id": "900000066599020",
          "stationId": "900000066599020",
          "nameZh": "川流",
          "nameEn": "Chuanliu",
          "target": "chuanliu",
          "pinyin": "chuanliu",
          "lat": 36.775516,
          "lon": 117.193718,
          "sequence": 4
        },
        {
          "id": "900000066599021",
          "stationId": "900000066599021",
          "nameZh": "曲家庄",
          "nameEn": "Qujiazhuang",
          "target": "qujiazhuang",
          "pinyin": "qujiazhuang",
          "lat": 36.768758,
          "lon": 117.178175,
          "sequence": 5
        },
        {
          "id": "900000066599005",
          "stationId": "900000066599005",
          "nameZh": "滩头",
          "nameEn": "Tantou",
          "target": "tantou",
          "pinyin": "tantou",
          "lat": 36.76686,
          "lon": 117.1652,
          "sequence": 6
        },
        {
          "id": "900000066599006",
          "stationId": "900000066599006",
          "nameZh": "济南东站",
          "nameEn": "Jinandong Railway Station",
          "target": "jinandong railway station",
          "pinyin": "jinandongzhan",
          "lat": 36.747646,
          "lon": 117.159754,
          "sequence": 7
        },
        {
          "id": "900000066599007",
          "stationId": "900000066599007",
          "nameZh": "裴家营",
          "nameEn": "Peijiaying",
          "target": "peijiaying",
          "pinyin": "peijiaying",
          "lat": 36.734748,
          "lon": 117.159461,
          "sequence": 8
        },
        {
          "id": "900000066599008",
          "stationId": "900000066599008",
          "nameZh": "王舍人",
          "nameEn": "Wangsheren",
          "target": "wangsheren",
          "pinyin": "wangsheren",
          "lat": 36.720246,
          "lon": 117.138371,
          "sequence": 9
        },
        {
          "id": "900000066599009",
          "stationId": "900000066599009",
          "nameZh": "张马屯",
          "nameEn": "Zhangmatun",
          "target": "zhangmatun",
          "pinyin": "zhangmatun",
          "lat": 36.71877,
          "lon": 117.115131,
          "sequence": 10
        },
        {
          "id": "900000066599010",
          "stationId": "900000066599010",
          "nameZh": "八涧堡",
          "nameEn": "Bajianpu",
          "target": "bajianpu",
          "pinyin": "bajianbao",
          "lat": 36.704998,
          "lon": 117.103395,
          "sequence": 11
        },
        {
          "id": "900000066599011",
          "stationId": "900000066599011",
          "nameZh": "花园东路",
          "nameEn": "Huayuandonglu",
          "target": "huayuandonglu",
          "pinyin": "huayuandonglu",
          "lat": 36.692354,
          "lon": 117.106489,
          "sequence": 12
        },
        {
          "id": "900000066599012",
          "stationId": "900000066599012",
          "nameZh": "丁家庄",
          "nameEn": "Dingjiazhuang",
          "target": "dingjiazhuang",
          "pinyin": "dingjiazhuang",
          "lat": 36.677647,
          "lon": 117.109794,
          "sequence": 13
        },
        {
          "id": "900000066599013",
          "stationId": "900000066599013",
          "nameZh": "安成街",
          "nameEn": "Ancheng Jie",
          "target": "ancheng jie",
          "pinyin": "anchengjie",
          "lat": 36.668454,
          "lon": 117.109853,
          "sequence": 14
        },
        {
          "id": "900000066599014",
          "stationId": "900000066599014",
          "nameZh": "奥体中心",
          "nameEn": "Olympic Sports Center",
          "target": "olympic sports center",
          "pinyin": "aotizhongxin",
          "lat": 36.659401,
          "lon": 117.11151,
          "sequence": 15
        },
        {
          "id": "900000066599015",
          "stationId": "900000066599015",
          "nameZh": "龙奥大厦",
          "nameEn": "Longao Building",
          "target": "longao building",
          "pinyin": "longaodasha",
          "lat": 36.650738,
          "lon": 117.114436,
          "sequence": 16
        },
        {
          "id": "900000066599016",
          "stationId": "900000066599016",
          "nameZh": "孟家庄",
          "nameEn": "Mengjiazhuang",
          "target": "mengjiazhuang",
          "pinyin": "mengjiazhuang",
          "lat": 36.633326,
          "lon": 117.120075,
          "sequence": 17
        },
        {
          "id": "900000066599017",
          "stationId": "900000066599017",
          "nameZh": "龙洞",
          "nameEn": "Longdong",
          "target": "longdong",
          "pinyin": "longdong",
          "lat": 36.618222,
          "lon": 117.117876,
          "sequence": 18
        }
      ],
      "segments": [
        [
          "900000066599022",
          "900000066599018",
          "900000066599019",
          "900000066599020",
          "900000066599021",
          "900000066599005",
          "900000066599006",
          "900000066599007",
          "900000066599008",
          "900000066599009",
          "900000066599010",
          "900000066599011",
          "900000066599012",
          "900000066599013",
          "900000066599014",
          "900000066599015",
          "900000066599016",
          "900000066599017"
        ]
      ]
    },
    {
      "id": "3701-4",
      "operatorId": "3701",
      "operatorName": "济南地铁",
      "lineId": "4",
      "lineName": "4号线",
      "color": "#018237",
      "loop": false,
      "stations": [
        {
          "id": "900000073474020",
          "stationId": "900000073474020",
          "nameZh": "彭家庄",
          "nameEn": "Pengjiazhuang",
          "target": "pengjiazhuang",
          "pinyin": "pengjiazhuang",
          "lat": 36.70961,
          "lon": 117.229862,
          "sequence": 1
        },
        {
          "id": "900000217582002",
          "stationId": "900000217582002",
          "nameZh": "历城二中唐冶校区",
          "nameEn": "Licheng No.2 High School Tangye Campus",
          "target": "licheng no 2 high school tangye campus",
          "pinyin": "lichengerzhongtangyexiaoqu",
          "lat": 36.7027,
          "lon": 117.22909,
          "sequence": 2
        },
        {
          "id": "900000217582003",
          "stationId": "900000217582003",
          "nameZh": "唐冶",
          "nameEn": "Tangye",
          "target": "tangye",
          "pinyin": "tangye",
          "lat": 36.690131,
          "lon": 117.226263,
          "sequence": 3
        },
        {
          "id": "900000217582004",
          "stationId": "900000217582004",
          "nameZh": "唐冶公园",
          "nameEn": "Tangye Gongyuan",
          "target": "tangye gongyuan",
          "pinyin": "tangyegongyuan",
          "lat": 36.679345,
          "lon": 117.226833,
          "sequence": 4
        },
        {
          "id": "900000217582005",
          "stationId": "900000217582005",
          "nameZh": "邢村立交桥东",
          "nameEn": "Xingcun Lijiaoqiao East",
          "target": "xingcun lijiaoqiao east",
          "pinyin": "xingcunlijiaoqiaodong",
          "lat": 36.67156,
          "lon": 117.219162,
          "sequence": 5
        },
        {
          "id": "900000217582006",
          "stationId": "900000217582006",
          "nameZh": "邢村立交桥西",
          "nameEn": "Xingcun Lijiaoqiao West",
          "target": "xingcun lijiaoqiao west",
          "pinyin": "xingcunlijiaoqiaoxi",
          "lat": 36.673935,
          "lon": 117.201985,
          "sequence": 6
        },
        {
          "id": "900000217582007",
          "stationId": "900000217582007",
          "nameZh": "文旅城",
          "nameEn": "Wenlvcheng",
          "target": "wenlvcheng",
          "pinyin": "wenlvcheng",
          "lat": 36.672206,
          "lon": 117.193557,
          "sequence": 7
        },
        {
          "id": "900000217582008",
          "stationId": "900000217582008",
          "nameZh": "黄金产业园",
          "nameEn": "Gold Industrial Park",
          "target": "gold industrial park",
          "pinyin": "huangjinchanyeyuan",
          "lat": 36.670094,
          "lon": 117.180422,
          "sequence": 8
        },
        {
          "id": "900000217582009",
          "stationId": "900000217582009",
          "nameZh": "林家庄",
          "nameEn": "Linjiazhuang",
          "target": "linjiazhuang",
          "pinyin": "linjiazhuang",
          "lat": 36.668644,
          "lon": 117.165682,
          "sequence": 9
        },
        {
          "id": "900000217582010",
          "stationId": "900000217582010",
          "nameZh": "汉峪金谷",
          "nameEn": "Hanyu Jingu",
          "target": "hanyu jingu",
          "pinyin": "hanyujingu",
          "lat": 36.66324,
          "lon": 117.150418,
          "sequence": 10
        },
        {
          "id": "900000217582011",
          "stationId": "900000217582011",
          "nameZh": "舜泰广场",
          "nameEn": "Shuntai Guangchang",
          "target": "shuntai guangchang",
          "pinyin": "shuntaiguangchang",
          "lat": 36.661133,
          "lon": 117.143975,
          "sequence": 11
        },
        {
          "id": "900000217582012",
          "stationId": "900000217582012",
          "nameZh": "奥体东路",
          "nameEn": "Aoti Donglu",
          "target": "aoti donglu",
          "pinyin": "aotidonglu",
          "lat": 36.659551,
          "lon": 117.128587,
          "sequence": 12
        },
        {
          "id": "900000066599014",
          "stationId": "900000066599014",
          "nameZh": "奥体中心",
          "nameEn": "Olympic Sports Center",
          "target": "olympic sports center",
          "pinyin": "aotizhongxin",
          "lat": 36.659401,
          "lon": 117.11151,
          "sequence": 13
        },
        {
          "id": "900000177338006",
          "stationId": "900000177338006",
          "nameZh": "转山西路(万象城)",
          "nameEn": "Zhuanshan Xilu (MIXC)",
          "target": "zhuanshan xilu mixc",
          "pinyin": "zhuanshanxiluwanxiangcheng",
          "lat": 36.657726,
          "lon": 117.102219,
          "sequence": 14
        },
        {
          "id": "900000217582015",
          "stationId": "900000217582015",
          "nameZh": "山东博物馆",
          "nameEn": "Shandong Museum",
          "target": "shandong museum",
          "pinyin": "shandongbowuguan",
          "lat": 36.655339,
          "lon": 117.094104,
          "sequence": 15
        },
        {
          "id": "900000217582016",
          "stationId": "900000217582016",
          "nameZh": "浆水泉路",
          "nameEn": "Jiangshuiquan Lu",
          "target": "jiangshuiquan lu",
          "pinyin": "jiangshuiquanlu",
          "lat": 36.653165,
          "lon": 117.085976,
          "sequence": 16
        },
        {
          "id": "900000217582017",
          "stationId": "900000217582017",
          "nameZh": "燕山立交桥",
          "nameEn": "Yanshan Lijiaoqiao",
          "target": "yanshan lijiaoqiao",
          "pinyin": "yanshanlijiaoqiao",
          "lat": 36.65202,
          "lon": 117.077965,
          "sequence": 17
        },
        {
          "id": "900000217582018",
          "stationId": "900000217582018",
          "nameZh": "山大路南口",
          "nameEn": "Shandalu South",
          "target": "shandalu south",
          "pinyin": "shandalunankou",
          "lat": 36.64906,
          "lon": 117.055971,
          "sequence": 18
        },
        {
          "id": "900000217582033",
          "stationId": "900000217582033",
          "nameZh": "山师东路",
          "nameEn": "Shanshi Donglu",
          "target": "shanshi donglu",
          "pinyin": "shanshidonglu",
          "lat": 36.648576,
          "lon": 117.046235,
          "sequence": 19
        },
        {
          "id": "900000217582019",
          "stationId": "900000217582019",
          "nameZh": "千佛山",
          "nameEn": "Qianfo Mountain",
          "target": "qianfo mountain",
          "pinyin": "qianfoshan",
          "lat": 36.648026,
          "lon": 117.034509,
          "sequence": 20
        },
        {
          "id": "900000217582020",
          "stationId": "900000217582020",
          "nameZh": "泉城公园",
          "nameEn": "Quancheng Gongyuan",
          "target": "quancheng gongyuan",
          "pinyin": "quanchenggongyuan",
          "lat": 36.648118,
          "lon": 117.019947,
          "sequence": 21
        },
        {
          "id": "900000217582021",
          "stationId": "900000217582021",
          "nameZh": "省体育中心",
          "nameEn": "Shandong Sports Center",
          "target": "shandong sports center",
          "pinyin": "shengtiyuzhongxin",
          "lat": 36.648099,
          "lon": 117.011473,
          "sequence": 22
        },
        {
          "id": "900000217582022",
          "stationId": "900000217582022",
          "nameZh": "八一立交桥",
          "nameEn": "Bayi Lijiaoqiao",
          "target": "bayi lijiaoqiao",
          "pinyin": "bayilijiaoqiao",
          "lat": 36.648749,
          "lon": 116.998607,
          "sequence": 23
        },
        {
          "id": "900000217582023",
          "stationId": "900000217582023",
          "nameZh": "五里牌坊",
          "nameEn": "Wuli Paifang",
          "target": "wuli paifang",
          "pinyin": "wulipaifang",
          "lat": 36.648457,
          "lon": 116.982198,
          "sequence": 24
        },
        {
          "id": "900000217582024",
          "stationId": "900000217582024",
          "nameZh": "南辛庄",
          "nameEn": "Nanxinzhuang",
          "target": "nanxinzhuang",
          "pinyin": "nanxinzhuang",
          "lat": 36.648376,
          "lon": 116.971708,
          "sequence": 25
        },
        {
          "id": "900000217582025",
          "stationId": "900000217582025",
          "nameZh": "营市街",
          "nameEn": "Yingshi Jie",
          "target": "yingshi jie",
          "pinyin": "yingshijie",
          "lat": 36.648586,
          "lon": 116.961539,
          "sequence": 26
        },
        {
          "id": "900000217582026",
          "stationId": "900000217582026",
          "nameZh": "段店",
          "nameEn": "Duandian",
          "target": "duandian",
          "pinyin": "duandian",
          "lat": 36.650875,
          "lon": 116.940733,
          "sequence": 27
        },
        {
          "id": "900000073474036",
          "stationId": "900000073474036",
          "nameZh": "腊山",
          "nameEn": "Lashan",
          "target": "lashan",
          "pinyin": "lashan",
          "lat": 36.652471,
          "lon": 116.918965,
          "sequence": 28
        },
        {
          "id": "900000217582028",
          "stationId": "900000217582028",
          "nameZh": "腊山河公园",
          "nameEn": "Lashanhe Gongyuan",
          "target": "lashanhe gongyuan",
          "pinyin": "lashanhegongyuan",
          "lat": 36.650786,
          "lon": 116.904648,
          "sequence": 29
        },
        {
          "id": "900000071030003",
          "stationId": "900000071030003",
          "nameZh": "大杨",
          "nameEn": "Dayang",
          "target": "dayang",
          "pinyin": "dayang",
          "lat": 36.650122,
          "lon": 116.896207,
          "sequence": 30
        },
        {
          "id": "900000217582030",
          "stationId": "900000217582030",
          "nameZh": "济南西站西广场",
          "nameEn": "Jinanxi Railway Station West Square",
          "target": "jinanxi railway station west square",
          "pinyin": "jinanxizhanxiguangchang",
          "lat": 36.668777,
          "lon": 116.888885,
          "sequence": 31
        },
        {
          "id": "900000217582031",
          "stationId": "900000217582031",
          "nameZh": "春风悦动公园",
          "nameEn": "Chunfeng Yuedong Gongyuan",
          "target": "chunfeng yuedong gongyuan",
          "pinyin": "chunfengyuedonggongyuan",
          "lat": 36.679693,
          "lon": 116.883075,
          "sequence": 32
        },
        {
          "id": "900000217582032",
          "stationId": "900000217582032",
          "nameZh": "第一医科大学",
          "nameEn": "Diyi Yike Daxue",
          "target": "diyi yike daxue",
          "pinyin": "diyiyikedaxue",
          "lat": 36.675843,
          "lon": 116.869385,
          "sequence": 33
        }
      ],
      "segments": [
        [
          "900000073474020",
          "900000217582002",
          "900000217582003",
          "900000217582004",
          "900000217582005",
          "900000217582006",
          "900000217582007",
          "900000217582008",
          "900000217582009",
          "900000217582010",
          "900000217582011",
          "900000217582012",
          "900000066599014",
          "900000177338006",
          "900000217582015",
          "900000217582016",
          "900000217582017",
          "900000217582018",
          "900000217582033",
          "900000217582019",
          "900000217582020",
          "900000217582021",
          "900000217582022",
          "900000217582023",
          "900000217582024",
          "900000217582025",
          "900000217582026",
          "900000073474036",
          "900000217582028",
          "900000071030003",
          "900000217582030",
          "900000217582031",
          "900000217582032"
        ]
      ]
    },
    {
      "id": "3701-6",
      "operatorId": "3701",
      "operatorName": "济南地铁",
      "lineId": "6",
      "lineName": "6号线",
      "color": "#02B6E3",
      "loop": false,
      "stations": [
        {
          "id": "900000217623003",
          "stationId": "900000217623003",
          "nameZh": "梁王",
          "nameEn": "Liangwang",
          "target": "liangwang",
          "pinyin": "liangwangxi",
          "lat": 36.747458,
          "lon": 117.176455,
          "sequence": 1
        },
        {
          "id": "900000217623002",
          "stationId": "900000217623002",
          "nameZh": "梁王西",
          "nameEn": "Liangwang West",
          "target": "liangwang west",
          "pinyin": "liangwang",
          "lat": 36.747173,
          "lon": 117.188781,
          "sequence": 2
        },
        {
          "id": "900000066599006",
          "stationId": "900000066599006",
          "nameZh": "济南东站",
          "nameEn": "Jinandong Railway Station",
          "target": "jinandong railway station",
          "pinyin": "jinandongzhan",
          "lat": 36.747646,
          "lon": 117.159754,
          "sequence": 3
        },
        {
          "id": "900000217623005",
          "stationId": "900000217623005",
          "nameZh": "响泉街",
          "nameEn": "Xiangquan Jie",
          "target": "xiangquan jie",
          "pinyin": "xiangquanjie",
          "lat": 36.735716,
          "lon": 117.145417,
          "sequence": 4
        },
        {
          "id": "900000217623006",
          "stationId": "900000217623006",
          "nameZh": "王舍人立交桥",
          "nameEn": "Wangsheren Lijiaoqiao",
          "target": "wangsheren lijiaoqiao",
          "pinyin": "wangsherenlijiaoqiao",
          "lat": 36.722227,
          "lon": 117.146306,
          "sequence": 5
        },
        {
          "id": "900000073474022",
          "stationId": "900000073474022",
          "nameZh": "凤凰北路",
          "nameEn": "Fenghuang Beilu",
          "target": "fenghuang beilu",
          "pinyin": "fenghuangbeilu",
          "lat": 36.708422,
          "lon": 117.145572,
          "sequence": 6
        },
        {
          "id": "900000217623008",
          "stationId": "900000217623008",
          "nameZh": "徐家庄",
          "nameEn": "Xujiazhuang",
          "target": "xujiazhuang",
          "pinyin": "xujiazhuang",
          "lat": 36.698508,
          "lon": 117.147545,
          "sequence": 7
        },
        {
          "id": "900000217623009",
          "stationId": "900000217623009",
          "nameZh": "世纪大道",
          "nameEn": "Shiji Dadao",
          "target": "shiji dadao",
          "pinyin": "shijidadao",
          "lat": 36.689146,
          "lon": 117.148215,
          "sequence": 8
        },
        {
          "id": "900000217623010",
          "stationId": "900000217623010",
          "nameZh": "开拓路",
          "nameEn": "Kaituo Lu",
          "target": "kaituo lu",
          "pinyin": "kaituolu",
          "lat": 36.680626,
          "lon": 117.142184,
          "sequence": 9
        },
        {
          "id": "900000217623011",
          "stationId": "900000217623011",
          "nameZh": "齐鲁软件园",
          "nameEn": "Qilusoft Park",
          "target": "qilusoft park",
          "pinyin": "qiluruanjianyuan",
          "lat": 36.675505,
          "lon": 117.131374,
          "sequence": 10
        },
        {
          "id": "900000217623012",
          "stationId": "900000217623012",
          "nameZh": "天泺路",
          "nameEn": "Tianluo Lu",
          "target": "tianluo lu",
          "pinyin": "tianluolu",
          "lat": 36.669511,
          "lon": 117.119062,
          "sequence": 11
        },
        {
          "id": "900000066599013",
          "stationId": "900000066599013",
          "nameZh": "安成街",
          "nameEn": "Ancheng Jie",
          "target": "ancheng jie",
          "pinyin": "anchengjie",
          "lat": 36.668454,
          "lon": 117.109853,
          "sequence": 12
        },
        {
          "id": "900000177338007",
          "stationId": "900000177338007",
          "nameZh": "中央商务区",
          "nameEn": "Central Business District",
          "target": "central business district",
          "pinyin": "zhongyangshangwuqu",
          "lat": 36.668423,
          "lon": 117.100819,
          "sequence": 13
        },
        {
          "id": "900000217623015",
          "stationId": "900000217623015",
          "nameZh": "茂陵山",
          "nameEn": "Maoling Shan",
          "target": "maoling shan",
          "pinyin": "maolingshan",
          "lat": 36.668531,
          "lon": 117.094615,
          "sequence": 14
        },
        {
          "id": "900000217623016",
          "stationId": "900000217623016",
          "nameZh": "七里河路南口",
          "nameEn": "Qilihelu South",
          "target": "qilihelu south",
          "pinyin": "qilihelunankou",
          "lat": 36.672431,
          "lon": 117.081066,
          "sequence": 15
        },
        {
          "id": "900000217623017",
          "stationId": "900000217623017",
          "nameZh": "山大南路东口",
          "nameEn": "Shanda'nanlu East",
          "target": "shanda'nanlu east",
          "pinyin": "shandananludongkou",
          "lat": 36.671893,
          "lon": 117.0749,
          "sequence": 16
        },
        {
          "id": "900000217623018",
          "stationId": "900000217623018",
          "nameZh": "山东大学",
          "nameEn": "Shandong University",
          "target": "shandong university",
          "pinyin": "shandongdaxue",
          "lat": 36.671864,
          "lon": 117.057286,
          "sequence": 17
        }
      ],
      "segments": [
        [
          "900000217623003",
          "900000217623002",
          "900000066599006",
          "900000217623005",
          "900000217623006",
          "900000073474022",
          "900000217623008",
          "900000217623009",
          "900000217623010",
          "900000217623011",
          "900000217623012",
          "900000066599013",
          "900000177338007",
          "900000217623015",
          "900000217623016",
          "900000217623017",
          "900000217623018"
        ]
      ]
    },
    {
      "id": "3701-8",
      "operatorId": "3701",
      "operatorName": "济南地铁",
      "lineId": "8",
      "lineName": "8号线",
      "color": "#5A2B8D",
      "loop": false,
      "stations": [
        {
          "id": "900000217676001",
          "stationId": "900000217676001",
          "nameZh": "清源大街",
          "nameEn": "Qingyuan Dajie",
          "target": "qingyuan dajie",
          "pinyin": "qingyuandajie",
          "lat": 36.668102,
          "lon": 117.485699,
          "sequence": 1
        },
        {
          "id": "900000217676002",
          "stationId": "900000217676002",
          "nameZh": "绣源河",
          "nameEn": "Xiuyuan He",
          "target": "xiuyuan he",
          "pinyin": "xiuyuanhe",
          "lat": 36.668169,
          "lon": 117.472124,
          "sequence": 2
        },
        {
          "id": "900000217676003",
          "stationId": "900000217676003",
          "nameZh": "山大龙山",
          "nameEn": "Shandong University Longshan",
          "target": "shandong university longshan",
          "pinyin": "shandalongshan",
          "lat": 36.66964,
          "lon": 117.452564,
          "sequence": 3
        },
        {
          "id": "900000217676004",
          "stationId": "900000217676004",
          "nameZh": "圣井",
          "nameEn": "Shengjing",
          "target": "shengjing",
          "pinyin": "shengjing",
          "lat": 36.670837,
          "lon": 117.426523,
          "sequence": 4
        },
        {
          "id": "900000217676005",
          "stationId": "900000217676005",
          "nameZh": "黄旗山北",
          "nameEn": "Huangqishan North",
          "target": "huangqishan north",
          "pinyin": "huangqishanbei",
          "lat": 36.672335,
          "lon": 117.40592,
          "sequence": 5
        },
        {
          "id": "900000217676006",
          "stationId": "900000217676006",
          "nameZh": "黄土崖",
          "nameEn": "Huangtuya",
          "target": "huangtuya",
          "pinyin": "huangtuya",
          "lat": 36.673757,
          "lon": 117.386777,
          "sequence": 6
        },
        {
          "id": "900000217676007",
          "stationId": "900000217676007",
          "nameZh": "山财章丘校区",
          "nameEn": "Shandong University of Finance and Economics Zhangqiu Campus",
          "target": "shandong university of finance and economics zhangqiu campus",
          "pinyin": "shancaizhangqiuxiaoqu",
          "lat": 36.674705,
          "lon": 117.374211,
          "sequence": 7
        },
        {
          "id": "900000217676008",
          "stationId": "900000217676008",
          "nameZh": "山东现代学院",
          "nameEn": "Shandong Xiandai University",
          "target": "shandong xiandai university",
          "pinyin": "shandongxiandaixueyuan",
          "lat": 36.676321,
          "lon": 117.351972,
          "sequence": 8
        },
        {
          "id": "900000217676009",
          "stationId": "900000217676009",
          "nameZh": "山东职业学院",
          "nameEn": "Shandong Polytechnic",
          "target": "shandong polytechnic",
          "pinyin": "shandongzhiyexueyuan",
          "lat": 36.674966,
          "lon": 117.325107,
          "sequence": 9
        },
        {
          "id": "900000217676010",
          "stationId": "900000217676010",
          "nameZh": "春博路",
          "nameEn": "Chunbo Lu",
          "target": "chunbo lu",
          "pinyin": "chunbolu",
          "lat": 36.669035,
          "lon": 117.306681,
          "sequence": 10
        },
        {
          "id": "900000217676011",
          "stationId": "900000217676011",
          "nameZh": "公路技师学院",
          "nameEn": "Shandong Highway Technician College",
          "target": "shandong highway technician college",
          "pinyin": "gonglujishixueyuan",
          "lat": 36.662106,
          "lon": 117.284242,
          "sequence": 11
        },
        {
          "id": "900000217676012",
          "stationId": "900000217676012",
          "nameZh": "超算中心",
          "nameEn": "Supercomputing Center",
          "target": "supercomputing center",
          "pinyin": "chaosuanzhongxin",
          "lat": 36.661713,
          "lon": 117.262964,
          "sequence": 12
        },
        {
          "id": "900000217676013",
          "stationId": "900000217676013",
          "nameZh": "青年政治学院",
          "nameEn": "Shandong Youth University of Political Science",
          "target": "shandong youth university of political science",
          "pinyin": "qingnianzhengzhixueyuan",
          "lat": 36.668975,
          "lon": 117.240208,
          "sequence": 13
        },
        {
          "id": "900000217582005",
          "stationId": "900000217582005",
          "nameZh": "邢村立交桥东",
          "nameEn": "Xingcun Lijiaoqiao East",
          "target": "xingcun lijiaoqiao east",
          "pinyin": "xingcunlijiaoqiaodong",
          "lat": 36.67156,
          "lon": 117.219162,
          "sequence": 14
        }
      ],
      "segments": [
        [
          "900000217676001",
          "900000217676002",
          "900000217676003",
          "900000217676004",
          "900000217676005",
          "900000217676006",
          "900000217676007",
          "900000217676008",
          "900000217676009",
          "900000217676010",
          "900000217676011",
          "900000217676012",
          "900000217676013",
          "900000217582005"
        ]
      ]
    },
    {
      "id": "3701-济阳",
      "operatorId": "3701",
      "operatorName": "济南地铁",
      "lineId": "济阳",
      "lineName": "济阳线",
      "color": "#98D1C0",
      "loop": false,
      "stations": [
        {
          "id": "900000235482001",
          "stationId": "900000235482001",
          "nameZh": "济南东站(济阳线)",
          "nameEn": "Jinandong Railway Station",
          "target": "jinandong railway station",
          "pinyin": "jinandongzhanjiyangxian",
          "lat": 36.746472,
          "lon": 117.158424,
          "sequence": 1
        },
        {
          "id": "900000235482004",
          "stationId": "900000235482004",
          "nameZh": "崔寨",
          "nameEn": "Cuizhai",
          "target": "cuizhai",
          "pinyin": "cuizhai",
          "lat": 36.828249,
          "lon": 117.10883,
          "sequence": 2
        },
        {
          "id": "900000235482005",
          "stationId": "900000235482005",
          "nameZh": "黄河会展中心",
          "nameEn": "Huanghe Huizhan Zhongxin",
          "target": "huanghe huizhan zhongxin",
          "pinyin": "huanghehuizhanzhongxin",
          "lat": 36.834773,
          "lon": 117.111973,
          "sequence": 3
        },
        {
          "id": "900000235482006",
          "stationId": "900000235482006",
          "nameZh": "英才学院北校区",
          "nameEn": "Yingcai Xueyuan Beixiaoqu",
          "target": "yingcai xueyuan beixiaoqu",
          "pinyin": "yingcaixueyuanbeixiaoqu",
          "lat": 36.85564,
          "lon": 117.113791,
          "sequence": 4
        },
        {
          "id": "900000235482007",
          "stationId": "900000235482007",
          "nameZh": "清宁",
          "nameEn": "Qingning",
          "target": "qingning",
          "pinyin": "qingning",
          "lat": 36.864847,
          "lon": 117.114657,
          "sequence": 5
        },
        {
          "id": "900000235482008",
          "stationId": "900000235482008",
          "nameZh": "花二庄北街",
          "nameEn": "Huaerzhuang Beijie",
          "target": "huaerzhuang beijie",
          "pinyin": "huaerzhuangbeijie",
          "lat": 36.878322,
          "lon": 117.115946,
          "sequence": 6
        },
        {
          "id": "900000235482009",
          "stationId": "900000235482009",
          "nameZh": "回河",
          "nameEn": "Huihe",
          "target": "huihe",
          "pinyin": "huihe",
          "lat": 36.933209,
          "lon": 117.120148,
          "sequence": 7
        },
        {
          "id": "900000235482012",
          "stationId": "900000235482012",
          "nameZh": "新元学校",
          "nameEn": "Xinyuan Xuexiao",
          "target": "xinyuan xuexiao",
          "pinyin": "xinyuanxuexiao",
          "lat": 36.959847,
          "lon": 117.175364,
          "sequence": 8
        },
        {
          "id": "900000235482013",
          "stationId": "900000235482013",
          "nameZh": "济北小学",
          "nameEn": "Jibei Xiaoxue",
          "target": "jibei xiaoxue",
          "pinyin": "jibeixiaoxue",
          "lat": 36.969846,
          "lon": 117.175103,
          "sequence": 9
        },
        {
          "id": "900000235482014",
          "stationId": "900000235482014",
          "nameZh": "济阳市民中心",
          "nameEn": "Jiyang Shimin Zhongxin",
          "target": "jiyang shimin zhongxin",
          "pinyin": "jiyangshiminzhongxin",
          "lat": 36.98048,
          "lon": 117.175216,
          "sequence": 10
        },
        {
          "id": "900000235482016",
          "stationId": "900000235482016",
          "nameZh": "济阳北",
          "nameEn": "Jiyang Bei",
          "target": "jiyang bei",
          "pinyin": "jiyangbei",
          "lat": 37.004637,
          "lon": 117.175629,
          "sequence": 11
        }
      ],
      "segments": [
        [
          "900000235482001",
          "900000235482004",
          "900000235482005",
          "900000235482006",
          "900000235482007",
          "900000235482008",
          "900000235482009",
          "900000235482012",
          "900000235482013",
          "900000235482014",
          "900000235482016"
        ]
      ]
    }
  ]
}