{
  "city": "xiangtan",
  "cityNameZh": "湘潭",
  "cityNameEn": "Xiangtan",
  "source": "高德地图地铁数据（非官方接口）· 官方英文站名整理自 Wikipedia",
  "generatedAt": "2026-07-14T14:48:48.428Z",
  "lines": [
    {
      "id": "4303-地铁",
      "operatorId": "4303",
      "operatorName": "湘潭地铁",
      "lineId": "地铁",
      "lineName": "地铁3号线",
      "color": "#86B81C",
      "loop": false,
      "stations": [
        {
          "id": "900000217636025",
          "stationId": "900000217636025",
          "nameZh": "广生",
          "nameEn": "Guangsheng",
          "target": "guangsheng",
          "pinyin": "guangsheng",
          "lat": 28.244943,
          "lon": 113.135584,
          "sequence": 1
        },
        {
          "id": "900000217636024",
          "stationId": "900000217636024",
          "nameZh": "螺丝塘",
          "nameEn": "Luositang",
          "target": "luositang",
          "pinyin": "luositang",
          "lat": 28.245467,
          "lon": 113.123168,
          "sequence": 2
        },
        {
          "id": "900000217636023",
          "stationId": "900000217636023",
          "nameZh": "星沙文体中心",
          "nameEn": "Xingsha Wenti Zhongxin",
          "target": "xingsha wenti zhongxin",
          "pinyin": "xingshawentizhongxin",
          "lat": 28.24545,
          "lon": 113.111578,
          "sequence": 3
        },
        {
          "id": "900000217636022",
          "stationId": "900000217636022",
          "nameZh": "松雅湖(南)",
          "nameEn": "Songyahu (nan)",
          "target": "songyahu nan",
          "pinyin": "songyahunan",
          "lat": 28.245423,
          "lon": 113.10355,
          "sequence": 4
        },
        {
          "id": "900000217636021",
          "stationId": "900000217636021",
          "nameZh": "星沙",
          "nameEn": "Xingsha",
          "target": "xingsha",
          "pinyin": "xingsha",
          "lat": 28.245662,
          "lon": 113.086893,
          "sequence": 5
        },
        {
          "id": "900000217636020",
          "stationId": "900000217636020",
          "nameZh": "湘龙",
          "nameEn": "Xianglong",
          "target": "xianglong",
          "pinyin": "xianglong",
          "lat": 28.245687,
          "lon": 113.06097,
          "sequence": 6
        },
        {
          "id": "900000217636019",
          "stationId": "900000217636019",
          "nameZh": "月湖公园北",
          "nameEn": "Yuehu Gongyuan Bei",
          "target": "yuehu gongyuan bei",
          "pinyin": "yuehugongyuanbei",
          "lat": 28.242183,
          "lon": 113.04222,
          "sequence": 7
        },
        {
          "id": "900000217636018",
          "stationId": "900000217636018",
          "nameZh": "长沙大学",
          "nameEn": "Changsha Daxue",
          "target": "changsha daxue",
          "pinyin": "changshadaxue",
          "lat": 28.240928,
          "lon": 113.031121,
          "sequence": 8
        },
        {
          "id": "900000217636016",
          "stationId": "900000217636016",
          "nameZh": "四方坪·双拥",
          "nameEn": "Sifangping Shuangyong",
          "target": "sifangping shuangyong",
          "pinyin": "sifangpingshuangyong",
          "lat": 28.230812,
          "lon": 113.007036,
          "sequence": 9
        },
        {
          "id": "900000217636017",
          "stationId": "900000217636017",
          "nameZh": "雅雀湖",
          "nameEn": "Yaquehu",
          "target": "yaquehu",
          "pinyin": "yaquehu",
          "lat": 28.237324,
          "lon": 113.013852,
          "sequence": 10
        },
        {
          "id": "900000217636015",
          "stationId": "900000217636015",
          "nameZh": "丝茅冲",
          "nameEn": "Simaochong",
          "target": "simaochong",
          "pinyin": "simaochong",
          "lat": 28.223694,
          "lon": 113.006989,
          "sequence": 11
        },
        {
          "id": "900000217636014",
          "stationId": "900000217636014",
          "nameZh": "烈士公园东",
          "nameEn": "Lieshi Gongyuan Dong",
          "target": "lieshi gongyuan dong",
          "pinyin": "lieshigongyuandong",
          "lat": 28.208126,
          "lon": 113.00897,
          "sequence": 12
        },
        {
          "id": "900000217636013",
          "stationId": "900000217636013",
          "nameZh": "长沙火车站",
          "nameEn": "Changsha Huochezhan",
          "target": "changsha huochezhan",
          "pinyin": "changshahuochezhan",
          "lat": 28.193633,
          "lon": 113.010987,
          "sequence": 13
        },
        {
          "id": "900000217636012",
          "stationId": "900000217636012",
          "nameZh": "朝阳村",
          "nameEn": "Chaoyangcun",
          "target": "chaoyangcun",
          "pinyin": "chaoyangcun",
          "lat": 28.186494,
          "lon": 113.010784,
          "sequence": 14
        },
        {
          "id": "900000217636011",
          "stationId": "900000217636011",
          "nameZh": "阿弥岭",
          "nameEn": "Emiling",
          "target": "emiling",
          "pinyin": "emiling",
          "lat": 28.174579,
          "lon": 113.008116,
          "sequence": 15
        },
        {
          "id": "900000217636010",
          "stationId": "900000217636010",
          "nameZh": "桂花公园",
          "nameEn": "Guihua Gongyuan",
          "target": "guihua gongyuan",
          "pinyin": "guihuagongyuan",
          "lat": 28.170481,
          "lon": 113.001487,
          "sequence": 16
        },
        {
          "id": "900000217636009",
          "stationId": "900000217636009",
          "nameZh": "东塘",
          "nameEn": "Dongtang",
          "target": "dongtang",
          "pinyin": "dongtang",
          "lat": 28.169681,
          "lon": 112.992915,
          "sequence": 17
        },
        {
          "id": "900000217636008",
          "stationId": "900000217636008",
          "nameZh": "侯家塘",
          "nameEn": "Houjiatang",
          "target": "houjiatang",
          "pinyin": "houjiatang",
          "lat": 28.173771,
          "lon": 112.982137,
          "sequence": 18
        },
        {
          "id": "900000217636007",
          "stationId": "900000217636007",
          "nameZh": "灵官渡",
          "nameEn": "Lingguandu",
          "target": "lingguandu",
          "pinyin": "lingguandu",
          "lat": 28.179242,
          "lon": 112.970553,
          "sequence": 19
        },
        {
          "id": "900000217636006",
          "stationId": "900000217636006",
          "nameZh": "阜埠河",
          "nameEn": "Fubuhe",
          "target": "fubuhe",
          "pinyin": "fubuhe",
          "lat": 28.16519,
          "lon": 112.947552,
          "sequence": 20
        },
        {
          "id": "900000217636005",
          "stationId": "900000217636005",
          "nameZh": "中南大学",
          "nameEn": "Zhongnan Daxue",
          "target": "zhongnan daxue",
          "pinyin": "zhongnandaxue",
          "lat": 28.15418,
          "lon": 112.9377,
          "sequence": 21
        },
        {
          "id": "900000217636004",
          "stationId": "900000217636004",
          "nameZh": "阳光",
          "nameEn": "Yangguang",
          "target": "yangguang",
          "pinyin": "yangguang",
          "lat": 28.141393,
          "lon": 112.937036,
          "sequence": 22
        },
        {
          "id": "900000217636003",
          "stationId": "900000217636003",
          "nameZh": "洋湖新城",
          "nameEn": "Yanghu Xincheng",
          "target": "yanghu xincheng",
          "pinyin": "yanghuxincheng",
          "lat": 28.128704,
          "lon": 112.945191,
          "sequence": 23
        },
        {
          "id": "900000217636002",
          "stationId": "900000217636002",
          "nameZh": "洋湖湿地",
          "nameEn": "Yanghu Shidi",
          "target": "yanghu shidi",
          "pinyin": "yanghushidi",
          "lat": 28.114688,
          "lon": 112.938748,
          "sequence": 24
        },
        {
          "id": "900000143028001",
          "stationId": "900000143028001",
          "nameZh": "山塘",
          "nameEn": "Shantang",
          "target": "shantang",
          "pinyin": "shantang",
          "lat": 28.098771,
          "lon": 112.925807,
          "sequence": 25
        },
        {
          "id": "900000143028002",
          "stationId": "900000143028002",
          "nameZh": "大王山",
          "nameEn": "Dawang Shan",
          "target": "dawang shan",
          "pinyin": "dawangshan",
          "lat": 28.088769,
          "lon": 112.916842,
          "sequence": 26
        },
        {
          "id": "900000143028003",
          "stationId": "900000143028003",
          "nameZh": "桐溪",
          "nameEn": "Tongxi",
          "target": "tongxi",
          "pinyin": "tongxi",
          "lat": 28.075537,
          "lon": 112.908378,
          "sequence": 27
        },
        {
          "id": "900000143028004",
          "stationId": "900000143028004",
          "nameZh": "红桥",
          "nameEn": "Hongqiao",
          "target": "hongqiao",
          "pinyin": "hongqiao",
          "lat": 28.059082,
          "lon": 112.909383,
          "sequence": 28
        },
        {
          "id": "900000143028005",
          "stationId": "900000143028005",
          "nameZh": "坪塘",
          "nameEn": "Pingtang",
          "target": "pingtang",
          "pinyin": "pingtang",
          "lat": 28.043363,
          "lon": 112.912462,
          "sequence": 29
        },
        {
          "id": "900000143028006",
          "stationId": "900000143028006",
          "nameZh": "双湖",
          "nameEn": "Shuanghu",
          "target": "shuanghu",
          "pinyin": "shuanghu",
          "lat": 28.026353,
          "lon": 112.927701,
          "sequence": 30
        },
        {
          "id": "900000143028007",
          "stationId": "900000143028007",
          "nameZh": "黄家湾",
          "nameEn": "Huangjiawan",
          "target": "huangjiawan",
          "pinyin": "huangjiawan",
          "lat": 27.990234,
          "lon": 112.946955,
          "sequence": 31
        },
        {
          "id": "900000143028008",
          "stationId": "900000143028008",
          "nameZh": "船形山",
          "nameEn": "Chuanxingshan",
          "target": "chuanxingshan",
          "pinyin": "chuanxingshan",
          "lat": 27.979486,
          "lon": 112.949388,
          "sequence": 32
        },
        {
          "id": "900000143028009",
          "stationId": "900000143028009",
          "nameZh": "湘潭北站",
          "nameEn": "Xiangtan Beizhan",
          "target": "xiangtan beizhan",
          "pinyin": "xiangtanbeizhan",
          "lat": 27.96319,
          "lon": 112.943404,
          "sequence": 33
        }
      ],
      "segments": [
        [
          "900000217636025",
          "900000217636024",
          "900000217636023",
          "900000217636022",
          "900000217636021",
          "900000217636020",
          "900000217636019",
          "900000217636018",
          "900000217636016",
          "900000217636017",
          "900000217636015",
          "900000217636014",
          "900000217636013",
          "900000217636012",
          "900000217636011",
          "900000217636010",
          "900000217636009",
          "900000217636008",
          "900000217636007",
          "900000217636006",
          "900000217636005",
          "900000217636004",
          "900000217636003",
          "900000217636002",
          "900000143028001",
          "900000143028002",
          "900000143028003",
          "900000143028004",
          "900000143028005",
          "900000143028006",
          "900000143028007",
          "900000143028008",
          "900000143028009"
        ]
      ]
    }
  ]
}