{
  "city": "chongqing",
  "cityNameZh": "重庆",
  "cityNameEn": "Chongqing",
  "source": "高德地图地铁数据（非官方接口）· 官方英文站名整理自 Wikipedia",
  "generatedAt": "2026-07-14T14:48:38.277Z",
  "lines": [
    {
      "id": "5000-1",
      "operatorId": "5000",
      "operatorName": "重庆地铁",
      "lineId": "1",
      "lineName": "1号线",
      "color": "#CC0000",
      "loop": false,
      "stations": [
        {
          "id": "500100022282026",
          "stationId": "500100022282026",
          "nameZh": "朝天门",
          "nameEn": "Chaotianmen",
          "target": "chaotianmen",
          "pinyin": "chaotianmen",
          "lat": 29.566305,
          "lon": 106.587379,
          "sequence": 1
        },
        {
          "id": "500100021567003",
          "stationId": "500100021567003",
          "nameZh": "小什字",
          "nameEn": "Xiaoshizi",
          "target": "xiaoshizi",
          "pinyin": "xiaoshizi",
          "lat": 29.560028,
          "lon": 106.583593,
          "sequence": 2
        },
        {
          "id": "500100022282022",
          "stationId": "500100022282022",
          "nameZh": "较场口",
          "nameEn": "Jiaochangkou",
          "target": "jiaochangkou",
          "pinyin": "jiaochangkou",
          "lat": 29.553575,
          "lon": 106.574352,
          "sequence": 3
        },
        {
          "id": "500100022282021",
          "stationId": "500100022282021",
          "nameZh": "七星岗",
          "nameEn": "Qixinggang",
          "target": "qixinggang",
          "pinyin": "qixinggang",
          "lat": 29.554871,
          "lon": 106.563142,
          "sequence": 4
        },
        {
          "id": "500100021584023",
          "stationId": "500100021584023",
          "nameZh": "两路口",
          "nameEn": "Lianglukou",
          "target": "lianglukou",
          "pinyin": "lianglukou",
          "lat": 29.552621,
          "lon": 106.549342,
          "sequence": 5
        },
        {
          "id": "500100022282019",
          "stationId": "500100022282019",
          "nameZh": "鹅岭",
          "nameEn": "Eling",
          "target": "eling",
          "pinyin": "eling",
          "lat": 29.547986,
          "lon": 106.533923,
          "sequence": 6
        },
        {
          "id": "500100022282018",
          "stationId": "500100022282018",
          "nameZh": "大坪",
          "nameEn": "Daping",
          "target": "daping",
          "pinyin": "daping",
          "lat": 29.541886,
          "lon": 106.519184,
          "sequence": 7
        },
        {
          "id": "500100022282017",
          "stationId": "500100022282017",
          "nameZh": "石油路",
          "nameEn": "Shiyou Lu",
          "target": "shiyou lu",
          "pinyin": "shiyoulu",
          "lat": 29.53811,
          "lon": 106.508308,
          "sequence": 8
        },
        {
          "id": "500100022282016",
          "stationId": "500100022282016",
          "nameZh": "歇台子",
          "nameEn": "Xietaizi",
          "target": "xietaizi",
          "pinyin": "xietaizi",
          "lat": 29.538754,
          "lon": 106.499111,
          "sequence": 9
        },
        {
          "id": "500100022282015",
          "stationId": "500100022282015",
          "nameZh": "石桥铺",
          "nameEn": "Shiqiaopu",
          "target": "shiqiaopu",
          "pinyin": "shiqiaopu",
          "lat": 29.532771,
          "lon": 106.484891,
          "sequence": 10
        },
        {
          "id": "500100022282014",
          "stationId": "500100022282014",
          "nameZh": "高庙村",
          "nameEn": "Gaomiaocun",
          "target": "gaomiaocun",
          "pinyin": "gaomiaocun",
          "lat": 29.536409,
          "lon": 106.469211,
          "sequence": 11
        },
        {
          "id": "500100022282013",
          "stationId": "500100022282013",
          "nameZh": "马家岩",
          "nameEn": "Majiayan",
          "target": "majiayan",
          "pinyin": "majiayan",
          "lat": 29.544984,
          "lon": 106.468033,
          "sequence": 12
        },
        {
          "id": "500100022282012",
          "stationId": "500100022282012",
          "nameZh": "小龙坎",
          "nameEn": "Xiaolongkan",
          "target": "xiaolongkan",
          "pinyin": "xiaolongkan",
          "lat": 29.553658,
          "lon": 106.468325,
          "sequence": 13
        },
        {
          "id": "500100022282011",
          "stationId": "500100022282011",
          "nameZh": "沙坪坝",
          "nameEn": "Shapingba",
          "target": "shapingba",
          "pinyin": "shapingba",
          "lat": 29.556003,
          "lon": 106.460425,
          "sequence": 14
        },
        {
          "id": "500100022282010",
          "stationId": "500100022282010",
          "nameZh": "杨公桥",
          "nameEn": "Yanggongqiao",
          "target": "yanggongqiao",
          "pinyin": "yanggongqiao",
          "lat": 29.561544,
          "lon": 106.450227,
          "sequence": 15
        },
        {
          "id": "500100022282009",
          "stationId": "500100022282009",
          "nameZh": "烈士墓",
          "nameEn": "Lieshimu",
          "target": "lieshimu",
          "pinyin": "lieshimu",
          "lat": 29.567434,
          "lon": 106.445437,
          "sequence": 16
        },
        {
          "id": "500100022282008",
          "stationId": "500100022282008",
          "nameZh": "磁器口",
          "nameEn": "Ciqikou",
          "target": "ciqikou",
          "pinyin": "ciqikou",
          "lat": 29.576719,
          "lon": 106.44642,
          "sequence": 17
        },
        {
          "id": "500100022282007",
          "stationId": "500100022282007",
          "nameZh": "石井坡",
          "nameEn": "Shijingpo",
          "target": "shijingpo",
          "pinyin": "shijingpo",
          "lat": 29.589415,
          "lon": 106.444283,
          "sequence": 18
        },
        {
          "id": "500100022282006",
          "stationId": "500100022282006",
          "nameZh": "双碑",
          "nameEn": "Shuangbei",
          "target": "shuangbei",
          "pinyin": "shuangbei",
          "lat": 29.605775,
          "lon": 106.44437,
          "sequence": 19
        },
        {
          "id": "500100022282005",
          "stationId": "500100022282005",
          "nameZh": "赖家桥",
          "nameEn": "Laijia Qiao",
          "target": "laijia qiao",
          "pinyin": "laijiaqiao",
          "lat": 29.610285,
          "lon": 106.381441,
          "sequence": 20
        },
        {
          "id": "500100022282004",
          "stationId": "500100022282004",
          "nameZh": "微电园",
          "nameEn": "Weidianyuan",
          "target": "weidianyuan",
          "pinyin": "weidianyuan",
          "lat": 29.609665,
          "lon": 106.362894,
          "sequence": 21
        },
        {
          "id": "500100022282003",
          "stationId": "500100022282003",
          "nameZh": "陈家桥",
          "nameEn": "Chenjia Qiao",
          "target": "chenjia qiao",
          "pinyin": "chenjiaqiao",
          "lat": 29.607427,
          "lon": 106.328499,
          "sequence": 22
        },
        {
          "id": "500100022282002",
          "stationId": "500100022282002",
          "nameZh": "大学城",
          "nameEn": "Daxuecheng",
          "target": "daxuecheng",
          "pinyin": "daxuecheng",
          "lat": 29.60735,
          "lon": 106.308908,
          "sequence": 23
        },
        {
          "id": "500100022282024",
          "stationId": "500100022282024",
          "nameZh": "尖顶坡",
          "nameEn": "Jiandingpo",
          "target": "jiandingpo",
          "pinyin": "jiandingpo",
          "lat": 29.607324,
          "lon": 106.292967,
          "sequence": 24
        },
        {
          "id": "500100022282025",
          "stationId": "500100022282025",
          "nameZh": "璧山",
          "nameEn": "Bi Shan",
          "target": "bi shan",
          "pinyin": "bishan",
          "lat": 29.612254,
          "lon": 106.232616,
          "sequence": 25
        }
      ],
      "segments": [
        [
          "500100022282026",
          "500100021567003",
          "500100022282022",
          "500100022282021",
          "500100021584023",
          "500100022282019",
          "500100022282018",
          "500100022282017",
          "500100022282016",
          "500100022282015",
          "500100022282014",
          "500100022282013",
          "500100022282012",
          "500100022282011",
          "500100022282010",
          "500100022282009",
          "500100022282008",
          "500100022282007",
          "500100022282006",
          "500100022282005",
          "500100022282004",
          "500100022282003",
          "500100022282002",
          "500100022282024",
          "500100022282025"
        ]
      ]
    },
    {
      "id": "5000-2",
      "operatorId": "5000",
      "operatorName": "重庆地铁",
      "lineId": "2",
      "lineName": "2号线",
      "color": "#018237",
      "loop": false,
      "stations": [
        {
          "id": "500100022282022",
          "stationId": "500100022282022",
          "nameZh": "较场口",
          "nameEn": "Jiaochangkou",
          "target": "jiaochangkou",
          "pinyin": "jiaochangkou",
          "lat": 29.553575,
          "lon": 106.574352,
          "sequence": 1
        },
        {
          "id": "500100031250003",
          "stationId": "500100031250003",
          "nameZh": "临江门",
          "nameEn": "Linjiangmen",
          "target": "linjiangmen",
          "pinyin": "linjiangmen",
          "lat": 29.558281,
          "lon": 106.574228,
          "sequence": 2
        },
        {
          "id": "500100031250004",
          "stationId": "500100031250004",
          "nameZh": "黄花园",
          "nameEn": "Huanghuayuan",
          "target": "huanghuayuan",
          "pinyin": "huanghuayuan",
          "lat": 29.563396,
          "lon": 106.564839,
          "sequence": 3
        },
        {
          "id": "500100031250005",
          "stationId": "500100031250005",
          "nameZh": "大溪沟",
          "nameEn": "Daxigou",
          "target": "daxigou",
          "pinyin": "daxigou",
          "lat": 29.566175,
          "lon": 106.558397,
          "sequence": 4
        },
        {
          "id": "500100031250006",
          "stationId": "500100031250006",
          "nameZh": "曾家岩",
          "nameEn": "Zengjiayan",
          "target": "zengjiayan",
          "pinyin": "zengjiayan",
          "lat": 29.566468,
          "lon": 106.550111,
          "sequence": 5
        },
        {
          "id": "500100021584022",
          "stationId": "500100021584022",
          "nameZh": "牛角沱",
          "nameEn": "Niujiaotuo",
          "target": "niujiaotuo",
          "pinyin": "niujiaotuo",
          "lat": 29.560679,
          "lon": 106.542605,
          "sequence": 6
        },
        {
          "id": "500100031250008",
          "stationId": "500100031250008",
          "nameZh": "李子坝",
          "nameEn": "Liziba",
          "target": "liziba",
          "pinyin": "liziba",
          "lat": 29.552892,
          "lon": 106.53766,
          "sequence": 7
        },
        {
          "id": "500100031250009",
          "stationId": "500100031250009",
          "nameZh": "佛图关",
          "nameEn": "Fotuguan",
          "target": "fotuguan",
          "pinyin": "fotuguan",
          "lat": 29.549345,
          "lon": 106.531503,
          "sequence": 8
        },
        {
          "id": "500100022282018",
          "stationId": "500100022282018",
          "nameZh": "大坪",
          "nameEn": "Daping",
          "target": "daping",
          "pinyin": "daping",
          "lat": 29.541886,
          "lon": 106.519184,
          "sequence": 9
        },
        {
          "id": "500100031250011",
          "stationId": "500100031250011",
          "nameZh": "袁家岗",
          "nameEn": "Yuanjiagang",
          "target": "yuanjiagang",
          "pinyin": "yuanjiagang",
          "lat": 29.528808,
          "lon": 106.513742,
          "sequence": 10
        },
        {
          "id": "500100031250012",
          "stationId": "500100031250012",
          "nameZh": "谢家湾",
          "nameEn": "Xiejiawan",
          "target": "xiejiawan",
          "pinyin": "xiejiawan",
          "lat": 29.519096,
          "lon": 106.517591,
          "sequence": 11
        },
        {
          "id": "500100031250013",
          "stationId": "500100031250013",
          "nameZh": "杨家坪",
          "nameEn": "Yangjiaping",
          "target": "yangjiaping",
          "pinyin": "yangjiaping",
          "lat": 29.507894,
          "lon": 106.515931,
          "sequence": 12
        },
        {
          "id": "500100031250014",
          "stationId": "500100031250014",
          "nameZh": "动物园",
          "nameEn": "Dongwuyuan",
          "target": "dongwuyuan",
          "pinyin": "dongwuyuan",
          "lat": 29.500053,
          "lon": 106.509401,
          "sequence": 13
        },
        {
          "id": "500100031250015",
          "stationId": "500100031250015",
          "nameZh": "大堰村",
          "nameEn": "Dayancun",
          "target": "dayancun",
          "pinyin": "dayancun",
          "lat": 29.499619,
          "lon": 106.499192,
          "sequence": 14
        },
        {
          "id": "500100031250016",
          "stationId": "500100031250016",
          "nameZh": "马王场",
          "nameEn": "Mawangchang",
          "target": "mawangchang",
          "pinyin": "mawangchang",
          "lat": 29.496091,
          "lon": 106.488749,
          "sequence": 15
        },
        {
          "id": "500100031250017",
          "stationId": "500100031250017",
          "nameZh": "平安",
          "nameEn": "Pingan",
          "target": "pingan",
          "pinyin": "pingan",
          "lat": 29.488733,
          "lon": 106.485049,
          "sequence": 16
        },
        {
          "id": "500100031250018",
          "stationId": "500100031250018",
          "nameZh": "大渡口",
          "nameEn": "Dadukou",
          "target": "dadukou",
          "pinyin": "dadukou",
          "lat": 29.481837,
          "lon": 106.478209,
          "sequence": 17
        },
        {
          "id": "500100031250019",
          "stationId": "500100031250019",
          "nameZh": "新山村",
          "nameEn": "Xinshancun",
          "target": "xinshancun",
          "pinyin": "xinshancun",
          "lat": 29.471978,
          "lon": 106.476401,
          "sequence": 18
        },
        {
          "id": "500100031250020",
          "stationId": "500100031250020",
          "nameZh": "天堂堡",
          "nameEn": "Tiantangbao",
          "target": "tiantangbao",
          "pinyin": "tiantangbao",
          "lat": 29.466585,
          "lon": 106.472268,
          "sequence": 19
        },
        {
          "id": "500100031250021",
          "stationId": "500100031250021",
          "nameZh": "建桥",
          "nameEn": "Jianqiao",
          "target": "jianqiao",
          "pinyin": "jianqiao",
          "lat": 29.44994,
          "lon": 106.474727,
          "sequence": 20
        },
        {
          "id": "500100031250022",
          "stationId": "500100031250022",
          "nameZh": "金家湾",
          "nameEn": "Jinjiawan",
          "target": "jinjiawan",
          "pinyin": "jinjiawan",
          "lat": 29.437798,
          "lon": 106.475526,
          "sequence": 21
        },
        {
          "id": "500100031250023",
          "stationId": "500100031250023",
          "nameZh": "刘家坝",
          "nameEn": "Liujiaba",
          "target": "liujiaba",
          "pinyin": "liujiaba",
          "lat": 29.427529,
          "lon": 106.482735,
          "sequence": 22
        },
        {
          "id": "500100031250024",
          "stationId": "500100031250024",
          "nameZh": "白居寺",
          "nameEn": "Baijusi",
          "target": "baijusi",
          "pinyin": "baijusi",
          "lat": 29.416434,
          "lon": 106.492762,
          "sequence": 23
        },
        {
          "id": "500100031250025",
          "stationId": "500100031250025",
          "nameZh": "大江",
          "nameEn": "Dajiang",
          "target": "dajiang",
          "pinyin": "dajiang",
          "lat": 29.384138,
          "lon": 106.501082,
          "sequence": 24
        },
        {
          "id": "500100021584040",
          "stationId": "500100021584040",
          "nameZh": "鱼洞",
          "nameEn": "Yudong",
          "target": "yudong",
          "pinyin": "yudong",
          "lat": 29.375867,
          "lon": 106.505897,
          "sequence": 25
        }
      ],
      "segments": [
        [
          "500100022282022",
          "500100031250003",
          "500100031250004",
          "500100031250005",
          "500100031250006",
          "500100021584022",
          "500100031250008",
          "500100031250009",
          "500100022282018",
          "500100031250011",
          "500100031250012",
          "500100031250013",
          "500100031250014",
          "500100031250015",
          "500100031250016",
          "500100031250017",
          "500100031250018",
          "500100031250019",
          "500100031250020",
          "500100031250021",
          "500100031250022",
          "500100031250023",
          "500100031250024",
          "500100031250025",
          "500100021584040"
        ]
      ]
    },
    {
      "id": "5000-轨道",
      "operatorId": "5000",
      "operatorName": "重庆地铁",
      "lineId": "轨道",
      "lineName": "轨道交通3号线(空港线)",
      "color": "#2249A3",
      "loop": false,
      "stations": [
        {
          "id": "500100021584003",
          "stationId": "500100021584003",
          "nameZh": "碧津",
          "nameEn": "Bijin",
          "target": "bijin",
          "pinyin": "bijin",
          "lat": 29.711154,
          "lon": 106.632644,
          "sequence": 1
        },
        {
          "id": "900000067948002",
          "stationId": "900000067948002",
          "nameZh": "双凤桥",
          "nameEn": "Shuangfengqiao",
          "target": "shuangfengqiao",
          "pinyin": "shuangfengqiao",
          "lat": 29.728923,
          "lon": 106.632667,
          "sequence": 2
        },
        {
          "id": "900000067948003",
          "stationId": "900000067948003",
          "nameZh": "空港广场",
          "nameEn": "Konggang Guangchang",
          "target": "konggang guangchang",
          "pinyin": "konggangguangchang",
          "lat": 29.736328,
          "lon": 106.633616,
          "sequence": 3
        },
        {
          "id": "900000067948004",
          "stationId": "900000067948004",
          "nameZh": "高堡湖",
          "nameEn": "Gaobaohu",
          "target": "gaobaohu",
          "pinyin": "gaobaohu",
          "lat": 29.751896,
          "lon": 106.642982,
          "sequence": 4
        },
        {
          "id": "900000067948005",
          "stationId": "900000067948005",
          "nameZh": "观月路",
          "nameEn": "Guanyue Lu",
          "target": "guanyue lu",
          "pinyin": "guanyuelu",
          "lat": 29.774956,
          "lon": 106.652796,
          "sequence": 5
        },
        {
          "id": "900000067948006",
          "stationId": "900000067948006",
          "nameZh": "莲花",
          "nameEn": "Lianhua",
          "target": "lianhua",
          "pinyin": "lianhua",
          "lat": 29.785521,
          "lon": 106.655893,
          "sequence": 6
        },
        {
          "id": "900000067948007",
          "stationId": "900000067948007",
          "nameZh": "举人坝",
          "nameEn": "Jurenba",
          "target": "jurenba",
          "pinyin": "jurenba",
          "lat": 29.791376,
          "lon": 106.667441,
          "sequence": 7
        }
      ],
      "segments": [
        [
          "500100021584003",
          "900000067948002",
          "900000067948003",
          "900000067948004",
          "900000067948005",
          "900000067948006",
          "900000067948007"
        ]
      ]
    },
    {
      "id": "5000-3",
      "operatorId": "5000",
      "operatorName": "重庆地铁",
      "lineId": "3",
      "lineName": "3号线",
      "color": "#2249A3",
      "loop": false,
      "stations": [
        {
          "id": "500100021584040",
          "stationId": "500100021584040",
          "nameZh": "鱼洞",
          "nameEn": "Yudong",
          "target": "yudong",
          "pinyin": "yudong",
          "lat": 29.375867,
          "lon": 106.505897,
          "sequence": 1
        },
        {
          "id": "500100021584039",
          "stationId": "500100021584039",
          "nameZh": "金竹",
          "nameEn": "Jinzhu",
          "target": "jinzhu",
          "pinyin": "jinzhu",
          "lat": 29.375547,
          "lon": 106.523885,
          "sequence": 2
        },
        {
          "id": "500100021584038",
          "stationId": "500100021584038",
          "nameZh": "鱼胡路",
          "nameEn": "Yuhu Lu",
          "target": "yuhu lu",
          "pinyin": "yuhulu",
          "lat": 29.377762,
          "lon": 106.539122,
          "sequence": 3
        },
        {
          "id": "500100021584037",
          "stationId": "500100021584037",
          "nameZh": "学堂湾",
          "nameEn": "Xuetangwan",
          "target": "xuetangwan",
          "pinyin": "xuetangwan",
          "lat": 29.398062,
          "lon": 106.542983,
          "sequence": 4
        },
        {
          "id": "500100021584036",
          "stationId": "500100021584036",
          "nameZh": "大山村",
          "nameEn": "Dashancun",
          "target": "dashancun",
          "pinyin": "dashancun",
          "lat": 29.412858,
          "lon": 106.543657,
          "sequence": 5
        },
        {
          "id": "500100021584035",
          "stationId": "500100021584035",
          "nameZh": "花溪",
          "nameEn": "Huaxi",
          "target": "huaxi",
          "pinyin": "huaxi",
          "lat": 29.432287,
          "lon": 106.550211,
          "sequence": 6
        },
        {
          "id": "500100021584034",
          "stationId": "500100021584034",
          "nameZh": "岔路口",
          "nameEn": "Chalukou",
          "target": "chalukou",
          "pinyin": "chalukou",
          "lat": 29.448579,
          "lon": 106.554512,
          "sequence": 7
        },
        {
          "id": "500100021584033",
          "stationId": "500100021584033",
          "nameZh": "九公里",
          "nameEn": "Jiu Gongli",
          "target": "jiu gongli",
          "pinyin": "jiugongli",
          "lat": 29.458466,
          "lon": 106.559086,
          "sequence": 8
        },
        {
          "id": "500100021584032",
          "stationId": "500100021584032",
          "nameZh": "麒龙",
          "nameEn": "Qilong",
          "target": "qilong",
          "pinyin": "qilong",
          "lat": 29.466957,
          "lon": 106.562563,
          "sequence": 9
        },
        {
          "id": "500100021584031",
          "stationId": "500100021584031",
          "nameZh": "八公里",
          "nameEn": "Ba Gongli",
          "target": "ba gongli",
          "pinyin": "bagongli",
          "lat": 29.478103,
          "lon": 106.565862,
          "sequence": 10
        },
        {
          "id": "500100021584030",
          "stationId": "500100021584030",
          "nameZh": "重庆交通大学",
          "nameEn": "Chongqing Jiaotong Daxue",
          "target": "chongqing jiaotong daxue",
          "pinyin": "chongqingjiaotongdaxue",
          "lat": 29.488581,
          "lon": 106.572766,
          "sequence": 11
        },
        {
          "id": "500100021584029",
          "stationId": "500100021584029",
          "nameZh": "六公里",
          "nameEn": "Liu Gongli",
          "target": "liu gongli",
          "pinyin": "liugongli",
          "lat": 29.497788,
          "lon": 106.573332,
          "sequence": 12
        },
        {
          "id": "500100021584028",
          "stationId": "500100021584028",
          "nameZh": "重庆工商大学",
          "nameEn": "Chongqing Gongshang Daxue",
          "target": "chongqing gongshang daxue",
          "pinyin": "chongqinggongshangdaxue",
          "lat": 29.507337,
          "lon": 106.573876,
          "sequence": 13
        },
        {
          "id": "500100021584027",
          "stationId": "500100021584027",
          "nameZh": "四公里",
          "nameEn": "Si Gongli",
          "target": "si gongli",
          "pinyin": "sigongli",
          "lat": 29.516665,
          "lon": 106.576142,
          "sequence": 14
        },
        {
          "id": "500100021584026",
          "stationId": "500100021584026",
          "nameZh": "南坪",
          "nameEn": "Nanping",
          "target": "nanping",
          "pinyin": "nanping",
          "lat": 29.52599,
          "lon": 106.569885,
          "sequence": 15
        },
        {
          "id": "500100021584025",
          "stationId": "500100021584025",
          "nameZh": "工贸",
          "nameEn": "Gongmao",
          "target": "gongmao",
          "pinyin": "gongmao",
          "lat": 29.531553,
          "lon": 106.563399,
          "sequence": 16
        },
        {
          "id": "500100021584024",
          "stationId": "500100021584024",
          "nameZh": "铜元局",
          "nameEn": "Tongyuanju",
          "target": "tongyuanju",
          "pinyin": "tongyuanju",
          "lat": 29.536006,
          "lon": 106.551562,
          "sequence": 17
        },
        {
          "id": "500100021584023",
          "stationId": "500100021584023",
          "nameZh": "两路口",
          "nameEn": "Lianglukou",
          "target": "lianglukou",
          "pinyin": "lianglukou",
          "lat": 29.552621,
          "lon": 106.549342,
          "sequence": 18
        },
        {
          "id": "500100021584022",
          "stationId": "500100021584022",
          "nameZh": "牛角沱",
          "nameEn": "Niujiaotuo",
          "target": "niujiaotuo",
          "pinyin": "niujiaotuo",
          "lat": 29.560679,
          "lon": 106.542605,
          "sequence": 19
        },
        {
          "id": "500100021584021",
          "stationId": "500100021584021",
          "nameZh": "华新街",
          "nameEn": "Huaxinjie",
          "target": "huaxinjie",
          "pinyin": "huaxinjie",
          "lat": 29.563956,
          "lon": 106.537132,
          "sequence": 20
        },
        {
          "id": "500100021584020",
          "stationId": "500100021584020",
          "nameZh": "观音桥",
          "nameEn": "Guanyinqiao",
          "target": "guanyinqiao",
          "pinyin": "guanyinqiao",
          "lat": 29.573462,
          "lon": 106.532469,
          "sequence": 21
        },
        {
          "id": "500100021584019",
          "stationId": "500100021584019",
          "nameZh": "红旗河沟",
          "nameEn": "Hongqihegou",
          "target": "hongqihegou",
          "pinyin": "hongqihegou",
          "lat": 29.585387,
          "lon": 106.526215,
          "sequence": 22
        },
        {
          "id": "500100021584018",
          "stationId": "500100021584018",
          "nameZh": "嘉州路",
          "nameEn": "Jiazhou Lu",
          "target": "jiazhou lu",
          "pinyin": "jiazhoulu",
          "lat": 29.595523,
          "lon": 106.522156,
          "sequence": 23
        },
        {
          "id": "500100021584017",
          "stationId": "500100021584017",
          "nameZh": "郑家院子",
          "nameEn": "Zhengjia Yuanzi",
          "target": "zhengjia yuanzi",
          "pinyin": "zhengjiayuanzi",
          "lat": 29.599459,
          "lon": 106.529943,
          "sequence": 24
        },
        {
          "id": "500100021584016",
          "stationId": "500100021584016",
          "nameZh": "唐家院子",
          "nameEn": "Tangjiayuanzi",
          "target": "tangjiayuanzi",
          "pinyin": "tangjiayuanzi",
          "lat": 29.599152,
          "lon": 106.540633,
          "sequence": 25
        },
        {
          "id": "500100021584015",
          "stationId": "500100021584015",
          "nameZh": "狮子坪",
          "nameEn": "Shiziping",
          "target": "shiziping",
          "pinyin": "shiziping",
          "lat": 29.60131,
          "lon": 106.549203,
          "sequence": 26
        },
        {
          "id": "500100021584014",
          "stationId": "500100021584014",
          "nameZh": "重庆北站南广场",
          "nameEn": "Chongqing Beizhan Nan Guangchang",
          "target": "chongqing beizhan nan guangchang",
          "pinyin": "chongqingbeizhannanguangchang",
          "lat": 29.606696,
          "lon": 106.549274,
          "sequence": 27
        },
        {
          "id": "500100021584013",
          "stationId": "500100021584013",
          "nameZh": "龙头寺",
          "nameEn": "Longtousi",
          "target": "longtousi",
          "pinyin": "longtousi",
          "lat": 29.61677,
          "lon": 106.549627,
          "sequence": 28
        },
        {
          "id": "500100021584012",
          "stationId": "500100021584012",
          "nameZh": "童家院子",
          "nameEn": "Tongjia Yuanzi",
          "target": "tongjia yuanzi",
          "pinyin": "tongjiayuanzi",
          "lat": 29.628394,
          "lon": 106.555093,
          "sequence": 29
        },
        {
          "id": "500100021584011",
          "stationId": "500100021584011",
          "nameZh": "金渝",
          "nameEn": "Jinyu",
          "target": "jinyu",
          "pinyin": "jinyu",
          "lat": 29.635366,
          "lon": 106.570667,
          "sequence": 30
        },
        {
          "id": "500100021584010",
          "stationId": "500100021584010",
          "nameZh": "金童路",
          "nameEn": "Jintong Lu",
          "target": "jintong lu",
          "pinyin": "jintonglu",
          "lat": 29.643318,
          "lon": 106.567399,
          "sequence": 31
        },
        {
          "id": "500100021584009",
          "stationId": "500100021584009",
          "nameZh": "鸳鸯",
          "nameEn": "Yuanyang",
          "target": "yuanyang",
          "pinyin": "yuanyang",
          "lat": 29.661318,
          "lon": 106.560147,
          "sequence": 32
        },
        {
          "id": "500100021584008",
          "stationId": "500100021584008",
          "nameZh": "园博园",
          "nameEn": "Yuanboyuan",
          "target": "yuanboyuan",
          "pinyin": "yuanboyuan",
          "lat": 29.674628,
          "lon": 106.563771,
          "sequence": 33
        },
        {
          "id": "500100021584007",
          "stationId": "500100021584007",
          "nameZh": "翠云",
          "nameEn": "Cuiyun",
          "target": "cuiyun",
          "pinyin": "cuiyun",
          "lat": 29.685865,
          "lon": 106.572687,
          "sequence": 34
        },
        {
          "id": "500100021584006",
          "stationId": "500100021584006",
          "nameZh": "长福路",
          "nameEn": "Changfu Lu",
          "target": "changfu lu",
          "pinyin": "changfulu",
          "lat": 29.687603,
          "lon": 106.588609,
          "sequence": 35
        },
        {
          "id": "500100021584005",
          "stationId": "500100021584005",
          "nameZh": "回兴",
          "nameEn": "Huixing",
          "target": "huixing",
          "pinyin": "huixing",
          "lat": 29.690383,
          "lon": 106.605868,
          "sequence": 36
        },
        {
          "id": "500100021584004",
          "stationId": "500100021584004",
          "nameZh": "双龙",
          "nameEn": "Shuanglong",
          "target": "shuanglong",
          "pinyin": "shuanglong",
          "lat": 29.697889,
          "lon": 106.618788,
          "sequence": 37
        },
        {
          "id": "500100021584003",
          "stationId": "500100021584003",
          "nameZh": "碧津",
          "nameEn": "Bijin",
          "target": "bijin",
          "pinyin": "bijin",
          "lat": 29.711154,
          "lon": 106.632644,
          "sequence": 38
        },
        {
          "id": "500100021584002",
          "stationId": "500100021584002",
          "nameZh": "江北机场T2航站楼",
          "nameEn": "Jiangbei Jichang T2 Hangzhanlou",
          "target": "jiangbei jichang t2 hangzhanlou",
          "pinyin": "jiangbeijichangt2hangzhanlou",
          "lat": 29.718703,
          "lon": 106.638292,
          "sequence": 39
        }
      ],
      "segments": [
        [
          "500100021584040",
          "500100021584039",
          "500100021584038",
          "500100021584037",
          "500100021584036",
          "500100021584035",
          "500100021584034",
          "500100021584033",
          "500100021584032",
          "500100021584031",
          "500100021584030",
          "500100021584029",
          "500100021584028",
          "500100021584027",
          "500100021584026",
          "500100021584025",
          "500100021584024",
          "500100021584023",
          "500100021584022",
          "500100021584021",
          "500100021584020",
          "500100021584019",
          "500100021584018",
          "500100021584017",
          "500100021584016",
          "500100021584015",
          "500100021584014",
          "500100021584013",
          "500100021584012",
          "500100021584011",
          "500100021584010",
          "500100021584009",
          "500100021584008",
          "500100021584007",
          "500100021584006",
          "500100021584005",
          "500100021584004",
          "500100021584003",
          "500100021584002"
        ]
      ]
    },
    {
      "id": "5000-4",
      "operatorId": "5000",
      "operatorName": "重庆地铁",
      "lineId": "4",
      "lineName": "4号线",
      "color": "#EE782E",
      "loop": false,
      "stations": [
        {
          "id": "900000070644010",
          "stationId": "900000070644010",
          "nameZh": "黄岭",
          "nameEn": "Huangling",
          "target": "huangling",
          "pinyin": "huangling",
          "lat": 29.771858,
          "lon": 106.841295,
          "sequence": 1
        },
        {
          "id": "900000070644011",
          "stationId": "900000070644011",
          "nameZh": "石船",
          "nameEn": "Shichuan",
          "target": "shichuan",
          "pinyin": "shichuan",
          "lat": 29.759476,
          "lon": 106.833681,
          "sequence": 2
        },
        {
          "id": "900000070644012",
          "stationId": "900000070644012",
          "nameZh": "桐梓林",
          "nameEn": "Tongzilin",
          "target": "tongzilin",
          "pinyin": "tongzilin",
          "lat": 29.742033,
          "lon": 106.815394,
          "sequence": 3
        },
        {
          "id": "900000070644013",
          "stationId": "900000070644013",
          "nameZh": "普福",
          "nameEn": "Pufu",
          "target": "pufu",
          "pinyin": "pufu",
          "lat": 29.728731,
          "lon": 106.803826,
          "sequence": 4
        },
        {
          "id": "900000070644014",
          "stationId": "900000070644014",
          "nameZh": "高石塔",
          "nameEn": "Gaoshita",
          "target": "gaoshita",
          "pinyin": "gaoshita",
          "lat": 29.711129,
          "lon": 106.802914,
          "sequence": 5
        },
        {
          "id": "900000070644015",
          "stationId": "900000070644015",
          "nameZh": "龙兴",
          "nameEn": "Longxing",
          "target": "longxing",
          "pinyin": "longxing",
          "lat": 29.70138,
          "lon": 106.801778,
          "sequence": 6
        },
        {
          "id": "900000070644016",
          "stationId": "900000070644016",
          "nameZh": "龙驿大道",
          "nameEn": "Longyi Dadao",
          "target": "longyi dadao",
          "pinyin": "longyidadao",
          "lat": 29.689518,
          "lon": 106.794023,
          "sequence": 7
        },
        {
          "id": "900000070644017",
          "stationId": "900000070644017",
          "nameZh": "三板溪",
          "nameEn": "Sanban Xi",
          "target": "sanban xi",
          "pinyin": "sanbanxi",
          "lat": 29.667796,
          "lon": 106.797678,
          "sequence": 8
        },
        {
          "id": "900000070644018",
          "stationId": "900000070644018",
          "nameZh": "复盛",
          "nameEn": "Fusheng",
          "target": "fusheng",
          "pinyin": "fusheng",
          "lat": 29.656026,
          "lon": 106.800299,
          "sequence": 9
        },
        {
          "id": "900000070644019",
          "stationId": "900000070644019",
          "nameZh": "石河清",
          "nameEn": "Shiheqing",
          "target": "shiheqing",
          "pinyin": "shiheqing",
          "lat": 29.638214,
          "lon": 106.799592,
          "sequence": 10
        },
        {
          "id": "900000070644020",
          "stationId": "900000070644020",
          "nameZh": "雁坪",
          "nameEn": "Yanping",
          "target": "yanping",
          "pinyin": "yanping",
          "lat": 29.627041,
          "lon": 106.775059,
          "sequence": 11
        },
        {
          "id": "900000070644021",
          "stationId": "900000070644021",
          "nameZh": "鱼嘴",
          "nameEn": "Yuzui",
          "target": "yuzui",
          "pinyin": "yuzui",
          "lat": 29.623695,
          "lon": 106.763066,
          "sequence": 12
        },
        {
          "id": "900000070644022",
          "stationId": "900000070644022",
          "nameZh": "果园物流枢纽",
          "nameEn": "Guoyuan Wuliu Shuniu",
          "target": "guoyuan wuliu shuniu",
          "pinyin": "guoyuanwuliushuniu",
          "lat": 29.609759,
          "lon": 106.738883,
          "sequence": 13
        },
        {
          "id": "900000070644023",
          "stationId": "900000070644023",
          "nameZh": "鹿栖",
          "nameEn": "Luqi",
          "target": "luqi",
          "pinyin": "luqi",
          "lat": 29.600406,
          "lon": 106.71628,
          "sequence": 14
        },
        {
          "id": "900000070644024",
          "stationId": "900000070644024",
          "nameZh": "铁山坪",
          "nameEn": "Tieshanping",
          "target": "tieshanping",
          "pinyin": "tieshanping",
          "lat": 29.613942,
          "lon": 106.669502,
          "sequence": 15
        },
        {
          "id": "900000070644001",
          "stationId": "900000070644001",
          "nameZh": "唐家沱",
          "nameEn": "Tangjiatuo",
          "target": "tangjiatuo",
          "pinyin": "tangjiatuo",
          "lat": 29.605695,
          "lon": 106.65914,
          "sequence": 16
        },
        {
          "id": "900000070644002",
          "stationId": "900000070644002",
          "nameZh": "太平冲",
          "nameEn": "Taipingchong",
          "target": "taipingchong",
          "pinyin": "taipingchong",
          "lat": 29.605873,
          "lon": 106.641522,
          "sequence": 17
        },
        {
          "id": "900000070644003",
          "stationId": "900000070644003",
          "nameZh": "港城",
          "nameEn": "Gangcheng",
          "target": "gangcheng",
          "pinyin": "gangcheng",
          "lat": 29.619783,
          "lon": 106.631766,
          "sequence": 18
        },
        {
          "id": "900000070644004",
          "stationId": "900000070644004",
          "nameZh": "黑石子",
          "nameEn": "Heishizi",
          "target": "heishizi",
          "pinyin": "heishizi",
          "lat": 29.624639,
          "lon": 106.621014,
          "sequence": 19
        },
        {
          "id": "900000070644005",
          "stationId": "900000070644005",
          "nameZh": "寸滩",
          "nameEn": "Cuntan",
          "target": "cuntan",
          "pinyin": "cuntan",
          "lat": 29.621815,
          "lon": 106.606153,
          "sequence": 20
        },
        {
          "id": "900000070621018",
          "stationId": "900000070621018",
          "nameZh": "保税港",
          "nameEn": "Baoshuigang",
          "target": "baoshuigang",
          "pinyin": "baoshuigang",
          "lat": 29.617052,
          "lon": 106.583495,
          "sequence": 21
        },
        {
          "id": "900000070621017",
          "stationId": "900000070621017",
          "nameZh": "头塘",
          "nameEn": "Toutang",
          "target": "toutang",
          "pinyin": "toutang",
          "lat": 29.60821,
          "lon": 106.573325,
          "sequence": 22
        },
        {
          "id": "900000070644008",
          "stationId": "900000070644008",
          "nameZh": "重庆北站北广场",
          "nameEn": "Chongqing Beizhan Bei Guangchang",
          "target": "chongqing beizhan bei guangchang",
          "pinyin": "chongqingbeizhanbeiguangchang",
          "lat": 29.612922,
          "lon": 106.551195,
          "sequence": 23
        },
        {
          "id": "900000055077034",
          "stationId": "900000055077034",
          "nameZh": "民安大道",
          "nameEn": "Minan Dadao",
          "target": "minan dadao",
          "pinyin": "minandadao",
          "lat": 29.608917,
          "lon": 106.529107,
          "sequence": 24
        },
        {
          "id": "500100021584018",
          "stationId": "500100021584018",
          "nameZh": "嘉州路",
          "nameEn": "Jiazhou Lu",
          "target": "jiazhou lu",
          "pinyin": "jiazhoulu",
          "lat": 29.595523,
          "lon": 106.522156,
          "sequence": 25
        },
        {
          "id": "900000070644026",
          "stationId": "900000070644026",
          "nameZh": "龙溪",
          "nameEn": "Longxi",
          "target": "longxi",
          "pinyin": "longxi",
          "lat": 29.589614,
          "lon": 106.516824,
          "sequence": 26
        },
        {
          "id": "900000027933005",
          "stationId": "900000027933005",
          "nameZh": "花卉园",
          "nameEn": "Huahuiyuan",
          "target": "huahuiyuan",
          "pinyin": "huahuiyuan",
          "lat": 29.583226,
          "lon": 106.512935,
          "sequence": 27
        },
        {
          "id": "900000070644028",
          "stationId": "900000070644028",
          "nameZh": "大庆村",
          "nameEn": "Daqingcun",
          "target": "daqingcun",
          "pinyin": "daqingcun",
          "lat": 29.576285,
          "lon": 106.503888,
          "sequence": 28
        },
        {
          "id": "900000070644029",
          "stationId": "900000070644029",
          "nameZh": "大石坝",
          "nameEn": "Dashiba",
          "target": "dashiba",
          "pinyin": "dashiba",
          "lat": 29.572596,
          "lon": 106.498419,
          "sequence": 29
        },
        {
          "id": "900000070644030",
          "stationId": "900000070644030",
          "nameZh": "盘溪",
          "nameEn": "Panxi",
          "target": "panxi",
          "pinyin": "panxi",
          "lat": 29.576242,
          "lon": 106.483288,
          "sequence": 30
        },
        {
          "id": "900000055077008",
          "stationId": "900000055077008",
          "nameZh": "玉带山",
          "nameEn": "Yudai Shan",
          "target": "yudai shan",
          "pinyin": "yudaishan",
          "lat": 29.581062,
          "lon": 106.475941,
          "sequence": 31
        },
        {
          "id": "900000070644032",
          "stationId": "900000070644032",
          "nameZh": "石马河立交",
          "nameEn": "Shimahe Lijiao",
          "target": "shimahe lijiao",
          "pinyin": "shimahelijiao",
          "lat": 29.585216,
          "lon": 106.468628,
          "sequence": 32
        }
      ],
      "segments": [
        [
          "900000070644010",
          "900000070644011",
          "900000070644012",
          "900000070644013",
          "900000070644014",
          "900000070644015",
          "900000070644016",
          "900000070644017",
          "900000070644018",
          "900000070644019",
          "900000070644020",
          "900000070644021",
          "900000070644022",
          "900000070644023",
          "900000070644024",
          "900000070644001",
          "900000070644002",
          "900000070644003",
          "900000070644004",
          "900000070644005",
          "900000070621018",
          "900000070621017",
          "900000070644008",
          "900000055077034",
          "500100021584018",
          "900000070644026",
          "900000027933005",
          "900000070644028",
          "900000070644029",
          "900000070644030",
          "900000055077008",
          "900000070644032"
        ]
      ]
    },
    {
      "id": "5000-5",
      "operatorId": "5000",
      "operatorName": "重庆地铁",
      "lineId": "5",
      "lineName": "5号线",
      "color": "#01A2E2",
      "loop": false,
      "stations": [
        {
          "id": "900000088463038",
          "stationId": "900000088463038",
          "nameZh": "悦港北路",
          "nameEn": "Yuegang Beilu",
          "target": "yuegang beilu",
          "pinyin": "yuegangbeilu",
          "lat": 29.753464,
          "lon": 106.569523,
          "sequence": 1
        },
        {
          "id": "900000088463037",
          "stationId": "900000088463037",
          "nameZh": "悦港大道",
          "nameEn": "Yuegang Dadao",
          "target": "yuegang dadao",
          "pinyin": "yuegangdadao",
          "lat": 29.744829,
          "lon": 106.569348,
          "sequence": 2
        },
        {
          "id": "900000088463036",
          "stationId": "900000088463036",
          "nameZh": "椿萱大道",
          "nameEn": "Chunxuan Dadao",
          "target": "chunxuan dadao",
          "pinyin": "chunxuandadao",
          "lat": 29.733857,
          "lon": 106.570826,
          "sequence": 3
        },
        {
          "id": "900000077387003",
          "stationId": "900000077387003",
          "nameZh": "中央公园西",
          "nameEn": "Zhongyang Gongyuan Xi",
          "target": "zhongyang gongyuan xi",
          "pinyin": "zhongyanggongyuanxi",
          "lat": 29.722507,
          "lon": 106.572398,
          "sequence": 4
        },
        {
          "id": "900000088463034",
          "stationId": "900000088463034",
          "nameZh": "鲁家沟",
          "nameEn": "Lujiagou",
          "target": "lujiagou",
          "pinyin": "lujiagou",
          "lat": 29.711283,
          "lon": 106.571233,
          "sequence": 5
        },
        {
          "id": "900000088463033",
          "stationId": "900000088463033",
          "nameZh": "甘悦大道",
          "nameEn": "Ganyue Dadao",
          "target": "ganyue dadao",
          "pinyin": "ganyuedadao",
          "lat": 29.702929,
          "lon": 106.56907,
          "sequence": 6
        },
        {
          "id": "900000088463032",
          "stationId": "900000088463032",
          "nameZh": "玉河沟",
          "nameEn": "Yuhegou",
          "target": "yuhegou",
          "pinyin": "yuhegou",
          "lat": 29.694402,
          "lon": 106.56927,
          "sequence": 7
        },
        {
          "id": "900000088463031",
          "stationId": "900000088463031",
          "nameZh": "园博中心",
          "nameEn": "Yuanbo Zhongxin",
          "target": "yuanbo zhongxin",
          "pinyin": "yuanbozhongxin",
          "lat": 29.67529,
          "lon": 106.560443,
          "sequence": 8
        },
        {
          "id": "900000088463030",
          "stationId": "900000088463030",
          "nameZh": "丹鹤",
          "nameEn": "Danhe",
          "target": "danhe",
          "pinyin": "danhe",
          "lat": 29.666655,
          "lon": 106.550959,
          "sequence": 9
        },
        {
          "id": "900000088463029",
          "stationId": "900000088463029",
          "nameZh": "湖霞街",
          "nameEn": "Huxia Jie",
          "target": "huxia jie",
          "pinyin": "huxiajie",
          "lat": 29.659787,
          "lon": 106.538581,
          "sequence": 10
        },
        {
          "id": "900000088463028",
          "stationId": "900000088463028",
          "nameZh": "重光",
          "nameEn": "Zhongguang",
          "target": "zhongguang",
          "pinyin": "zhongguang",
          "lat": 29.649028,
          "lon": 106.530077,
          "sequence": 11
        },
        {
          "id": "900000088463027",
          "stationId": "900000088463027",
          "nameZh": "和睦路",
          "nameEn": "Hemu Lu",
          "target": "hemu lu",
          "pinyin": "hemulu",
          "lat": 29.62968,
          "lon": 106.533455,
          "sequence": 12
        },
        {
          "id": "900000088463026",
          "stationId": "900000088463026",
          "nameZh": "人和",
          "nameEn": "Renhe",
          "target": "renhe",
          "pinyin": "renhe",
          "lat": 29.623325,
          "lon": 106.522248,
          "sequence": 13
        },
        {
          "id": "900000088463025",
          "stationId": "900000088463025",
          "nameZh": "幸福广场",
          "nameEn": "Xingfu Guangchang",
          "target": "xingfu guangchang",
          "pinyin": "xingfuguangchang",
          "lat": 29.61656,
          "lon": 106.508201,
          "sequence": 14
        },
        {
          "id": "900000027933007",
          "stationId": "900000027933007",
          "nameZh": "冉家坝",
          "nameEn": "Ranjiaba",
          "target": "ranjiaba",
          "pinyin": "ranjiaba",
          "lat": 29.598628,
          "lon": 106.498821,
          "sequence": 15
        },
        {
          "id": "900000027933006",
          "stationId": "900000027933006",
          "nameZh": "大龙山",
          "nameEn": "Da Longshan",
          "target": "da longshan",
          "pinyin": "dalongshan",
          "lat": 29.589491,
          "lon": 106.498792,
          "sequence": 16
        },
        {
          "id": "900000088463022",
          "stationId": "900000088463022",
          "nameZh": "大石坝",
          "nameEn": "Dashiba",
          "target": "dashiba",
          "pinyin": "dashiba",
          "lat": 29.570787,
          "lon": 106.495224,
          "sequence": 17
        },
        {
          "id": "900000088463020",
          "stationId": "900000088463020",
          "nameZh": "忠恕沱",
          "nameEn": "Zhongshutuo",
          "target": "zhongshutuo",
          "pinyin": "zhongshutuo",
          "lat": 29.563079,
          "lon": 106.494042,
          "sequence": 18
        },
        {
          "id": "900000070621006",
          "stationId": "900000070621006",
          "nameZh": "红岩村",
          "nameEn": "Hongyancun",
          "target": "hongyancun",
          "pinyin": "hongyancun",
          "lat": 29.551159,
          "lon": 106.494552,
          "sequence": 19
        },
        {
          "id": "500100022282016",
          "stationId": "500100022282016",
          "nameZh": "歇台子",
          "nameEn": "Xietaizi",
          "target": "xietaizi",
          "pinyin": "xietaizi",
          "lat": 29.538754,
          "lon": 106.499111,
          "sequence": 20
        },
        {
          "id": "500100022282015",
          "stationId": "500100022282015",
          "nameZh": "石桥铺",
          "nameEn": "Shiqiaopu",
          "target": "shiqiaopu",
          "pinyin": "shiqiaopu",
          "lat": 29.532771,
          "lon": 106.484891,
          "sequence": 21
        },
        {
          "id": "900000088463011",
          "stationId": "900000088463011",
          "nameZh": "石新路",
          "nameEn": "Shixin Lu",
          "target": "shixin lu",
          "pinyin": "shixinlu",
          "lat": 29.525708,
          "lon": 106.477473,
          "sequence": 22
        },
        {
          "id": "900000088463010",
          "stationId": "900000088463010",
          "nameZh": "巴山",
          "nameEn": "Bashan",
          "target": "bashan",
          "pinyin": "bashan",
          "lat": 29.520731,
          "lon": 106.469793,
          "sequence": 23
        },
        {
          "id": "900000088463009",
          "stationId": "900000088463009",
          "nameZh": "凤西路",
          "nameEn": "Fengxi Lu",
          "target": "fengxi lu",
          "pinyin": "fengxilu",
          "lat": 29.51373,
          "lon": 106.454189,
          "sequence": 24
        },
        {
          "id": "900000055077041",
          "stationId": "900000055077041",
          "nameZh": "重庆西站",
          "nameEn": "Chongqing Xizhan",
          "target": "chongqing xizhan",
          "pinyin": "chongqingxizhan",
          "lat": 29.500239,
          "lon": 106.439014,
          "sequence": 25
        },
        {
          "id": "900000088463007",
          "stationId": "900000088463007",
          "nameZh": "华岩寺",
          "nameEn": "Huayansi",
          "target": "huayansi",
          "pinyin": "huayansi",
          "lat": 29.493952,
          "lon": 106.445598,
          "sequence": 26
        },
        {
          "id": "900000088463006",
          "stationId": "900000088463006",
          "nameZh": "华成路",
          "nameEn": "Huacheng Lu",
          "target": "huacheng lu",
          "pinyin": "huachenglu",
          "lat": 29.480455,
          "lon": 106.453531,
          "sequence": 27
        },
        {
          "id": "900000088463005",
          "stationId": "900000088463005",
          "nameZh": "半山",
          "nameEn": "Banshan",
          "target": "banshan",
          "pinyin": "banshan",
          "lat": 29.474539,
          "lon": 106.450924,
          "sequence": 28
        },
        {
          "id": "900000088463004",
          "stationId": "900000088463004",
          "nameZh": "中梁山",
          "nameEn": "Zhongliangshan",
          "target": "zhongliangshan",
          "pinyin": "zhongliangshan",
          "lat": 29.45925,
          "lon": 106.446081,
          "sequence": 29
        },
        {
          "id": "900000088463003",
          "stationId": "900000088463003",
          "nameZh": "金建路",
          "nameEn": "Jinjian Lu",
          "target": "jinjian lu",
          "pinyin": "jinjianlu",
          "lat": 29.442537,
          "lon": 106.442085,
          "sequence": 30
        },
        {
          "id": "900000088463002",
          "stationId": "900000088463002",
          "nameZh": "华岩中心",
          "nameEn": "Huayan Zhongxin",
          "target": "huayan zhongxin",
          "pinyin": "huayanzhongxin",
          "lat": 29.429132,
          "lon": 106.440422,
          "sequence": 31
        },
        {
          "id": "900000088463001",
          "stationId": "900000088463001",
          "nameZh": "跳磴",
          "nameEn": "Tiaodeng",
          "target": "tiaodeng",
          "pinyin": "tiaodeng",
          "lat": 29.408248,
          "lon": 106.437561,
          "sequence": 32
        }
      ],
      "segments": [
        [
          "900000088463038",
          "900000088463037",
          "900000088463036",
          "900000077387003",
          "900000088463034",
          "900000088463033",
          "900000088463032",
          "900000088463031",
          "900000088463030",
          "900000088463029",
          "900000088463028",
          "900000088463027",
          "900000088463026",
          "900000088463025",
          "900000027933007",
          "900000027933006",
          "900000088463022",
          "900000088463020",
          "900000070621006",
          "500100022282016",
          "500100022282015",
          "900000088463011",
          "900000088463010",
          "900000088463009",
          "900000055077041",
          "900000088463007",
          "900000088463006",
          "900000088463005",
          "900000088463004",
          "900000088463003",
          "900000088463002",
          "900000088463001"
        ]
      ]
    },
    {
      "id": "5000-6",
      "operatorId": "5000",
      "operatorName": "重庆地铁",
      "lineId": "6",
      "lineName": "6号线",
      "color": "#EA6183",
      "loop": false,
      "stations": [
        {
          "id": "900000027933021",
          "stationId": "900000027933021",
          "nameZh": "茶园",
          "nameEn": "Chayuan",
          "target": "chayuan",
          "pinyin": "chayuan",
          "lat": 29.487559,
          "lon": 106.642898,
          "sequence": 1
        },
        {
          "id": "900000027933022",
          "stationId": "900000027933022",
          "nameZh": "邱家湾",
          "nameEn": "Qiujiawan",
          "target": "qiujiawan",
          "pinyin": "qiujiawan",
          "lat": 29.497915,
          "lon": 106.64961,
          "sequence": 2
        },
        {
          "id": "900000027933023",
          "stationId": "900000027933023",
          "nameZh": "长生桥",
          "nameEn": "Changshengqiao",
          "target": "changshengqiao",
          "pinyin": "changshengqiao",
          "lat": 29.510924,
          "lon": 106.658049,
          "sequence": 3
        },
        {
          "id": "900000027933024",
          "stationId": "900000027933024",
          "nameZh": "刘家坪",
          "nameEn": "Liujiaping",
          "target": "liujiaping",
          "pinyin": "liujiaping",
          "lat": 29.524717,
          "lon": 106.655733,
          "sequence": 4
        },
        {
          "id": "900000027933025",
          "stationId": "900000027933025",
          "nameZh": "上新街",
          "nameEn": "Shangxin Jie",
          "target": "shangxin jie",
          "pinyin": "shangxinjie",
          "lat": 29.556094,
          "lon": 106.597196,
          "sequence": 5
        },
        {
          "id": "500100021567003",
          "stationId": "500100021567003",
          "nameZh": "小什字",
          "nameEn": "Xiaoshizi",
          "target": "xiaoshizi",
          "pinyin": "xiaoshizi",
          "lat": 29.560028,
          "lon": 106.583593,
          "sequence": 6
        },
        {
          "id": "900000027933027",
          "stationId": "900000027933027",
          "nameZh": "大剧院",
          "nameEn": "Dajuyuan",
          "target": "dajuyuan",
          "pinyin": "dajuyuan",
          "lat": 29.569584,
          "lon": 106.576944,
          "sequence": 7
        },
        {
          "id": "900000027933028",
          "stationId": "900000027933028",
          "nameZh": "江北城",
          "nameEn": "Jiangbeicheng",
          "target": "jiangbeicheng",
          "pinyin": "jiangbeicheng",
          "lat": 29.575825,
          "lon": 106.572066,
          "sequence": 8
        },
        {
          "id": "900000027933001",
          "stationId": "900000027933001",
          "nameZh": "五里店",
          "nameEn": "Wulidian",
          "target": "wulidian",
          "pinyin": "wulidian",
          "lat": 29.58517,
          "lon": 106.565175,
          "sequence": 9
        },
        {
          "id": "900000027933002",
          "stationId": "900000027933002",
          "nameZh": "红土地",
          "nameEn": "Hongtudi",
          "target": "hongtudi",
          "pinyin": "hongtudi",
          "lat": 29.584019,
          "lon": 106.551176,
          "sequence": 10
        },
        {
          "id": "900000027933003",
          "stationId": "900000027933003",
          "nameZh": "黄泥塝",
          "nameEn": "Huangnibang",
          "target": "huangnibang",
          "pinyin": "huangnibang",
          "lat": 29.588466,
          "lon": 106.538072,
          "sequence": 11
        },
        {
          "id": "500100021584019",
          "stationId": "500100021584019",
          "nameZh": "红旗河沟",
          "nameEn": "Hongqihegou",
          "target": "hongqihegou",
          "pinyin": "hongqihegou",
          "lat": 29.585387,
          "lon": 106.526215,
          "sequence": 12
        },
        {
          "id": "900000027933005",
          "stationId": "900000027933005",
          "nameZh": "花卉园",
          "nameEn": "Huahuiyuan",
          "target": "huahuiyuan",
          "pinyin": "huahuiyuan",
          "lat": 29.583226,
          "lon": 106.512935,
          "sequence": 13
        },
        {
          "id": "900000027933006",
          "stationId": "900000027933006",
          "nameZh": "大龙山",
          "nameEn": "Da Longshan",
          "target": "da longshan",
          "pinyin": "dalongshan",
          "lat": 29.589491,
          "lon": 106.498792,
          "sequence": 14
        },
        {
          "id": "900000027933007",
          "stationId": "900000027933007",
          "nameZh": "冉家坝",
          "nameEn": "Ranjiaba",
          "target": "ranjiaba",
          "pinyin": "ranjiaba",
          "lat": 29.598628,
          "lon": 106.498821,
          "sequence": 15
        },
        {
          "id": "900000027933008",
          "stationId": "900000027933008",
          "nameZh": "光电园",
          "nameEn": "Guangdianyuan",
          "target": "guangdianyuan",
          "pinyin": "guangdianyuan",
          "lat": 29.616077,
          "lon": 106.499401,
          "sequence": 16
        },
        {
          "id": "900000027933009",
          "stationId": "900000027933009",
          "nameZh": "大竹林",
          "nameEn": "Dazhulin",
          "target": "dazhulin",
          "pinyin": "dazhulin",
          "lat": 29.628054,
          "lon": 106.478351,
          "sequence": 17
        },
        {
          "id": "900000027933010",
          "stationId": "900000027933010",
          "nameZh": "康庄",
          "nameEn": "Kangzhuang",
          "target": "kangzhuang",
          "pinyin": "kangzhuang",
          "lat": 29.634788,
          "lon": 106.478971,
          "sequence": 18
        },
        {
          "id": "900000027933011",
          "stationId": "900000027933011",
          "nameZh": "九曲河",
          "nameEn": "Jiuquhe",
          "target": "jiuquhe",
          "pinyin": "jiuquhe",
          "lat": 29.653996,
          "lon": 106.482875,
          "sequence": 19
        },
        {
          "id": "500100022269002",
          "stationId": "500100022269002",
          "nameZh": "礼嘉",
          "nameEn": "Lijia",
          "target": "lijia",
          "pinyin": "lijia",
          "lat": 29.667234,
          "lon": 106.488115,
          "sequence": 20
        },
        {
          "id": "900000027933013",
          "stationId": "900000027933013",
          "nameZh": "金山寺",
          "nameEn": "Jinshan Si",
          "target": "jinshan si",
          "pinyin": "jinshansi",
          "lat": 29.679292,
          "lon": 106.492104,
          "sequence": 21
        },
        {
          "id": "900000027933014",
          "stationId": "900000027933014",
          "nameZh": "曹家湾",
          "nameEn": "Caojiawan",
          "target": "caojiawan",
          "pinyin": "caojiawan",
          "lat": 29.721,
          "lon": 106.494307,
          "sequence": 22
        },
        {
          "id": "900000027933015",
          "stationId": "900000027933015",
          "nameZh": "蔡家",
          "nameEn": "Caijia",
          "target": "caijia",
          "pinyin": "caijia",
          "lat": 29.736017,
          "lon": 106.49227,
          "sequence": 23
        },
        {
          "id": "900000027933016",
          "stationId": "900000027933016",
          "nameZh": "向家岗",
          "nameEn": "Xiangjiagang",
          "target": "xiangjiagang",
          "pinyin": "xiangjiagang",
          "lat": 29.739202,
          "lon": 106.472957,
          "sequence": 24
        },
        {
          "id": "900000027933017",
          "stationId": "900000027933017",
          "nameZh": "龙凤溪",
          "nameEn": "Longfengxi",
          "target": "longfengxi",
          "pinyin": "longfengxi",
          "lat": 29.789492,
          "lon": 106.403911,
          "sequence": 25
        },
        {
          "id": "900000027933018",
          "stationId": "900000027933018",
          "nameZh": "状元碑",
          "nameEn": "Zhuangyuan Bei",
          "target": "zhuangyuan bei",
          "pinyin": "zhuangyuanbei",
          "lat": 29.803187,
          "lon": 106.398891,
          "sequence": 26
        },
        {
          "id": "900000027933019",
          "stationId": "900000027933019",
          "nameZh": "西南大学",
          "nameEn": "Xinan Daxue",
          "target": "xinan daxue",
          "pinyin": "xinandaxue",
          "lat": 29.816263,
          "lon": 106.423756,
          "sequence": 27
        },
        {
          "id": "900000027933020",
          "stationId": "900000027933020",
          "nameZh": "北碚",
          "nameEn": "Beibei",
          "target": "beibei",
          "pinyin": "beibei",
          "lat": 29.825288,
          "lon": 106.437504,
          "sequence": 28
        }
      ],
      "segments": [
        [
          "900000027933021",
          "900000027933022",
          "900000027933023",
          "900000027933024",
          "900000027933025",
          "500100021567003",
          "900000027933027",
          "900000027933028",
          "900000027933001",
          "900000027933002",
          "900000027933003",
          "500100021584019",
          "900000027933005",
          "900000027933006",
          "900000027933007",
          "900000027933008",
          "900000027933009",
          "900000027933010",
          "900000027933011",
          "500100022269002",
          "900000027933013",
          "900000027933014",
          "900000027933015",
          "900000027933016",
          "900000027933017",
          "900000027933018",
          "900000027933019",
          "900000027933020"
        ]
      ]
    },
    {
      "id": "5000-6",
      "operatorId": "5000",
      "operatorName": "重庆地铁",
      "lineId": "6",
      "lineName": "6号线东站段",
      "color": "#EA6183",
      "loop": false,
      "stations": [
        {
          "id": "900000027933024",
          "stationId": "900000027933024",
          "nameZh": "刘家坪",
          "nameEn": "Liujiaping",
          "target": "liujiaping",
          "pinyin": "liujiaping",
          "lat": 29.524717,
          "lon": 106.655733,
          "sequence": 1
        },
        {
          "id": "900000163044006",
          "stationId": "900000163044006",
          "nameZh": "百乐园",
          "nameEn": "Baileyuan",
          "target": "baileyuan",
          "pinyin": "baileyuan",
          "lat": 29.51443,
          "lon": 106.666375,
          "sequence": 2
        },
        {
          "id": "900000163044007",
          "stationId": "900000163044007",
          "nameZh": "桃花桥",
          "nameEn": "Tao Huaqiao",
          "target": "tao huaqiao",
          "pinyin": "taohuaqiao",
          "lat": 29.503421,
          "lon": 106.662104,
          "sequence": 3
        },
        {
          "id": "900000154351004",
          "stationId": "900000154351004",
          "nameZh": "重庆东站",
          "nameEn": "Chongqing Dongzhan",
          "target": "chongqing dongzhan",
          "pinyin": "chongqingdongzhan",
          "lat": 29.484474,
          "lon": 106.67288,
          "sequence": 4
        }
      ],
      "segments": [
        [
          "900000027933024",
          "900000163044006",
          "900000163044007",
          "900000154351004"
        ]
      ]
    },
    {
      "id": "5000-9",
      "operatorId": "5000",
      "operatorName": "重庆地铁",
      "lineId": "9",
      "lineName": "9号线",
      "color": "#871C2A",
      "loop": false,
      "stations": [
        {
          "id": "900000070621001",
          "stationId": "900000070621001",
          "nameZh": "高滩岩",
          "nameEn": "Gaotanyan",
          "target": "gaotanyan",
          "pinyin": "gaotanyan",
          "lat": 29.539327,
          "lon": 106.449798,
          "sequence": 1
        },
        {
          "id": "900000070621002",
          "stationId": "900000070621002",
          "nameZh": "天梨路",
          "nameEn": "Tianli Lu",
          "target": "tianli lu",
          "pinyin": "tianlilu",
          "lat": 29.550153,
          "lon": 106.450949,
          "sequence": 2
        },
        {
          "id": "500100022282011",
          "stationId": "500100022282011",
          "nameZh": "沙坪坝",
          "nameEn": "Shapingba",
          "target": "shapingba",
          "pinyin": "shapingba",
          "lat": 29.556003,
          "lon": 106.460425,
          "sequence": 3
        },
        {
          "id": "500100022282012",
          "stationId": "500100022282012",
          "nameZh": "小龙坎",
          "nameEn": "Xiaolongkan",
          "target": "xiaolongkan",
          "pinyin": "xiaolongkan",
          "lat": 29.553658,
          "lon": 106.468325,
          "sequence": 4
        },
        {
          "id": "900000070621005",
          "stationId": "900000070621005",
          "nameZh": "土湾",
          "nameEn": "Tuwan",
          "target": "tuwan",
          "pinyin": "tuwan",
          "lat": 29.551232,
          "lon": 106.48045,
          "sequence": 5
        },
        {
          "id": "900000070621006",
          "stationId": "900000070621006",
          "nameZh": "红岩村",
          "nameEn": "Hongyancun",
          "target": "hongyancun",
          "pinyin": "hongyancun",
          "lat": 29.551159,
          "lon": 106.494552,
          "sequence": 6
        },
        {
          "id": "900000070621007",
          "stationId": "900000070621007",
          "nameZh": "富华路",
          "nameEn": "Fuhua Lu",
          "target": "fuhua lu",
          "pinyin": "fuhualu",
          "lat": 29.550922,
          "lon": 106.504105,
          "sequence": 7
        },
        {
          "id": "900000070621008",
          "stationId": "900000070621008",
          "nameZh": "化龙桥",
          "nameEn": "Hualongqiao",
          "target": "hualongqiao",
          "pinyin": "hualongqiao",
          "lat": 29.549869,
          "lon": 106.518857,
          "sequence": 8
        },
        {
          "id": "900000070621009",
          "stationId": "900000070621009",
          "nameZh": "李家坪",
          "nameEn": "Lijiaping",
          "target": "lijiaping",
          "pinyin": "lijiaping",
          "lat": 29.563631,
          "lon": 106.520404,
          "sequence": 9
        },
        {
          "id": "900000070621010",
          "stationId": "900000070621010",
          "nameZh": "蚂蝗梁",
          "nameEn": "Ma Huang Liang",
          "target": "ma huang liang",
          "pinyin": "mahuangliang",
          "lat": 29.571174,
          "lon": 106.525323,
          "sequence": 10
        },
        {
          "id": "500100021584020",
          "stationId": "500100021584020",
          "nameZh": "观音桥",
          "nameEn": "Guanyinqiao",
          "target": "guanyinqiao",
          "pinyin": "guanyinqiao",
          "lat": 29.573462,
          "lon": 106.532469,
          "sequence": 11
        },
        {
          "id": "900000070621012",
          "stationId": "900000070621012",
          "nameZh": "鲤鱼池",
          "nameEn": "Liyuchi",
          "target": "liyuchi",
          "pinyin": "liyuchi",
          "lat": 29.573397,
          "lon": 106.549403,
          "sequence": 12
        },
        {
          "id": "900000070621013",
          "stationId": "900000070621013",
          "nameZh": "刘家台",
          "nameEn": "Liujiatai",
          "target": "liujiatai",
          "pinyin": "liujiatai",
          "lat": 29.572812,
          "lon": 106.563885,
          "sequence": 13
        },
        {
          "id": "900000027933028",
          "stationId": "900000027933028",
          "nameZh": "江北城",
          "nameEn": "Jiangbeicheng",
          "target": "jiangbeicheng",
          "pinyin": "jiangbeicheng",
          "lat": 29.575825,
          "lon": 106.572066,
          "sequence": 14
        },
        {
          "id": "900000027933001",
          "stationId": "900000027933001",
          "nameZh": "五里店",
          "nameEn": "Wulidian",
          "target": "wulidian",
          "pinyin": "wulidian",
          "lat": 29.58517,
          "lon": 106.565175,
          "sequence": 15
        },
        {
          "id": "900000070621016",
          "stationId": "900000070621016",
          "nameZh": "溉澜溪",
          "nameEn": "Gailanxi",
          "target": "gailanxi",
          "pinyin": "gailanxi",
          "lat": 29.594365,
          "lon": 106.571631,
          "sequence": 16
        },
        {
          "id": "900000070621017",
          "stationId": "900000070621017",
          "nameZh": "头塘",
          "nameEn": "Toutang",
          "target": "toutang",
          "pinyin": "toutang",
          "lat": 29.60821,
          "lon": 106.573325,
          "sequence": 17
        },
        {
          "id": "900000070621018",
          "stationId": "900000070621018",
          "nameZh": "保税港",
          "nameEn": "Baoshuigang",
          "target": "baoshuigang",
          "pinyin": "baoshuigang",
          "lat": 29.617052,
          "lon": 106.583495,
          "sequence": 18
        },
        {
          "id": "900000070621019",
          "stationId": "900000070621019",
          "nameZh": "何家梁",
          "nameEn": "Hejia Liang",
          "target": "hejia liang",
          "pinyin": "hejialiang",
          "lat": 29.625539,
          "lon": 106.596135,
          "sequence": 19
        },
        {
          "id": "900000070621020",
          "stationId": "900000070621020",
          "nameZh": "石盘河",
          "nameEn": "Shipanhe",
          "target": "shipanhe",
          "pinyin": "shipanhe",
          "lat": 29.638945,
          "lon": 106.597322,
          "sequence": 20
        },
        {
          "id": "900000070621021",
          "stationId": "900000070621021",
          "nameZh": "上湾路",
          "nameEn": "Shangwan Lu",
          "target": "shangwan lu",
          "pinyin": "shangwanlu",
          "lat": 29.649889,
          "lon": 106.608952,
          "sequence": 21
        },
        {
          "id": "900000070621022",
          "stationId": "900000070621022",
          "nameZh": "青岗坪",
          "nameEn": "Qinggangping",
          "target": "qinggangping",
          "pinyin": "qinggangping",
          "lat": 29.660802,
          "lon": 106.616829,
          "sequence": 22
        },
        {
          "id": "900000070621023",
          "stationId": "900000070621023",
          "nameZh": "宝圣湖",
          "nameEn": "Baoshenghu",
          "target": "baoshenghu",
          "pinyin": "baoshenghu",
          "lat": 29.677885,
          "lon": 106.608684,
          "sequence": 23
        },
        {
          "id": "900000070621024",
          "stationId": "900000070621024",
          "nameZh": "兴科大道",
          "nameEn": "Xingke Dadao",
          "target": "xingke dadao",
          "pinyin": "xingkedadao",
          "lat": 29.687534,
          "lon": 106.603929,
          "sequence": 24
        },
        {
          "id": "900000070621027",
          "stationId": "900000070621027",
          "nameZh": "春华大道",
          "nameEn": "Chunhua Dadao",
          "target": "chunhua dadao",
          "pinyin": "chunhuadadao",
          "lat": 29.706265,
          "lon": 106.599714,
          "sequence": 25
        },
        {
          "id": "900000070621028",
          "stationId": "900000070621028",
          "nameZh": "兰桂大道",
          "nameEn": "Langui Dadao",
          "target": "langui dadao",
          "pinyin": "languidadao",
          "lat": 29.713866,
          "lon": 106.596995,
          "sequence": 26
        },
        {
          "id": "900000070621029",
          "stationId": "900000070621029",
          "nameZh": "中央公园东",
          "nameEn": "Zhongyang Gongyuan Dong",
          "target": "zhongyang gongyuan dong",
          "pinyin": "zhongyanggongyuandong",
          "lat": 29.723646,
          "lon": 106.592505,
          "sequence": 27
        },
        {
          "id": "900000070621030",
          "stationId": "900000070621030",
          "nameZh": "丛岩寺",
          "nameEn": "Congyansi",
          "target": "congyansi",
          "pinyin": "congyansi",
          "lat": 29.7445,
          "lon": 106.585245,
          "sequence": 28
        },
        {
          "id": "900000070621031",
          "stationId": "900000070621031",
          "nameZh": "花石沟",
          "nameEn": "Huashigou",
          "target": "huashigou",
          "pinyin": "huashigou",
          "lat": 29.752678,
          "lon": 106.590309,
          "sequence": 29
        }
      ],
      "segments": [
        [
          "900000070621001",
          "900000070621002",
          "500100022282011",
          "500100022282012",
          "900000070621005",
          "900000070621006",
          "900000070621007",
          "900000070621008",
          "900000070621009",
          "900000070621010",
          "500100021584020",
          "900000070621012",
          "900000070621013",
          "900000027933028",
          "900000027933001",
          "900000070621016",
          "900000070621017",
          "900000070621018",
          "900000070621019",
          "900000070621020",
          "900000070621021",
          "900000070621022",
          "900000070621023",
          "900000070621024",
          "900000070621027",
          "900000070621028",
          "900000070621029",
          "900000070621030",
          "900000070621031"
        ]
      ]
    },
    {
      "id": "5000-10",
      "operatorId": "5000",
      "operatorName": "重庆地铁",
      "lineId": "10",
      "lineName": "10号线",
      "color": "#5A2B8D",
      "loop": false,
      "stations": [
        {
          "id": "900000077387040",
          "stationId": "900000077387040",
          "nameZh": "兰花路",
          "nameEn": "Lanhua Lu",
          "target": "lanhua lu",
          "pinyin": "lanhualu",
          "lat": 29.504302,
          "lon": 106.557704,
          "sequence": 1
        },
        {
          "id": "900000055077025",
          "stationId": "900000055077025",
          "nameZh": "南湖",
          "nameEn": "Nanhu",
          "target": "nanhu",
          "pinyin": "nanhu",
          "lat": 29.516738,
          "lon": 106.557155,
          "sequence": 2
        },
        {
          "id": "900000077387038",
          "stationId": "900000077387038",
          "nameZh": "万寿路",
          "nameEn": "Wanshou Lu",
          "target": "wanshou lu",
          "pinyin": "wanshoulu",
          "lat": 29.523264,
          "lon": 106.562897,
          "sequence": 3
        },
        {
          "id": "900000073429023",
          "stationId": "900000073429023",
          "nameZh": "后堡",
          "nameEn": "Houbao",
          "target": "houbao",
          "pinyin": "houbao",
          "lat": 29.536932,
          "lon": 106.569266,
          "sequence": 4
        },
        {
          "id": "500100022282021",
          "stationId": "500100022282021",
          "nameZh": "七星岗",
          "nameEn": "Qixinggang",
          "target": "qixinggang",
          "pinyin": "qixinggang",
          "lat": 29.554871,
          "lon": 106.563142,
          "sequence": 5
        },
        {
          "id": "900000077387030",
          "stationId": "900000077387030",
          "nameZh": "大礼堂",
          "nameEn": "Dalitang",
          "target": "dalitang",
          "pinyin": "dalitang",
          "lat": 29.561744,
          "lon": 106.555675,
          "sequence": 6
        },
        {
          "id": "500100031250006",
          "stationId": "500100031250006",
          "nameZh": "曾家岩",
          "nameEn": "Zengjiayan",
          "target": "zengjiayan",
          "pinyin": "zengjiayan",
          "lat": 29.566468,
          "lon": 106.550111,
          "sequence": 7
        },
        {
          "id": "900000070621012",
          "stationId": "900000070621012",
          "nameZh": "鲤鱼池",
          "nameEn": "Liyuchi",
          "target": "liyuchi",
          "pinyin": "liyuchi",
          "lat": 29.573397,
          "lon": 106.549403,
          "sequence": 8
        },
        {
          "id": "900000027933002",
          "stationId": "900000027933002",
          "nameZh": "红土地",
          "nameEn": "Hongtudi",
          "target": "hongtudi",
          "pinyin": "hongtudi",
          "lat": 29.584019,
          "lon": 106.551176,
          "sequence": 9
        },
        {
          "id": "900000077387026",
          "stationId": "900000077387026",
          "nameZh": "龙头寺公园",
          "nameEn": "Longtousi Gongyuan",
          "target": "longtousi gongyuan",
          "pinyin": "longtousigongyuan",
          "lat": 29.598653,
          "lon": 106.550608,
          "sequence": 10
        },
        {
          "id": "500100021584014",
          "stationId": "500100021584014",
          "nameZh": "重庆北站南广场",
          "nameEn": "Chongqing Beizhan Nan Guangchang",
          "target": "chongqing beizhan nan guangchang",
          "pinyin": "chongqingbeizhannanguangchang",
          "lat": 29.606696,
          "lon": 106.549274,
          "sequence": 11
        },
        {
          "id": "900000070644008",
          "stationId": "900000070644008",
          "nameZh": "重庆北站北广场",
          "nameEn": "Chongqing Beizhan Bei Guangchang",
          "target": "chongqing beizhan bei guangchang",
          "pinyin": "chongqingbeizhanbeiguangchang",
          "lat": 29.612922,
          "lon": 106.551195,
          "sequence": 12
        },
        {
          "id": "900000077387023",
          "stationId": "900000077387023",
          "nameZh": "民心佳园",
          "nameEn": "Minxin Jiayuan",
          "target": "minxin jiayuan",
          "pinyin": "minxinjiayuan",
          "lat": 29.626609,
          "lon": 106.567621,
          "sequence": 13
        },
        {
          "id": "900000077387022",
          "stationId": "900000077387022",
          "nameZh": "三亚湾",
          "nameEn": "Sanyawan",
          "target": "sanyawan",
          "pinyin": "sanyawan",
          "lat": 29.638338,
          "lon": 106.584785,
          "sequence": 14
        },
        {
          "id": "900000070621021",
          "stationId": "900000070621021",
          "nameZh": "上湾路",
          "nameEn": "Shangwan Lu",
          "target": "shangwan lu",
          "pinyin": "shangwanlu",
          "lat": 29.649889,
          "lon": 106.608952,
          "sequence": 15
        },
        {
          "id": "900000077387020",
          "stationId": "900000077387020",
          "nameZh": "环山公园",
          "nameEn": "Huanshan Gongyuan",
          "target": "huanshan gongyuan",
          "pinyin": "huanshangongyuan",
          "lat": 29.658846,
          "lon": 106.622117,
          "sequence": 16
        },
        {
          "id": "900000077387010",
          "stationId": "900000077387010",
          "nameZh": "长河",
          "nameEn": "Changhe",
          "target": "changhe",
          "pinyin": "changhe",
          "lat": 29.674056,
          "lon": 106.629425,
          "sequence": 17
        },
        {
          "id": "900000077387009",
          "stationId": "900000077387009",
          "nameZh": "江北机场T3航站楼",
          "nameEn": "Jiangbei Jichang T3 Hangzhanlou",
          "target": "jiangbei jichang t3 hangzhanlou",
          "pinyin": "jiangbeijichangt3hangzhanlou",
          "lat": 29.708424,
          "lon": 106.655275,
          "sequence": 18
        },
        {
          "id": "500100021584002",
          "stationId": "500100021584002",
          "nameZh": "江北机场T2航站楼",
          "nameEn": "Jiangbei Jichang T2 Hangzhanlou",
          "target": "jiangbei jichang t2 hangzhanlou",
          "pinyin": "jiangbeijichangt2hangzhanlou",
          "lat": 29.718703,
          "lon": 106.638292,
          "sequence": 19
        },
        {
          "id": "900000077387007",
          "stationId": "900000077387007",
          "nameZh": "渝北广场",
          "nameEn": "Yubei Guangchang",
          "target": "yubei guangchang",
          "pinyin": "yubeiguangchang",
          "lat": 29.718544,
          "lon": 106.629849,
          "sequence": 20
        },
        {
          "id": "900000077387006",
          "stationId": "900000077387006",
          "nameZh": "鹿山",
          "nameEn": "Lushan",
          "target": "lushan",
          "pinyin": "lushan",
          "lat": 29.720589,
          "lon": 106.608363,
          "sequence": 21
        },
        {
          "id": "900000070621029",
          "stationId": "900000070621029",
          "nameZh": "中央公园东",
          "nameEn": "Zhongyang Gongyuan Dong",
          "target": "zhongyang gongyuan dong",
          "pinyin": "zhongyanggongyuandong",
          "lat": 29.723646,
          "lon": 106.592505,
          "sequence": 22
        },
        {
          "id": "900000077387004",
          "stationId": "900000077387004",
          "nameZh": "中央公园",
          "nameEn": "Zhongyang Gongyuan",
          "target": "zhongyang gongyuan",
          "pinyin": "zhongyanggongyuan",
          "lat": 29.723671,
          "lon": 106.583722,
          "sequence": 23
        },
        {
          "id": "900000070367030",
          "stationId": "900000070367030",
          "nameZh": "中央公园西",
          "nameEn": "Zhongyang Gongyuan Xi",
          "target": "zhongyang gongyuan xi",
          "pinyin": "zhongyanggongyuanxi",
          "lat": 29.723702,
          "lon": 106.572323,
          "sequence": 24
        },
        {
          "id": "500100022269004",
          "stationId": "500100022269004",
          "nameZh": "悦来",
          "nameEn": "Yuelai",
          "target": "yuelai",
          "pinyin": "yuelai",
          "lat": 29.725508,
          "lon": 106.547955,
          "sequence": 25
        },
        {
          "id": "500100022269008",
          "stationId": "500100022269008",
          "nameZh": "王家庄",
          "nameEn": "Wangjiazhuang",
          "target": "wangjiazhuang",
          "pinyin": "wangjiazhuang",
          "lat": 29.743497,
          "lon": 106.545659,
          "sequence": 26
        }
      ],
      "segments": [
        [
          "900000077387040",
          "900000055077025",
          "900000077387038",
          "900000073429023",
          "500100022282021",
          "900000077387030",
          "500100031250006",
          "900000070621012",
          "900000027933002",
          "900000077387026",
          "500100021584014",
          "900000070644008",
          "900000077387023",
          "900000077387022",
          "900000070621021",
          "900000077387020",
          "900000077387010",
          "900000077387009",
          "500100021584002",
          "900000077387007",
          "900000077387006",
          "900000070621029",
          "900000077387004",
          "900000070367030",
          "500100022269004",
          "500100022269008"
        ]
      ]
    },
    {
      "id": "5000-18",
      "operatorId": "5000",
      "operatorName": "重庆地铁",
      "lineId": "18",
      "lineName": "18号线",
      "color": "#98D1C0",
      "loop": false,
      "stations": [
        {
          "id": "900000131216019",
          "stationId": "900000131216019",
          "nameZh": "跳磴南",
          "nameEn": "Tiao Dengnan",
          "target": "tiao dengnan",
          "pinyin": "tiaodengnan",
          "lat": 29.393827,
          "lon": 106.435305,
          "sequence": 1
        },
        {
          "id": "900000088463001",
          "stationId": "900000088463001",
          "nameZh": "跳磴",
          "nameEn": "Tiaodeng",
          "target": "tiaodeng",
          "pinyin": "tiaodeng",
          "lat": 29.408248,
          "lon": 106.437561,
          "sequence": 2
        },
        {
          "id": "900000131216017",
          "stationId": "900000131216017",
          "nameZh": "金鳌山",
          "nameEn": "Jinao Shan",
          "target": "jinao shan",
          "pinyin": "jinaoshan",
          "lat": 29.415076,
          "lon": 106.458862,
          "sequence": 3
        },
        {
          "id": "900000131216016",
          "stationId": "900000131216016",
          "nameZh": "伏牛溪",
          "nameEn": "Funiuxi",
          "target": "funiuxi",
          "pinyin": "funiuxi",
          "lat": 29.415712,
          "lon": 106.481112,
          "sequence": 4
        },
        {
          "id": "500100031250024",
          "stationId": "500100031250024",
          "nameZh": "白居寺",
          "nameEn": "Baijusi",
          "target": "baijusi",
          "pinyin": "baijusi",
          "lat": 29.416434,
          "lon": 106.492762,
          "sequence": 5
        },
        {
          "id": "900000131216014",
          "stationId": "900000131216014",
          "nameZh": "茄子溪",
          "nameEn": "Qiezixi",
          "target": "qiezixi",
          "pinyin": "qiezixi",
          "lat": 29.424226,
          "lon": 106.504435,
          "sequence": 6
        },
        {
          "id": "900000131216013",
          "stationId": "900000131216013",
          "nameZh": "巴滨路湿地公园",
          "nameEn": "Babin Lu Shidi Gongyuan",
          "target": "babin lu shidi gongyuan",
          "pinyin": "babinlushidigongyuan",
          "lat": 29.432689,
          "lon": 106.517572,
          "sequence": 7
        },
        {
          "id": "900000131216012",
          "stationId": "900000131216012",
          "nameZh": "花溪工业园",
          "nameEn": "Huaxi Gongyeyuan",
          "target": "huaxi gongyeyuan",
          "pinyin": "huaxigongyeyuan",
          "lat": 29.448905,
          "lon": 106.51609,
          "sequence": 8
        },
        {
          "id": "900000131216011",
          "stationId": "900000131216011",
          "nameZh": "重庆理工大学",
          "nameEn": "Chongqing Ligong Daxue",
          "target": "chongqing ligong daxue",
          "pinyin": "chongqingligongdaxue",
          "lat": 29.460468,
          "lon": 106.52107,
          "sequence": 9
        },
        {
          "id": "900000131216010",
          "stationId": "900000131216010",
          "nameZh": "李家沱大桥",
          "nameEn": "Lijiatuo Daqiao",
          "target": "lijiatuo daqiao",
          "pinyin": "lijiatuodaqiao",
          "lat": 29.468794,
          "lon": 106.527803,
          "sequence": 10
        },
        {
          "id": "900000131216009",
          "stationId": "900000131216009",
          "nameZh": "电厂",
          "nameEn": "Dianchang",
          "target": "dianchang",
          "pinyin": "dianchang",
          "lat": 29.482645,
          "lon": 106.537946,
          "sequence": 11
        },
        {
          "id": "900000131216008",
          "stationId": "900000131216008",
          "nameZh": "四川美术学院",
          "nameEn": "Sichuan Meishu Xueyuan",
          "target": "sichuan meishu xueyuan",
          "pinyin": "sichuanmeishuxueyuan",
          "lat": 29.489291,
          "lon": 106.544024,
          "sequence": 12
        },
        {
          "id": "900000131216007",
          "stationId": "900000131216007",
          "nameZh": "黄桷坪",
          "nameEn": "Huangjueping",
          "target": "huangjueping",
          "pinyin": "huangjueping",
          "lat": 29.495864,
          "lon": 106.537989,
          "sequence": 13
        },
        {
          "id": "900000131216006",
          "stationId": "900000131216006",
          "nameZh": "滩子口",
          "nameEn": "Tanzikou",
          "target": "tanzikou",
          "pinyin": "tanzikou",
          "lat": 29.499593,
          "lon": 106.527726,
          "sequence": 14
        },
        {
          "id": "500100031250013",
          "stationId": "500100031250013",
          "nameZh": "杨家坪",
          "nameEn": "Yangjiaping",
          "target": "yangjiaping",
          "pinyin": "yangjiaping",
          "lat": 29.507894,
          "lon": 106.515931,
          "sequence": 15
        },
        {
          "id": "900000131216004",
          "stationId": "900000131216004",
          "nameZh": "石坪桥",
          "nameEn": "Shipingqiao",
          "target": "shipingqiao",
          "pinyin": "shipingqiao",
          "lat": 29.515675,
          "lon": 106.506265,
          "sequence": 16
        },
        {
          "id": "900000055077036",
          "stationId": "900000055077036",
          "nameZh": "奥体中心",
          "nameEn": "Aoti Zhongxin",
          "target": "aoti zhongxin",
          "pinyin": "aotizhongxin",
          "lat": 29.523446,
          "lon": 106.50221,
          "sequence": 17
        },
        {
          "id": "500100022282016",
          "stationId": "500100022282016",
          "nameZh": "歇台子",
          "nameEn": "Xietaizi",
          "target": "xietaizi",
          "pinyin": "xietaizi",
          "lat": 29.538754,
          "lon": 106.499111,
          "sequence": 18
        },
        {
          "id": "900000070621007",
          "stationId": "900000070621007",
          "nameZh": "富华路",
          "nameEn": "Fuhua Lu",
          "target": "fuhua lu",
          "pinyin": "fuhualu",
          "lat": 29.550922,
          "lon": 106.504105,
          "sequence": 19
        }
      ],
      "segments": [
        [
          "900000131216019",
          "900000088463001",
          "900000131216017",
          "900000131216016",
          "500100031250024",
          "900000131216014",
          "900000131216013",
          "900000131216012",
          "900000131216011",
          "900000131216010",
          "900000131216009",
          "900000131216008",
          "900000131216007",
          "900000131216006",
          "500100031250013",
          "900000131216004",
          "900000055077036",
          "500100022282016",
          "900000070621007"
        ]
      ]
    },
    {
      "id": "5000-轨道",
      "operatorId": "5000",
      "operatorName": "重庆地铁",
      "lineId": "轨道",
      "lineName": "轨道交通国博线",
      "color": "#EA6183",
      "loop": false,
      "stations": [
        {
          "id": "500100022269014",
          "stationId": "500100022269014",
          "nameZh": "沙河坝",
          "nameEn": "Shaheba",
          "target": "shaheba",
          "pinyin": "shaheba",
          "lat": 29.844186,
          "lon": 106.556472,
          "sequence": 1
        },
        {
          "id": "500100022269013",
          "stationId": "500100022269013",
          "nameZh": "红岩坪",
          "nameEn": "Hongyanping",
          "target": "hongyanping",
          "pinyin": "hongyanping",
          "lat": 29.832969,
          "lon": 106.549266,
          "sequence": 2
        },
        {
          "id": "500100022269012",
          "stationId": "500100022269012",
          "nameZh": "复兴",
          "nameEn": "Fuxing",
          "target": "fuxing",
          "pinyin": "fuxing",
          "lat": 29.822152,
          "lon": 106.550035,
          "sequence": 3
        },
        {
          "id": "500100022269011",
          "stationId": "500100022269011",
          "nameZh": "思源",
          "nameEn": "Siyuan",
          "target": "siyuan",
          "pinyin": "siyuan",
          "lat": 29.807035,
          "lon": 106.549258,
          "sequence": 4
        },
        {
          "id": "500100022269010",
          "stationId": "500100022269010",
          "nameZh": "刘家院子",
          "nameEn": "Liujia Yuanzi",
          "target": "liujia yuanzi",
          "pinyin": "liujiayuanzi",
          "lat": 29.781874,
          "lon": 106.554491,
          "sequence": 5
        },
        {
          "id": "500100022269009",
          "stationId": "500100022269009",
          "nameZh": "清溪河",
          "nameEn": "Qingxihe",
          "target": "qingxihe",
          "pinyin": "qingxihe",
          "lat": 29.764022,
          "lon": 106.547948,
          "sequence": 6
        },
        {
          "id": "500100022269008",
          "stationId": "500100022269008",
          "nameZh": "王家庄",
          "nameEn": "Wangjiazhuang",
          "target": "wangjiazhuang",
          "pinyin": "wangjiazhuang",
          "lat": 29.743497,
          "lon": 106.545659,
          "sequence": 7
        },
        {
          "id": "500100022269004",
          "stationId": "500100022269004",
          "nameZh": "悦来",
          "nameEn": "Yuelai",
          "target": "yuelai",
          "pinyin": "yuelai",
          "lat": 29.725508,
          "lon": 106.547955,
          "sequence": 8
        },
        {
          "id": "500100022269003",
          "stationId": "500100022269003",
          "nameZh": "国博中心",
          "nameEn": "Guobo Zhongxin",
          "target": "guobo zhongxin",
          "pinyin": "guobozhongxin",
          "lat": 29.716516,
          "lon": 106.545523,
          "sequence": 9
        },
        {
          "id": "500100022269007",
          "stationId": "500100022269007",
          "nameZh": "高义口",
          "nameEn": "Gaoyikou",
          "target": "gaoyikou",
          "pinyin": "gaoyikou",
          "lat": 29.702776,
          "lon": 106.527902,
          "sequence": 10
        },
        {
          "id": "500100022269006",
          "stationId": "500100022269006",
          "nameZh": "黄茅坪",
          "nameEn": "Huangmaoping",
          "target": "huangmaoping",
          "pinyin": "huangmaoping",
          "lat": 29.676213,
          "lon": 106.531485,
          "sequence": 11
        },
        {
          "id": "500100022269005",
          "stationId": "500100022269005",
          "nameZh": "欢乐谷",
          "nameEn": "Huanlegu",
          "target": "huanlegu",
          "pinyin": "huanlegu",
          "lat": 29.669213,
          "lon": 106.508619,
          "sequence": 12
        },
        {
          "id": "500100022269002",
          "stationId": "500100022269002",
          "nameZh": "礼嘉",
          "nameEn": "Lijia",
          "target": "lijia",
          "pinyin": "lijia",
          "lat": 29.667234,
          "lon": 106.488115,
          "sequence": 13
        }
      ],
      "segments": [
        [
          "500100022269014",
          "500100022269013",
          "500100022269012",
          "500100022269011",
          "500100022269010",
          "500100022269009",
          "500100022269008",
          "500100022269004",
          "500100022269003",
          "500100022269007",
          "500100022269006",
          "500100022269005",
          "500100022269002"
        ]
      ]
    },
    {
      "id": "5000-环线",
      "operatorId": "5000",
      "operatorName": "重庆地铁",
      "lineId": "环线",
      "lineName": "环线",
      "color": "#FFA500",
      "loop": true,
      "stations": [
        {
          "id": "900000055077004",
          "stationId": "900000055077004",
          "nameZh": "重庆图书馆",
          "nameEn": "Chongqing Tushuguan",
          "target": "chongqing tushuguan",
          "pinyin": "chongqingtushuguan",
          "lat": 29.532135,
          "lon": 106.45555,
          "sequence": 1
        },
        {
          "id": "900000055077005",
          "stationId": "900000055077005",
          "nameZh": "天星桥",
          "nameEn": "Tianxingqiao",
          "target": "tianxingqiao",
          "pinyin": "tianxingqiao",
          "lat": 29.542227,
          "lon": 106.458625,
          "sequence": 2
        },
        {
          "id": "500100022282011",
          "stationId": "500100022282011",
          "nameZh": "沙坪坝",
          "nameEn": "Shapingba",
          "target": "shapingba",
          "pinyin": "shapingba",
          "lat": 29.556003,
          "lon": 106.460425,
          "sequence": 3
        },
        {
          "id": "900000055077007",
          "stationId": "900000055077007",
          "nameZh": "重庆大学",
          "nameEn": "Chongqing Daxue",
          "target": "chongqing daxue",
          "pinyin": "chongqingdaxue",
          "lat": 29.568137,
          "lon": 106.463078,
          "sequence": 4
        },
        {
          "id": "900000055077008",
          "stationId": "900000055077008",
          "nameZh": "玉带山",
          "nameEn": "Yudai Shan",
          "target": "yudai shan",
          "pinyin": "yudaishan",
          "lat": 29.581062,
          "lon": 106.475941,
          "sequence": 5
        },
        {
          "id": "900000055077009",
          "stationId": "900000055077009",
          "nameZh": "南桥寺",
          "nameEn": "Nanqiaosi",
          "target": "nanqiaosi",
          "pinyin": "nanqiaosi",
          "lat": 29.590358,
          "lon": 106.482436,
          "sequence": 6
        },