{
  "city": "hefei",
  "cityNameZh": "合肥",
  "cityNameEn": "Hefei",
  "source": "高德地图地铁数据（非官方接口）· 官方英文站名整理自 Wikipedia",
  "generatedAt": "2026-07-14T14:48:44.621Z",
  "lines": [
    {
      "id": "3401-1",
      "operatorId": "3401",
      "operatorName": "合肥地铁",
      "lineId": "1",
      "lineName": "1号线",
      "color": "#CC0000",
      "loop": false,
      "stations": [
        {
          "id": "900000039731001",
          "stationId": "900000039731001",
          "nameZh": "九联圩",
          "nameEn": "Jiulianwei",
          "target": "jiulianwei",
          "pinyin": "jiulianwei",
          "lat": 31.691457,
          "lon": 117.286181,
          "sequence": 1
        },
        {
          "id": "900000039731002",
          "stationId": "900000039731002",
          "nameZh": "丙子铺",
          "nameEn": "Bing Zipu",
          "target": "bing zipu",
          "pinyin": "bingzipu",
          "lat": 31.69145,
          "lon": 117.297393,
          "sequence": 2
        },
        {
          "id": "900000039731003",
          "stationId": "900000039731003",
          "nameZh": "万年埠",
          "nameEn": "Wannianbu",
          "target": "wannianbu",
          "pinyin": "wannianbu",
          "lat": 31.698436,
          "lon": 117.302102,
          "sequence": 3
        },
        {
          "id": "900000039731004",
          "stationId": "900000039731004",
          "nameZh": "万达城",
          "nameEn": "Wandacheng",
          "target": "wandacheng",
          "pinyin": "wandacheng",
          "lat": 31.705865,
          "lon": 117.302177,
          "sequence": 4
        },
        {
          "id": "900000039731005",
          "stationId": "900000039731005",
          "nameZh": "云谷路",
          "nameEn": "Yungu Lu",
          "target": "yungu lu",
          "pinyin": "yungulu",
          "lat": 31.713194,
          "lon": 117.302214,
          "sequence": 5
        },
        {
          "id": "900000039731006",
          "stationId": "900000039731006",
          "nameZh": "金斗公园",
          "nameEn": "Jindou Gongyuan",
          "target": "jindou gongyuan",
          "pinyin": "jindougongyuan",
          "lat": 31.723036,
          "lon": 117.30263,
          "sequence": 6
        },
        {
          "id": "900000039731007",
          "stationId": "900000039731007",
          "nameZh": "塘西河公园",
          "nameEn": "Tangxihe Gongyuan",
          "target": "tangxihe gongyuan",
          "pinyin": "tangxihegongyuan",
          "lat": 31.731507,
          "lon": 117.302601,
          "sequence": 7
        },
        {
          "id": "900000039731008",
          "stationId": "900000039731008",
          "nameZh": "紫庐",
          "nameEn": "Zilu",
          "target": "zilu",
          "pinyin": "zilu",
          "lat": 31.740745,
          "lon": 117.302627,
          "sequence": 8
        },
        {
          "id": "900000039731009",
          "stationId": "900000039731009",
          "nameZh": "滨湖会展中心",
          "nameEn": "Binhu Huizhan Zhongxin",
          "target": "binhu huizhan zhongxin",
          "pinyin": "binhuhuizhanzhongxin",
          "lat": 31.754639,
          "lon": 117.302666,
          "sequence": 9
        },
        {
          "id": "900000039731010",
          "stationId": "900000039731010",
          "nameZh": "高王",
          "nameEn": "Gaowang",
          "target": "gaowang",
          "pinyin": "gaowang",
          "lat": 31.773139,
          "lon": 117.29142,
          "sequence": 10
        },
        {
          "id": "900000039731011",
          "stationId": "900000039731011",
          "nameZh": "骆岗",
          "nameEn": "Luogang",
          "target": "luogang",
          "pinyin": "luogang",
          "lat": 31.783406,
          "lon": 117.291451,
          "sequence": 11
        },
        {
          "id": "900000039731012",
          "stationId": "900000039731012",
          "nameZh": "南站南广场",
          "nameEn": "Nanzhan Nan Guangchang",
          "target": "nanzhan nan guangchang",
          "pinyin": "nanzhannanguangchang",
          "lat": 31.79257,
          "lon": 117.291576,
          "sequence": 12
        },
        {
          "id": "900000039731013",
          "stationId": "900000039731013",
          "nameZh": "合肥南站",
          "nameEn": "Hefei Nanzhan",
          "target": "hefei nanzhan",
          "pinyin": "hefeinanzhan",
          "lat": 31.800004,
          "lon": 117.290051,
          "sequence": 13
        },
        {
          "id": "900000039731014",
          "stationId": "900000039731014",
          "nameZh": "望湖城",
          "nameEn": "Wanghucheng",
          "target": "wanghucheng",
          "pinyin": "wanghucheng",
          "lat": 31.805361,
          "lon": 117.29204,
          "sequence": 14
        },
        {
          "id": "900000039731015",
          "stationId": "900000039731015",
          "nameZh": "葛大店",
          "nameEn": "Gedadian",
          "target": "gedadian",
          "pinyin": "gedadian",
          "lat": 31.814564,
          "lon": 117.303172,
          "sequence": 15
        },
        {
          "id": "900000039731016",
          "stationId": "900000039731016",
          "nameZh": "秋浦河路",
          "nameEn": "Qiupuhe Lu",
          "target": "qiupuhe lu",
          "pinyin": "qiupuhelu",
          "lat": 31.823177,
          "lon": 117.301989,
          "sequence": 16
        },
        {
          "id": "900000039731017",
          "stationId": "900000039731017",
          "nameZh": "朱岗",
          "nameEn": "Zhugang",
          "target": "zhugang",
          "pinyin": "zhugang",
          "lat": 31.832155,
          "lon": 117.301739,
          "sequence": 17
        },
        {
          "id": "900000039731018",
          "stationId": "900000039731018",
          "nameZh": "合工大南区",
          "nameEn": "Hegongda Nanqu",
          "target": "hegongda nanqu",
          "pinyin": "hegongdananqu",
          "lat": 31.847196,
          "lon": 117.30071,
          "sequence": 18
        },
        {
          "id": "900000039731019",
          "stationId": "900000039731019",
          "nameZh": "包公园",
          "nameEn": "Bao Gongyuan",
          "target": "bao gongyuan",
          "pinyin": "baogongyuan",
          "lat": 31.856274,
          "lon": 117.30136,
          "sequence": 19
        },
        {
          "id": "900000039729016",
          "stationId": "900000039729016",
          "nameZh": "大东门",
          "nameEn": "Dadongmen",
          "target": "dadongmen",
          "pinyin": "dadongmen",
          "lat": 31.863909,
          "lon": 117.300758,
          "sequence": 20
        },
        {
          "id": "900000039731021",
          "stationId": "900000039731021",
          "nameZh": "明光路",
          "nameEn": "Mingguang Lu",
          "target": "mingguang lu",
          "pinyin": "mingguanglu",
          "lat": 31.869977,
          "lon": 117.304588,
          "sequence": 21
        },
        {
          "id": "900000039731022",
          "stationId": "900000039731022",
          "nameZh": "长淮",
          "nameEn": "Changhuai",
          "target": "changhuai",
          "pinyin": "changhuai",
          "lat": 31.875623,
          "lon": 117.309132,
          "sequence": 22
        },
        {
          "id": "900000039731023",
          "stationId": "900000039731023",
          "nameZh": "合肥火车站",
          "nameEn": "Hefei Huochezhan",
          "target": "hefei huochezhan",
          "pinyin": "hefeihuochezhan",
          "lat": 31.883376,
          "lon": 117.315587,
          "sequence": 23
        },
        {
          "id": "900000039731027",
          "stationId": "900000039731027",
          "nameZh": "瑶海公园",
          "nameEn": "Yaohai Gongyuan",
          "target": "yaohai gongyuan",
          "pinyin": "yaohaigongyuan",
          "lat": 31.890064,
          "lon": 117.31441,
          "sequence": 24
        },
        {
          "id": "900000039731028",
          "stationId": "900000039731028",
          "nameZh": "兴华苑",
          "nameEn": "Xinghuayuan",
          "target": "xinghuayuan",
          "pinyin": "xinghuayuan",
          "lat": 31.903499,
          "lon": 117.313651,
          "sequence": 25
        },
        {
          "id": "900000039731029",
          "stationId": "900000039731029",
          "nameZh": "张洼",
          "nameEn": "Zhangwa",
          "target": "zhangwa",
          "pinyin": "zhangwa",
          "lat": 31.918001,
          "lon": 117.322349,
          "sequence": 26
        }
      ],
      "segments": [
        [
          "900000039731001",
          "900000039731002",
          "900000039731003",
          "900000039731004",
          "900000039731005",
          "900000039731006",
          "900000039731007",
          "900000039731008",
          "900000039731009",
          "900000039731010",
          "900000039731011",
          "900000039731012",
          "900000039731013",
          "900000039731014",
          "900000039731015",
          "900000039731016",
          "900000039731017",
          "900000039731018",
          "900000039731019",
          "900000039729016",
          "900000039731021",
          "900000039731022",
          "900000039731023",
          "900000039731027",
          "900000039731028",
          "900000039731029"
        ]
      ]
    },
    {
      "id": "3401-2",
      "operatorId": "3401",
      "operatorName": "合肥地铁",
      "lineId": "2",
      "lineName": "2号线",
      "color": "#0065B3",
      "loop": false,
      "stations": [
        {
          "id": "900000039729001",
          "stationId": "900000039729001",
          "nameZh": "南岗",
          "nameEn": "Nan Gang",
          "target": "nan gang",
          "pinyin": "nangang",
          "lat": 31.850724,
          "lon": 117.115653,
          "sequence": 1
        },
        {
          "id": "900000039729002",
          "stationId": "900000039729002",
          "nameZh": "桂庄",
          "nameEn": "Gui Zhuang",
          "target": "gui zhuang",
          "pinyin": "guizhuang",
          "lat": 31.850724,
          "lon": 117.126784,
          "sequence": 2
        },
        {
          "id": "900000039729003",
          "stationId": "900000039729003",
          "nameZh": "汽车西站",
          "nameEn": "Qi Che Xi Zhan",
          "target": "qi che xi zhan",
          "pinyin": "qichexizhan",
          "lat": 31.850853,
          "lon": 117.136078,
          "sequence": 3
        },
        {
          "id": "900000039729004",
          "stationId": "900000039729004",
          "nameZh": "振兴路",
          "nameEn": "Zhen Xing Lu",
          "target": "zhen xing lu",
          "pinyin": "zhenxinglu",
          "lat": 31.851072,
          "lon": 117.15185,
          "sequence": 4
        },
        {
          "id": "900000039729005",
          "stationId": "900000039729005",
          "nameZh": "蜀山西",
          "nameEn": "Shu Shan Xi",
          "target": "shu shan xi",
          "pinyin": "shushanxi",
          "lat": 31.851358,
          "lon": 117.168011,
          "sequence": 5
        },
        {
          "id": "900000039729006",
          "stationId": "900000039729006",
          "nameZh": "大蜀山",
          "nameEn": "Da Shu Shan",
          "target": "da shu shan",
          "pinyin": "dashushan",
          "lat": 31.852178,
          "lon": 117.186676,
          "sequence": 6
        },
        {
          "id": "900000039729007",
          "stationId": "900000039729007",
          "nameZh": "天柱路",
          "nameEn": "Tian Zhu Lu",
          "target": "tian zhu lu",
          "pinyin": "tianzhulu",
          "lat": 31.854188,
          "lon": 117.198511,
          "sequence": 7
        },
        {
          "id": "900000039729008",
          "stationId": "900000039729008",
          "nameZh": "科学大道",
          "nameEn": "Ke Xue Da Dao",
          "target": "ke xue da dao",
          "pinyin": "kexuedadao",
          "lat": 31.85594,
          "lon": 117.208841,
          "sequence": 8
        },
        {
          "id": "900000039729009",
          "stationId": "900000039729009",
          "nameZh": "十里庙",
          "nameEn": "Shi Li Miao",
          "target": "shi li miao",
          "pinyin": "shilimiao",
          "lat": 31.854899,
          "lon": 117.223213,
          "sequence": 9
        },
        {
          "id": "900000039729010",
          "stationId": "900000039729010",
          "nameZh": "西七里塘",
          "nameEn": "Xi Qilitang",
          "target": "xi qilitang",
          "pinyin": "xiqilitang",
          "lat": 31.852496,
          "lon": 117.230892,
          "sequence": 10
        },
        {
          "id": "900000039729011",
          "stationId": "900000039729011",
          "nameZh": "五里墩",
          "nameEn": "Wu Li Dun",
          "target": "wu li dun",
          "pinyin": "wulidun",
          "lat": 31.851095,
          "lon": 117.241141,
          "sequence": 11
        },
        {
          "id": "900000039729012",
          "stationId": "900000039729012",
          "nameZh": "三里庵",
          "nameEn": "San Li An",
          "target": "san li an",
          "pinyin": "sanlian",
          "lat": 31.854586,
          "lon": 117.255594,
          "sequence": 12
        },
        {
          "id": "900000039729013",
          "stationId": "900000039729013",
          "nameZh": "安农大",
          "nameEn": "An Nong Da",
          "target": "an nong da",
          "pinyin": "annongda",
          "lat": 31.858171,
          "lon": 117.265503,
          "sequence": 13
        },
        {
          "id": "900000039729014",
          "stationId": "900000039729014",
          "nameZh": "三孝口",
          "nameEn": "Sanxiaokou",
          "target": "sanxiaokou",
          "pinyin": "sanxiaokou",
          "lat": 31.861092,
          "lon": 117.27534,
          "sequence": 14
        },
        {
          "id": "900000039729015",
          "stationId": "900000039729015",
          "nameZh": "四牌楼",
          "nameEn": "Si Pai Lou",
          "target": "si pai lou",
          "pinyin": "sipailou",
          "lat": 31.861668,
          "lon": 117.289704,
          "sequence": 15
        },
        {
          "id": "900000039729016",
          "stationId": "900000039729016",
          "nameZh": "大东门",
          "nameEn": "Dadongmen",
          "target": "dadongmen",
          "pinyin": "dadongmen",
          "lat": 31.863909,
          "lon": 117.300758,
          "sequence": 16
        },
        {
          "id": "900000039729017",
          "stationId": "900000039729017",
          "nameZh": "三里街",
          "nameEn": "San Li Jie",
          "target": "san li jie",
          "pinyin": "sanlijie",
          "lat": 31.867598,
          "lon": 117.313994,
          "sequence": 17
        },
        {
          "id": "900000039729018",
          "stationId": "900000039729018",
          "nameZh": "东五里井",
          "nameEn": "Dong Wu Li Jing",
          "target": "dong wu li jing",
          "pinyin": "dongwulijing",
          "lat": 31.867763,
          "lon": 117.324534,
          "sequence": 18
        },
        {
          "id": "900000039729019",
          "stationId": "900000039729019",
          "nameZh": "东七里",
          "nameEn": "Dongqili",
          "target": "dongqili",
          "pinyin": "dongqili",
          "lat": 31.867807,
          "lon": 117.338466,
          "sequence": 19
        },
        {
          "id": "900000039729020",
          "stationId": "900000039729020",
          "nameZh": "漕冲",
          "nameEn": "Cao Chong",
          "target": "cao chong",
          "pinyin": "caochong",
          "lat": 31.868068,
          "lon": 117.35176,
          "sequence": 20
        },
        {
          "id": "900000039729021",
          "stationId": "900000039729021",
          "nameZh": "东二十埠",
          "nameEn": "Dong Er Shi Bu",
          "target": "dong er shi bu",
          "pinyin": "dongershibu",
          "lat": 31.86825,
          "lon": 117.367157,
          "sequence": 21
        },
        {
          "id": "900000039729022",
          "stationId": "900000039729022",
          "nameZh": "龙岗",
          "nameEn": "Long Gang",
          "target": "long gang",
          "pinyin": "longgang",
          "lat": 31.868407,
          "lon": 117.376461,
          "sequence": 22
        },
        {
          "id": "900000039729023",
          "stationId": "900000039729023",
          "nameZh": "王岗",
          "nameEn": "Wang Gang",
          "target": "wang gang",
          "pinyin": "wanggang",
          "lat": 31.868729,
          "lon": 117.389813,
          "sequence": 23
        },
        {
          "id": "900000039729024",
          "stationId": "900000039729024",
          "nameZh": "三十埠",
          "nameEn": "San Shi Bu",
          "target": "san shi bu",
          "pinyin": "sanshibu",
          "lat": 31.868958,
          "lon": 117.39738,
          "sequence": 24
        },
        {
          "id": "900000039729025",
          "stationId": "900000039729025",
          "nameZh": "三十埠东",
          "nameEn": "Sanshi Budong",
          "target": "sanshi budong",
          "pinyin": "sanshibudong",
          "lat": 31.871942,
          "lon": 117.419787,
          "sequence": 25
        },
        {
          "id": "900000039729026",
          "stationId": "900000039729026",
          "nameZh": "祥和",
          "nameEn": "Xianghe",
          "target": "xianghe",
          "pinyin": "xianghe",
          "lat": 31.874137,
          "lon": 117.429972,
          "sequence": 26
        },
        {
          "id": "900000039729027",
          "stationId": "900000039729027",
          "nameZh": "桂王",
          "nameEn": "Guiwang",
          "target": "guiwang",
          "pinyin": "guiwang",
          "lat": 31.873924,
          "lon": 117.442701,
          "sequence": 27
        },
        {
          "id": "900000039729028",
          "stationId": "900000039729028",
          "nameZh": "对河",
          "nameEn": "Duihe",
          "target": "duihe",
          "pinyin": "duihe",
          "lat": 31.872755,
          "lon": 117.456765,
          "sequence": 28
        },
        {
          "id": "900000039729029",
          "stationId": "900000039729029",
          "nameZh": "店埠河",
          "nameEn": "Dian Buhe",
          "target": "dian buhe",
          "pinyin": "dianbuhe",
          "lat": 31.875137,
          "lon": 117.471814,
          "sequence": 29
        },
        {
          "id": "900000039729030",
          "stationId": "900000039729030",
          "nameZh": "排头",
          "nameEn": "Paitou",
          "target": "paitou",
          "pinyin": "paitou",
          "lat": 31.871727,
          "lon": 117.480548,
          "sequence": 30
        },
        {
          "id": "900000039729031",
          "stationId": "900000039729031",
          "nameZh": "肥东站",
          "nameEn": "Feidong Zhan",
          "target": "feidong zhan",
          "pinyin": "feidongzhan",
          "lat": 31.859451,
          "lon": 117.485937,
          "sequence": 31
        },
        {
          "id": "900000039729032",
          "stationId": "900000039729032",
          "nameZh": "和睦湖",
          "nameEn": "Hemu Hu",
          "target": "hemu hu",
          "pinyin": "hemuhu",
          "lat": 31.85211,
          "lon": 117.492172,
          "sequence": 32
        },
        {
          "id": "900000039729033",
          "stationId": "900000039729033",
          "nameZh": "马桥",
          "nameEn": "Maqiao",
          "target": "maqiao",
          "pinyin": "maqiao",
          "lat": 31.844429,
          "lon": 117.492154,
          "sequence": 33
        },
        {
          "id": "900000039729034",
          "stationId": "900000039729034",
          "nameZh": "南沙河",
          "nameEn": "Nanshahe",
          "target": "nanshahe",
          "pinyin": "nanshahe",
          "lat": 31.833716,
          "lon": 117.492091,
          "sequence": 34
        },
        {
          "id": "900000039729035",
          "stationId": "900000039729035",
          "nameZh": "撮镇",
          "nameEn": "Cuozhen",
          "target": "cuozhen",
          "pinyin": "cuozhen",
          "lat": 31.822867,
          "lon": 117.492021,
          "sequence": 35
        }
      ],
      "segments": [
        [
          "900000039729001",
          "900000039729002",
          "900000039729003",
          "900000039729004",
          "900000039729005",
          "900000039729006",
          "900000039729007",
          "900000039729008",
          "900000039729009",
          "900000039729010",
          "900000039729011",
          "900000039729012",
          "900000039729013",
          "900000039729014",
          "900000039729015",
          "900000039729016",
          "900000039729017",
          "900000039729018",
          "900000039729019",
          "900000039729020",
          "900000039729021",
          "900000039729022",
          "900000039729023",
          "900000039729024",
          "900000039729025",
          "900000039729026",
          "900000039729027",
          "900000039729028",
          "900000039729029",
          "900000039729030",
          "900000039729031",
          "900000039729032",
          "900000039729033",
          "900000039729034",
          "900000039729035"
        ]
      ]
    },
    {
      "id": "3401-3",
      "operatorId": "3401",
      "operatorName": "合肥地铁",
      "lineId": "3",
      "lineName": "3号线",
      "color": "#00AB4F",
      "loop": false,
      "stations": [
        {
          "id": "900000055586035",
          "stationId": "900000055586035",
          "nameZh": "省儿童医院新区",
          "nameEn": "Shengertong Yiyuan Xinqu",
          "target": "shengertong yiyuan xinqu",
          "pinyin": "shengertongyiyuanxinqu",
          "lat": 31.685539,
          "lon": 117.175866,
          "sequence": 1
        },
        {
          "id": "900000055586036",
          "stationId": "900000055586036",
          "nameZh": "乐平",
          "nameEn": "Leping",
          "target": "leping",
          "pinyin": "leping",
          "lat": 31.694225,
          "lon": 117.17593,
          "sequence": 2
        },
        {
          "id": "900000055586037",
          "stationId": "900000055586037",
          "nameZh": "芮祠",
          "nameEn": "Ruici",
          "target": "ruici",
          "pinyin": "ruici",
          "lat": 31.700766,
          "lon": 117.166408,
          "sequence": 3
        },
        {
          "id": "900000055586038",
          "stationId": "900000055586038",
          "nameZh": "四十埠",
          "nameEn": "Sishi Bu",
          "target": "sishi bu",
          "pinyin": "sishibu",
          "lat": 31.708476,
          "lon": 117.158302,
          "sequence": 4
        },
        {
          "id": "900000055586039",
          "stationId": "900000055586039",
          "nameZh": "李湾",
          "nameEn": "Liwan",
          "target": "liwan",
          "pinyin": "liwan",
          "lat": 31.718865,
          "lon": 117.15657,
          "sequence": 5
        },
        {
          "id": "900000055586040",
          "stationId": "900000055586040",
          "nameZh": "凉亭",
          "nameEn": "Liangting",
          "target": "liangting",
          "pinyin": "liangting",
          "lat": 31.7239,
          "lon": 117.162791,
          "sequence": 6
        },
        {
          "id": "900000055586041",
          "stationId": "900000055586041",
          "nameZh": "安医一附院南区",
          "nameEn": "Anyiyi Fuyuan Nanqu",
          "target": "anyiyi fuyuan nanqu",
          "pinyin": "anyiyifuyuannanqu",
          "lat": 31.742272,
          "lon": 117.168994,
          "sequence": 7
        },
        {
          "id": "900000055586001",
          "stationId": "900000055586001",
          "nameZh": "幸福坝",
          "nameEn": "Xingfuba",
          "target": "xingfuba",
          "pinyin": "xingfuba",
          "lat": 31.751017,
          "lon": 117.180698,
          "sequence": 8
        },
        {
          "id": "900000055586002",
          "stationId": "900000055586002",
          "nameZh": "安大磬苑校区",
          "nameEn": "Anda Qingyuan Xiaoqu",
          "target": "anda qingyuan xiaoqu",
          "pinyin": "andaqingyuanxiaoqu",
          "lat": 31.759387,
          "lon": 117.192297,
          "sequence": 9
        },
        {
          "id": "900000055586003",
          "stationId": "900000055586003",
          "nameZh": "工大翡翠湖校区",
          "nameEn": "Gongdafei Cuihu Xiaoqu",
          "target": "gongdafei cuihu xiaoqu",
          "pinyin": "gongdafeicuihuxiaoqu",
          "lat": 31.765338,
          "lon": 117.20506,
          "sequence": 10
        },
        {
          "id": "900000055586004",
          "stationId": "900000055586004",
          "nameZh": "大学城北",
          "nameEn": "Daxue Chengbei",
          "target": "daxue chengbei",
          "pinyin": "daxuechengbei",
          "lat": 31.77501,
          "lon": 117.209853,
          "sequence": 11
        },
        {
          "id": "900000055586005",
          "stationId": "900000055586005",
          "nameZh": "繁华大道",
          "nameEn": "Fanhua Dadao",
          "target": "fanhua dadao",
          "pinyin": "fanhuadadao",
          "lat": 31.781221,
          "lon": 117.209868,
          "sequence": 12
        },
        {
          "id": "900000055586006",
          "stationId": "900000055586006",
          "nameZh": "安医大二附院",
          "nameEn": "Anyidaer Fuyuan",
          "target": "anyidaer fuyuan",
          "pinyin": "anyidaerfuyuan",
          "lat": 31.7901,
          "lon": 117.209871,
          "sequence": 13
        },
        {
          "id": "900000055586007",
          "stationId": "900000055586007",
          "nameZh": "省博物院",
          "nameEn": "Sheng Bowuyuan",
          "target": "sheng bowuyuan",
          "pinyin": "shengbowuyuan",
          "lat": 31.800891,
          "lon": 117.215537,
          "sequence": 14
        },
        {
          "id": "900000055586008",
          "stationId": "900000055586008",
          "nameZh": "图书馆",
          "nameEn": "Tushuguan",
          "target": "tushuguan",
          "pinyin": "tushuguan",
          "lat": 31.809104,
          "lon": 117.215513,
          "sequence": 15
        },
        {
          "id": "900000055586009",
          "stationId": "900000055586009",
          "nameZh": "合肥大剧院",
          "nameEn": "Hefei Dajuyuan",
          "target": "hefei dajuyuan",
          "pinyin": "hefeidajuyuan",
          "lat": 31.81437,
          "lon": 117.223725,
          "sequence": 16
        },
        {
          "id": "900000055586010",
          "stationId": "900000055586010",
          "nameZh": "市政务中心",
          "nameEn": "Shizhengwu Zhongxin",
          "target": "shizhengwu zhongxin",
          "pinyin": "shizhengwuzhongxin",
          "lat": 31.821749,
          "lon": 117.231886,
          "sequence": 17
        },
        {
          "id": "900000055586011",
          "stationId": "900000055586011",
          "nameZh": "洪岗",
          "nameEn": "Honggang",
          "target": "honggang",
          "pinyin": "honggang",
          "lat": 31.832304,
          "lon": 117.231564,
          "sequence": 18
        },
        {
          "id": "900000055586012",
          "stationId": "900000055586012",
          "nameZh": "国防科技大学",
          "nameEn": "Guofang Keji Daxue",
          "target": "guofang keji daxue",
          "pinyin": "guofangkejidaxue",
          "lat": 31.840772,
          "lon": 117.231245,
          "sequence": 19
        },
        {
          "id": "900000039729010",
          "stationId": "900000039729010",
          "nameZh": "西七里塘",
          "nameEn": "Xi Qilitang",
          "target": "xi qilitang",
          "pinyin": "xiqilitang",
          "lat": 31.852496,
          "lon": 117.230892,
          "sequence": 20
        },
        {
          "id": "900000055586014",
          "stationId": "900000055586014",
          "nameZh": "南新庄",
          "nameEn": "Nanxinzhuang",
          "target": "nanxinzhuang",
          "pinyin": "nanxinzhuang",
          "lat": 31.861056,
          "lon": 117.230716,
          "sequence": 21
        },
        {
          "id": "900000055586015",
          "stationId": "900000055586015",
          "nameZh": "合肥西站",
          "nameEn": "Hefei Xizhan",
          "target": "hefei xizhan",
          "pinyin": "hefeixizhan",
          "lat": 31.870558,
          "lon": 117.236373,
          "sequence": 22
        },
        {
          "id": "900000055586016",
          "stationId": "900000055586016",
          "nameZh": "杏花村",
          "nameEn": "Xinghuacun",
          "target": "xinghuacun",
          "pinyin": "xinghuacun",
          "lat": 31.880507,
          "lon": 117.245606,
          "sequence": 23
        },
        {
          "id": "900000055586017",
          "stationId": "900000055586017",
          "nameZh": "四泉桥",
          "nameEn": "Siquan Qiao",
          "target": "siquan qiao",
          "pinyin": "siquanqiao",
          "lat": 31.886585,
          "lon": 117.256556,
          "sequence": 24
        },
        {
          "id": "900000055586018",
          "stationId": "900000055586018",
          "nameZh": "郑河",
          "nameEn": "Zhenghe",
          "target": "zhenghe",
          "pinyin": "zhenghe",
          "lat": 31.886763,
          "lon": 117.267967,
          "sequence": 25
        },
        {
          "id": "900000055586019",
          "stationId": "900000055586019",
          "nameZh": "海棠",
          "nameEn": "Haitang",
          "target": "haitang",
          "pinyin": "haitang",
          "lat": 31.887649,
          "lon": 117.2784,
          "sequence": 26
        },
        {
          "id": "900000055586020",
          "stationId": "900000055586020",
          "nameZh": "一里井",
          "nameEn": "Yilijing",
          "target": "yilijing",
          "pinyin": "yilijing",
          "lat": 31.887032,
          "lon": 117.287184,
          "sequence": 27
        },
        {
          "id": "900000055586021",
          "stationId": "900000055586021",
          "nameZh": "淮南路",
          "nameEn": "Huainan Lu",
          "target": "huainan lu",
          "pinyin": "huainanlu",
          "lat": 31.887268,
          "lon": 117.296314,
          "sequence": 28
        },
        {
          "id": "900000055586022",
          "stationId": "900000055586022",
          "nameZh": "鸭林冲",
          "nameEn": "Yalinchong",
          "target": "yalinchong",
          "pinyin": "yalinchong",
          "lat": 31.88846,
          "lon": 117.307496,
          "sequence": 29
        },
        {
          "id": "900000039731023",
          "stationId": "900000039731023",
          "nameZh": "合肥火车站",
          "nameEn": "Hefei Huochezhan",
          "target": "hefei huochezhan",
          "pinyin": "hefeihuochezhan",
          "lat": 31.883376,
          "lon": 117.315587,
          "sequence": 30
        },
        {
          "id": "900000055586024",
          "stationId": "900000055586024",
          "nameZh": "竹丝滩",
          "nameEn": "Zhusitan",
          "target": "zhusitan",
          "pinyin": "zhusitan",
          "lat": 31.885197,
          "lon": 117.330978,
          "sequence": 31
        },
        {
          "id": "900000055586025",
          "stationId": "900000055586025",
          "nameZh": "方庙",
          "nameEn": "Fangmiao",
          "target": "fangmiao",
          "pinyin": "fangmiao",
          "lat": 31.885004,
          "lon": 117.34393,
          "sequence": 32
        },
        {
          "id": "900000055586026",
          "stationId": "900000055586026",
          "nameZh": "窦桥湾",
          "nameEn": "Dou Qiaowan",
          "target": "dou qiaowan",
          "pinyin": "douqiaowan",
          "lat": 31.885007,
          "lon": 117.35236,
          "sequence": 33
        },
        {
          "id": "900000055586027",
          "stationId": "900000055586027",
          "nameZh": "新海大道",
          "nameEn": "Xinhai Dadao",
          "target": "xinhai dadao",
          "pinyin": "xinhaidadao",
          "lat": 31.89039,
          "lon": 117.359062,
          "sequence": 34
        },
        {
          "id": "900000055586028",
          "stationId": "900000055586028",
          "nameZh": "勤劳村",
          "nameEn": "Qinlaocun",
          "target": "qinlaocun",
          "pinyin": "qinlaocun",
          "lat": 31.89738,
          "lon": 117.36144,
          "sequence": 35
        },
        {
          "id": "900000055586029",
          "stationId": "900000055586029",
          "nameZh": "文浍苑",
          "nameEn": "Wenhuiyuan",
          "target": "wenhuiyuan",
          "pinyin": "wenhuiyuan",
          "lat": 31.909605,
          "lon": 117.368379,
          "sequence": 36
        },
        {
          "id": "900000055586030",
          "stationId": "900000055586030",
          "nameZh": "幼儿师范",
          "nameEn": "Youer Shifan",
          "target": "youer shifan",
          "pinyin": "youershifan",
          "lat": 31.920885,
          "lon": 117.372291,
          "sequence": 37
        },
        {
          "id": "900000055586031",
          "stationId": "900000055586031",
          "nameZh": "职教城",
          "nameEn": "Zhijiaocheng",
          "target": "zhijiaocheng",
          "pinyin": "zhijiaocheng",
          "lat": 31.925104,
          "lon": 117.383158,
          "sequence": 38
        },
        {
          "id": "900000055586032",
          "stationId": "900000055586032",
          "nameZh": "职教城东",
          "nameEn": "Zhijiao Chengdong",
          "target": "zhijiao chengdong",
          "pinyin": "zhijiaochengdong",
          "lat": 31.925136,
          "lon": 117.397566,
          "sequence": 39
        },
        {
          "id": "900000055586033",
          "stationId": "900000055586033",
          "nameZh": "相城路",
          "nameEn": "Xiangcheng Lu",
          "target": "xiangcheng lu",
          "pinyin": "xiangchenglu",
          "lat": 31.925107,
          "lon": 117.407939,
          "sequence": 40
        }
      ],
      "segments": [
        [
          "900000055586035",
          "900000055586036",
          "900000055586037",
          "900000055586038",
          "900000055586039",
          "900000055586040",
          "900000055586041",
          "900000055586001",
          "900000055586002",
          "900000055586003",
          "900000055586004",
          "900000055586005",
          "900000055586006",
          "900000055586007",
          "900000055586008",
          "900000055586009",
          "900000055586010",
          "900000055586011",
          "900000055586012",
          "900000039729010",
          "900000055586014",
          "900000055586015",
          "900000055586016",
          "900000055586017",
          "900000055586018",
          "900000055586019",
          "900000055586020",
          "900000055586021",
          "900000055586022",
          "900000039731023",
          "900000055586024",
          "900000055586025",
          "900000055586026",
          "900000055586027",
          "900000055586028",
          "900000055586029",
          "900000055586030",
          "900000055586031",
          "900000055586032",
          "900000055586033"
        ]
      ]
    },
    {
      "id": "3401-4",
      "operatorId": "3401",
      "operatorName": "合肥地铁",
      "lineId": "4",
      "lineName": "4号线",
      "color": "#EE782E",
      "loop": false,
      "stations": [
        {
          "id": "900000074904023",
          "stationId": "900000074904023",
          "nameZh": "综保区",
          "nameEn": "Zong Baoqu",
          "target": "zong baoqu",
          "pinyin": "zongbaoqu",
          "lat": 31.950721,
          "lon": 117.353826,
          "sequence": 1
        },
        {
          "id": "900000074904022",
          "stationId": "900000074904022",
          "nameZh": "安医一附院北区",
          "nameEn": "Anyiyi Fuyuan Beiqu",
          "target": "anyiyi fuyuan beiqu",
          "pinyin": "anyiyifuyuanbeiqu",
          "lat": 31.937018,
          "lon": 117.348851,
          "sequence": 2
        },
        {
          "id": "900000074904028",
          "stationId": "900000074904028",
          "nameZh": "陶冲湖东",
          "nameEn": "Taochong Hudong",
          "target": "taochong hudong",
          "pinyin": "taochonghudong",
          "lat": 31.926583,
          "lon": 117.345034,
          "sequence": 3
        },
        {
          "id": "900000074904021",
          "stationId": "900000074904021",
          "nameZh": "十里村",
          "nameEn": "Shilicun",
          "target": "shilicun",
          "pinyin": "shilicun",
          "lat": 31.90458,
          "lon": 117.347281,
          "sequence": 4
        },
        {
          "id": "900000074904020",
          "stationId": "900000074904020",
          "nameZh": "新海公园",
          "nameEn": "Xinhai Gongyuan",
          "target": "xinhai gongyuan",
          "pinyin": "xinhaigongyuan",
          "lat": 31.896501,
          "lon": 117.342356,
          "sequence": 5
        },
        {
          "id": "900000055586025",
          "stationId": "900000055586025",
          "nameZh": "方庙",
          "nameEn": "Fangmiao",
          "target": "fangmiao",
          "pinyin": "fangmiao",
          "lat": 31.885004,
          "lon": 117.34393,
          "sequence": 6
        },
        {
          "id": "900000074904019",
          "stationId": "900000074904019",
          "nameZh": "站塘",
          "nameEn": "Zhan Tang",
          "target": "zhan tang",
          "pinyin": "zhantang",
          "lat": 31.87609,
          "lon": 117.341018,
          "sequence": 7
        },
        {
          "id": "900000039729019",
          "stationId": "900000039729019",
          "nameZh": "东七里",
          "nameEn": "Dongqili",
          "target": "dongqili",
          "pinyin": "dongqili",
          "lat": 31.867807,
          "lon": 117.338466,
          "sequence": 8
        },
        {
          "id": "900000074904017",
          "stationId": "900000074904017",
          "nameZh": "唐桥",
          "nameEn": "Tang Qiao",
          "target": "tang qiao",
          "pinyin": "tangqiao",
          "lat": 31.853588,
          "lon": 117.335456,
          "sequence": 9
        },
        {
          "id": "900000074904031",
          "stationId": "900000074904031",
          "nameZh": "五里庙",
          "nameEn": "Wuli Miao",
          "target": "wuli miao",
          "pinyin": "wulimiao",
          "lat": 31.837254,
          "lon": 117.323906,
          "sequence": 10
        },
        {
          "id": "900000074904030",
          "stationId": "900000074904030",
          "nameZh": "尧渡河路",
          "nameEn": "Yaoduhe Lu",
          "target": "yaoduhe lu",
          "pinyin": "yaoduhelu",
          "lat": 31.825947,
          "lon": 117.324072,
          "sequence": 11
        },
        {
          "id": "900000074904029",
          "stationId": "900000074904029",
          "nameZh": "工经学院",
          "nameEn": "Gongjing Xueyuan",
          "target": "gongjing xueyuan",
          "pinyin": "gongjingxueyuan",
          "lat": 31.814705,
          "lon": 117.325836,
          "sequence": 12
        },
        {
          "id": "900000074904016",
          "stationId": "900000074904016",
          "nameZh": "葛大店南",
          "nameEn": "Gedadian Nan",
          "target": "gedadian nan",
          "pinyin": "gedadiannan",
          "lat": 31.808975,
          "lon": 117.313524,
          "sequence": 13
        },
        {
          "id": "900000074904015",
          "stationId": "900000074904015",
          "nameZh": "望湖城南",
          "nameEn": "Wanghu Chengnan",
          "target": "wanghu chengnan",
          "pinyin": "wanghuchengnan",
          "lat": 31.805027,
          "lon": 117.302761,
          "sequence": 14
        },
        {
          "id": "900000039731013",
          "stationId": "900000039731013",
          "nameZh": "合肥南站",
          "nameEn": "Hefei Nanzhan",
          "target": "hefei nanzhan",
          "pinyin": "hefeinanzhan",
          "lat": 31.800004,
          "lon": 117.290051,
          "sequence": 15
        },
        {
          "id": "900000074904014",
          "stationId": "900000074904014",
          "nameZh": "淝南",
          "nameEn": "Feinan",
          "target": "feinan",
          "pinyin": "feinan",
          "lat": 31.799706,
          "lon": 117.281468,
          "sequence": 16
        },
        {
          "id": "900000074904013",
          "stationId": "900000074904013",
          "nameZh": "竹西",
          "nameEn": "Zhuxi",
          "target": "zhuxi",
          "pinyin": "zhuxi",
          "lat": 31.803566,
          "lon": 117.276473,
          "sequence": 17
        },
        {
          "id": "900000074904012",
          "stationId": "900000074904012",
          "nameZh": "薛河",
          "nameEn": "Xuehe",
          "target": "xuehe",
          "pinyin": "xuehe",
          "lat": 31.807678,
          "lon": 117.269167,
          "sequence": 18
        },
        {
          "id": "900000074904011",
          "stationId": "900000074904011",
          "nameZh": "南屏路",
          "nameEn": "Nanping Lu",
          "target": "nanping lu",
          "pinyin": "nanpinglu",
          "lat": 31.808481,
          "lon": 117.257628,
          "sequence": 19
        },
        {
          "id": "900000074904010",
          "stationId": "900000074904010",
          "nameZh": "姚公庙",
          "nameEn": "Yaogongmiao",
          "target": "yaogongmiao",
          "pinyin": "yaogongmiao",
          "lat": 31.808719,
          "lon": 117.24931,
          "sequence": 20
        },
        {
          "id": "900000074904009",
          "stationId": "900000074904009",
          "nameZh": "天鹅湖东",
          "nameEn": "Tiane Hudong",
          "target": "tiane hudong",
          "pinyin": "tianehudong",
          "lat": 31.809189,
          "lon": 117.238471,
          "sequence": 21
        },
        {
          "id": "900000074904008",
          "stationId": "900000074904008",
          "nameZh": "天鹅湖",
          "nameEn": "Tianehu",
          "target": "tianehu",
          "pinyin": "tianehu",
          "lat": 31.808228,
          "lon": 117.22765,
          "sequence": 22
        },
        {
          "id": "900000055586008",
          "stationId": "900000055586008",
          "nameZh": "图书馆",
          "nameEn": "Tushuguan",
          "target": "tushuguan",
          "pinyin": "tushuguan",
          "lat": 31.809104,
          "lon": 117.215513,
          "sequence": 23
        },
        {
          "id": "900000074904007",
          "stationId": "900000074904007",
          "nameZh": "柳树塘",
          "nameEn": "Liushutang",
          "target": "liushutang",
          "pinyin": "liushutang",
          "lat": 31.811808,
          "lon": 117.19812,
          "sequence": 24
        },
        {
          "id": "900000074904006",
          "stationId": "900000074904006",
          "nameZh": "金桂",
          "nameEn": "Jingui",
          "target": "jingui",
          "pinyin": "jingui",
          "lat": 31.816259,
          "lon": 117.18777,
          "sequence": 25
        },
        {
          "id": "900000074904005",
          "stationId": "900000074904005",
          "nameZh": "玉兰大道",
          "nameEn": "Yulan Dadao",
          "target": "yulan dadao",
          "pinyin": "yulandadao",
          "lat": 31.820724,
          "lon": 117.175941,
          "sequence": 26
        },
        {
          "id": "900000074904004",
          "stationId": "900000074904004",
          "nameZh": "北雁湖",
          "nameEn": "Bei Yanhu",
          "target": "bei yanhu",
          "pinyin": "beiyanhu",
          "lat": 31.820958,
          "lon": 117.157182,
          "sequence": 27
        },
        {
          "id": "900000153891008",
          "stationId": "900000153891008",
          "nameZh": "复兴集",
          "nameEn": "Fuxingji",
          "target": "fuxingji",
          "pinyin": "fuxingji",
          "lat": 31.815885,
          "lon": 117.145124,
          "sequence": 28
        },
        {
          "id": "900000153891007",
          "stationId": "900000153891007",
          "nameZh": "长安集",
          "nameEn": "Changanji",
          "target": "changanji",
          "pinyin": "changanji",
          "lat": 31.803267,
          "lon": 117.14517,
          "sequence": 29
        },
        {
          "id": "900000153891006",
          "stationId": "900000153891006",
          "nameZh": "桃花潭",
          "nameEn": "Taohuatan",
          "target": "taohuatan",
          "pinyin": "taohuatan",
          "lat": 31.782398,
          "lon": 117.137983,
          "sequence": 30
        },
        {
          "id": "900000153891005",
          "stationId": "900000153891005",
          "nameZh": "金小郢",
          "nameEn": "Jinxiaoying",
          "target": "jinxiaoying",
          "pinyin": "jinxiaoying",
          "lat": 31.782505,
          "lon": 117.116737,
          "sequence": 31
        },
        {
          "id": "900000153891004",
          "stationId": "900000153891004",
          "nameZh": "铜锣寨路",
          "nameEn": "Tongluozhai Lu",
          "target": "tongluozhai lu",
          "pinyin": "tongluozhailu",
          "lat": 31.766003,
          "lon": 117.092519,
          "sequence": 32
        },
        {
          "id": "900000153891003",
          "stationId": "900000153891003",
          "nameZh": "魏庄",
          "nameEn": "Weizhuang",
          "target": "weizhuang",
          "pinyin": "weizhuang",
          "lat": 31.759697,
          "lon": 117.094837,
          "sequence": 33
        },
        {
          "id": "900000153891002",
          "stationId": "900000153891002",
          "nameZh": "烧脉岗",
          "nameEn": "Shaomaigang",
          "target": "shaomaigang",
          "pinyin": "shaomaigang",
          "lat": 31.755348,
          "lon": 117.102045,
          "sequence": 34
        }
      ],
      "segments": [
        [
          "900000074904023",
          "900000074904022",
          "900000074904028",
          "900000074904021",
          "900000074904020",
          "900000055586025",
          "900000074904019",
          "900000039729019",
          "900000074904017",
          "900000074904031",
          "900000074904030",
          "900000074904029",
          "900000074904016",
          "900000074904015",
          "900000039731013",
          "900000074904014",
          "900000074904013",
          "900000074904012",
          "900000074904011",
          "900000074904010",
          "900000074904009",
          "900000074904008",
          "900000055586008",
          "900000074904007",
          "900000074904006",
          "900000074904005",
          "900000074904004",
          "900000153891008",
          "900000153891007",
          "900000153891006",
          "900000153891005",
          "900000153891004",
          "900000153891003",
          "900000153891002"
        ]
      ]
    },
    {
      "id": "3401-5",
      "operatorId": "3401",
      "operatorName": "合肥地铁",
      "lineId": "5",
      "lineName": "5号线",
      "color": "#B8D201",
      "loop": false,
      "stations": [
        {
          "id": "900000072420046",
          "stationId": "900000072420046",
          "nameZh": "汲桥路",
          "nameEn": "Jiqiao Lu",
          "target": "jiqiao lu",
          "pinyin": "jiqiaolu",
          "lat": 31.940927,
          "lon": 117.263817,
          "sequence": 1
        },
        {
          "id": "900000072420045",
          "stationId": "900000072420045",
          "nameZh": "六中菱湖校区",
          "nameEn": "Liuzhong Linghu Xiaoqu",
          "target": "liuzhong linghu xiaoqu",
          "pinyin": "liuzhonglinghuxiaoqu",
          "lat": 31.930097,
          "lon": 117.269911,
          "sequence": 2
        },
        {
          "id": "900000072420044",
          "stationId": "900000072420044",
          "nameZh": "菱湖公园",
          "nameEn": "Linghu Gongyuan",
          "target": "linghu gongyuan",
          "pinyin": "linghugongyuan",
          "lat": 31.91389,
          "lon": 117.272729,
          "sequence": 3
        },
        {
          "id": "900000072420043",
          "stationId": "900000072420043",
          "nameZh": "北五里井",
          "nameEn": "Beiwuli Jing",
          "target": "beiwuli jing",
          "pinyin": "beiwulijing",
          "lat": 31.898486,
          "lon": 117.275502,
          "sequence": 4
        },
        {
          "id": "900000055586019",
          "stationId": "900000055586019",
          "nameZh": "海棠",
          "nameEn": "Haitang",
          "target": "haitang",
          "pinyin": "haitang",
          "lat": 31.887649,
          "lon": 117.2784,
          "sequence": 5
        },
        {
          "id": "900000072420041",
          "stationId": "900000072420041",
          "nameZh": "白水坝",
          "nameEn": "Baishuiba",
          "target": "baishuiba",
          "pinyin": "baishuiba",
          "lat": 31.87918,
          "lon": 117.278663,
          "sequence": 6
        },
        {
          "id": "900000072420040",
          "stationId": "900000072420040",
          "nameZh": "杏花公园",
          "nameEn": "Xinghua Gongyuan",
          "target": "xinghua gongyuan",
          "pinyin": "xinghuagongyuan",
          "lat": 31.870799,
          "lon": 117.278768,
          "sequence": 7
        },
        {
          "id": "900000039729014",
          "stationId": "900000039729014",
          "nameZh": "三孝口",
          "nameEn": "Sanxiaokou",
          "target": "sanxiaokou",
          "pinyin": "sanxiaokou",
          "lat": 31.861092,
          "lon": 117.27534,
          "sequence": 8
        },
        {
          "id": "900000072420038",
          "stationId": "900000072420038",
          "nameZh": "稻香楼",
          "nameEn": "Daoxianglou",
          "target": "daoxianglou",
          "pinyin": "daoxianglou",
          "lat": 31.849444,
          "lon": 117.274328,
          "sequence": 9
        },
        {
          "id": "900000072420037",
          "stationId": "900000072420037",
          "nameZh": "中国科大东区",
          "nameEn": "Zhongguo Ke Dadongqu",
          "target": "zhongguo ke dadongqu",
          "pinyin": "zhongguokedadongqu",
          "lat": 31.841663,
          "lon": 117.273113,
          "sequence": 10
        },
        {
          "id": "900000072420036",
          "stationId": "900000072420036",
          "nameZh": "市第三医院",
          "nameEn": "Shi Disan Yiyuan",
          "target": "shi disan yiyuan",
          "pinyin": "shidisanyiyuan",
          "lat": 31.828799,
          "lon": 117.26961,
          "sequence": 11
        },
        {
          "id": "900000072420035",
          "stationId": "900000072420035",
          "nameZh": "休宁路",
          "nameEn": "Xiuning Lu",
          "target": "xiuning lu",
          "pinyin": "xiuninglu",
          "lat": 31.818467,
          "lon": 117.269162,
          "sequence": 12
        },
        {
          "id": "900000072420034",
          "stationId": "900000072420034",
          "nameZh": "凌大塘",
          "nameEn": "Lingdatang",
          "target": "lingdatang",
          "pinyin": "lingdatang",
          "lat": 31.81428,
          "lon": 117.275549,
          "sequence": 13
        },
        {
          "id": "900000072420017",
          "stationId": "900000072420017",
          "nameZh": "望湖城西",
          "nameEn": "Wanghu Chengxi",
          "target": "wanghu chengxi",
          "pinyin": "wanghuchengxi",
          "lat": 31.808787,
          "lon": 117.289085,
          "sequence": 14
        },
        {
          "id": "900000039731013",
          "stationId": "900000039731013",
          "nameZh": "合肥南站",
          "nameEn": "Hefei Nanzhan",
          "target": "hefei nanzhan",
          "pinyin": "hefeinanzhan",
          "lat": 31.800004,
          "lon": 117.290051,
          "sequence": 15
        },
        {
          "id": "900000072420016",
          "stationId": "900000072420016",
          "nameZh": "盛大",
          "nameEn": "Shengda",
          "target": "shengda",
          "pinyin": "shengda",
          "lat": 31.7925,
          "lon": 117.301883,
          "sequence": 16
        },
        {
          "id": "900000072420015",
          "stationId": "900000072420015",
          "nameZh": "包河苑",
          "nameEn": "Baoheyuan",
          "target": "baoheyuan",
          "pinyin": "baoheyuan",
          "lat": 31.79362,
          "lon": 117.316413,
          "sequence": 17
        },
        {
          "id": "900000072420014",
          "stationId": "900000072420014",
          "nameZh": "义兴",
          "nameEn": "Yixing",
          "target": "yixing",
          "pinyin": "yixing",
          "lat": 31.794697,
          "lon": 117.325259,
          "sequence": 18
        },
        {
          "id": "900000072420013",
          "stationId": "900000072420013",
          "nameZh": "大连路",
          "nameEn": "Dalian Lu",
          "target": "dalian lu",
          "pinyin": "dalianlu",
          "lat": 31.785744,
          "lon": 117.332285,
          "sequence": 19
        },
        {
          "id": "900000072420012",
          "stationId": "900000072420012",
          "nameZh": "花园大道",
          "nameEn": "Huayuan Dadao",
          "target": "huayuan dadao",
          "pinyin": "huayuandadao",
          "lat": 31.773159,
          "lon": 117.334224,
          "sequence": 20
        },
        {
          "id": "900000072420011",
          "stationId": "900000072420011",
          "nameZh": "黄河路",
          "nameEn": "Huanghe Lu",
          "target": "huanghe lu",
          "pinyin": "huanghelu",
          "lat": 31.766432,
          "lon": 117.334569,
          "sequence": 21
        },
        {
          "id": "900000072420010",
          "stationId": "900000072420010",
          "nameZh": "扬子江路",
          "nameEn": "Yangzijiang Lu",
          "target": "yangzijiang lu",
          "pinyin": "yangzijianglu",
          "lat": 31.753118,
          "lon": 117.338319,
          "sequence": 22
        },
        {
          "id": "900000072420009",
          "stationId": "900000072420009",
          "nameZh": "义城",
          "nameEn": "Yicheng",
          "target": "yicheng",
          "pinyin": "yicheng",
          "lat": 31.740852,
          "lon": 117.338234,
          "sequence": 23
        },
        {
          "id": "900000072420008",
          "stationId": "900000072420008",
          "nameZh": "省行政中心东",
          "nameEn": "Shengxingzheng Zhongxin Dong",
          "target": "shengxingzheng zhongxin dong",
          "pinyin": "shengxingzhengzhongxindong",
          "lat": 31.731411,
          "lon": 117.338098,
          "sequence": 24
        },
        {
          "id": "900000072420007",
          "stationId": "900000072420007",
          "nameZh": "方兴湖",
          "nameEn": "Fangxinghu",
          "target": "fangxinghu",
          "pinyin": "fangxinghu",
          "lat": 31.718133,
          "lon": 117.338107,
          "sequence": 25
        },
        {
          "id": "900000072420030",
          "stationId": "900000072420030",
          "nameZh": "渡江纪念馆",
          "nameEn": "Dujiang Jinianguan",
          "target": "dujiang jinianguan",
          "pinyin": "dujiangjinianguan",
          "lat": 31.713161,
          "lon": 117.330288,
          "sequence": 26
        },
        {
          "id": "900000072420006",
          "stationId": "900000072420006",
          "nameZh": "沈湾",
          "nameEn": "Shenwan",
          "target": "shenwan",
          "pinyin": "shenwan",
          "lat": 31.713145,
          "lon": 117.319745,
          "sequence": 27
        },
        {
          "id": "900000072420005",
          "stationId": "900000072420005",
          "nameZh": "华山路",
          "nameEn": "Huashan Lu",
          "target": "huashan lu",
          "pinyin": "huashanlu",
          "lat": 31.713146,
          "lon": 117.310975,
          "sequence": 28
        },
        {
          "id": "900000039731005",
          "stationId": "900000039731005",
          "nameZh": "云谷路",
          "nameEn": "Yungu Lu",
          "target": "yungu lu",
          "pinyin": "yungulu",
          "lat": 31.713194,
          "lon": 117.302214,
          "sequence": 29
        },
        {
          "id": "900000072420004",
          "stationId": "900000072420004",
          "nameZh": "清水冲",
          "nameEn": "Qingshuichong",
          "target": "qingshuichong",
          "pinyin": "qingshuichong",
          "lat": 31.713179,
          "lon": 117.286448,
          "sequence": 30
        },
        {
          "id": "900000072420003",
          "stationId": "900000072420003",
          "nameZh": "云川公园",
          "nameEn": "Yunchuan Gongyuan",
          "target": "yunchuan gongyuan",
          "pinyin": "yunchuangongyuan",
          "lat": 31.713181,
          "lon": 117.27559,
          "sequence": 31
        },
        {
          "id": "900000072420002",
          "stationId": "900000072420002",
          "nameZh": "滨湖竹园",
          "nameEn": "Binhu Zhuyuan",
          "target": "binhu zhuyuan",
          "pinyin": "binhuzhuyuan",
          "lat": 31.709409,
          "lon": 117.264153,
          "sequence": 32
        },
        {
          "id": "900000072420001",
          "stationId": "900000072420001",
          "nameZh": "贵阳路",
          "nameEn": "Guiyang Lu",
          "target": "guiyang lu",
          "pinyin": "guiyanglu",
          "lat": 31.698488,
          "lon": 117.264109,
          "sequence": 33
        }
      ],
      "segments": [
        [
          "900000072420046",
          "900000072420045",
          "900000072420044",
          "900000072420043",
          "900000055586019",
          "900000072420041",
          "900000072420040",
          "900000039729014",
          "900000072420038",
          "900000072420037",
          "900000072420036",
          "900000072420035",
          "900000072420034",
          "900000072420017",
          "900000039731013",
          "900000072420016",
          "900000072420015",
          "900000072420014",
          "900000072420013",
          "900000072420012",
          "900000072420011",
          "900000072420010",
          "900000072420009",
          "900000072420008",
          "900000072420007",
          "900000072420030",
          "900000072420006",
          "900000072420005",
          "900000039731005",
          "900000072420004",
          "900000072420003",
          "900000072420002",
          "900000072420001"
        ]
      ]
    },
    {
      "id": "3401-6",
      "operatorId": "3401",
      "operatorName": "合肥地铁",
      "lineId": "6",
      "lineName": "6号线",
      "color": "#C6AFD4",
      "loop": false,
      "stations": [
        {
          "id": "900000153893022",
          "stationId": "900000153893022",
          "nameZh": "青龙岗",
          "nameEn": "Qinglonggang",
          "target": "qinglonggang",
          "pinyin": "qinglonggang",
          "lat": 31.830183,
          "lon": 117.088765,
          "sequence": 1
        },
        {
          "id": "900000153893021",
          "stationId": "900000153893021",
          "nameZh": "合肥七中",
          "nameEn": "Hefei Qizhong",
          "target": "hefei qizhong",
          "pinyin": "hefeiqizhong",
          "lat": 31.829569,
          "lon": 117.100696,
          "sequence": 2
        },
        {
          "id": "900000153893020",
          "stationId": "900000153893020",
          "nameZh": "量子科学中心",
          "nameEn": "Liangzi Kexue Zhongxin",
          "target": "liangzi kexue zhongxin",
          "pinyin": "liangzikexuezhongxin",
          "lat": 31.829839,
          "lon": 117.115351,
          "sequence": 3
        },
        {
          "id": "900000153893019",
          "stationId": "900000153893019",
          "nameZh": "科大先研院",
          "nameEn": "Keda Xianyanyuan",
          "target": "keda xianyanyuan",
          "pinyin": "kedaxianyanyuan",
          "lat": 31.830335,
          "lon": 117.134212,
          "sequence": 4
        },
        {
          "id": "900000153891009",
          "stationId": "900000153891009",
          "nameZh": "北雁湖",
          "nameEn": "Bei Yanhu",
          "target": "bei yanhu",
          "pinyin": "beiyanhu",
          "lat": 31.820958,
          "lon": 117.157182,
          "sequence": 5
        },
        {
          "id": "900000153893017",
          "stationId": "900000153893017",
          "nameZh": "开福寺",
          "nameEn": "Kaifusi",
          "target": "kaifusi",
          "pinyin": "kaifusi",
          "lat": 31.831776,
          "lon": 117.185445,
          "sequence": 6
        },
        {
          "id": "900000153893016",
          "stationId": "900000153893016",
          "nameZh": "梦城",
          "nameEn": "Mengcheng",
          "target": "mengcheng",
          "pinyin": "mengcheng",
          "lat": 31.832593,
          "lon": 117.202096,
          "sequence": 7
        },
        {
          "id": "900000153893015",
          "stationId": "900000153893015",
          "nameZh": "松荫桥",
          "nameEn": "Songyin Qiao",
          "target": "songyin qiao",
          "pinyin": "songyinqiao",
          "lat": 31.833327,
          "lon": 117.221653,
          "sequence": 8
        },
        {
          "id": "900000055586011",
          "stationId": "900000055586011",
          "nameZh": "洪岗",
          "nameEn": "Honggang",
          "target": "honggang",
          "pinyin": "honggang",
          "lat": 31.832304,
          "lon": 117.231564,
          "sequence": 9
        },
        {
          "id": "900000153893013",
          "stationId": "900000153893013",
          "nameZh": "陆军兵种大学",
          "nameEn": "Lujun Bingzhong Daxue",
          "target": "lujun bingzhong daxue",
          "pinyin": "lujunbingzhongdaxue",
          "lat": 31.83086,
          "lon": 117.24479,
          "sequence": 10
        },
        {
          "id": "900000153893012",
          "stationId": "900000153893012",
          "nameZh": "南七里",
          "nameEn": "Nanqili",
          "target": "nanqili",
          "pinyin": "nanqili",
          "lat": 31.830015,
          "lon": 117.258082,
          "sequence": 11
        },
        {
          "id": "900000072420036",
          "stationId": "900000072420036",
          "nameZh": "市第三医院",
          "nameEn": "Shi Disan Yiyuan",
          "target": "shi disan yiyuan",
          "pinyin": "shidisanyiyuan",
          "lat": 31.828799,
          "lon": 117.26961,
          "sequence": 12
        },
        {
          "id": "900000153893010",
          "stationId": "900000153893010",
          "nameZh": "卫岗",
          "nameEn": "Weigang",
          "target": "weigang",
          "pinyin": "weigang",
          "lat": 31.830972,
          "lon": 117.286046,
          "sequence": 13
        },
        {
          "id": "900000039731017",
          "stationId": "900000039731017",
          "nameZh": "朱岗",
          "nameEn": "Zhugang",
          "target": "zhugang",
          "pinyin": "zhugang",
          "lat": 31.832155,
          "lon": 117.301739,
          "sequence": 14
        },
        {
          "id": "900000153891025",
          "stationId": "900000153891025",
          "nameZh": "尧渡河路",
          "nameEn": "Yaoduhe Lu",
          "target": "yaoduhe lu",
          "pinyin": "yaoduhelu",
          "lat": 31.825248,
          "lon": 117.324957,
          "sequence": 15
        },
        {
          "id": "900000153893007",
          "stationId": "900000153893007",
          "nameZh": "唐大楼",
          "nameEn": "Tang Dalou",
          "target": "tang dalou",
          "pinyin": "tangdalou",
          "lat": 31.828216,
          "lon": 117.335303,
          "sequence": 16
        },
        {
          "id": "900000153893006",
          "stationId": "900000153893006",
          "nameZh": "市儿童医院",
          "nameEn": "Shiertong Yiyuan",
          "target": "shiertong yiyuan",
          "pinyin": "shiertongyiyuan",
          "lat": 31.83605,
          "lon": 117.35496,
          "sequence": 17
        },
        {
          "id": "900000153893004",
          "stationId": "900000153893004",
          "nameZh": "钢红",
          "nameEn": "Ganghong",
          "target": "ganghong",
          "pinyin": "ganghong",
          "lat": 31.828107,
          "lon": 117.377961,
          "sequence": 18
        },
        {
          "id": "900000153893003",
          "stationId": "900000153893003",
          "nameZh": "大兴集",
          "nameEn": "Daxingji",
          "target": "daxingji",
          "pinyin": "daxingji",
          "lat": 31.834793,
          "lon": 117.38554,
          "sequence": 19
        },
        {
          "id": "900000153893002",
          "stationId": "900000153893002",
          "nameZh": "伏龙",
          "nameEn": "Fulong",
          "target": "fulong",
          "pinyin": "fulong",
          "lat": 31.838165,
          "lon": 117.400681,
          "sequence": 20
        },
        {
          "id": "900000153893001",
          "stationId": "900000153893001",
          "nameZh": "龙塘",
          "nameEn": "Longtang",
          "target": "longtang",
          "pinyin": "longtang",
          "lat": 31.836626,
          "lon": 117.415202,
          "sequence": 21
        }
      ],
      "segments": [
        [
          "900000153893022",
          "900000153893021",
          "900000153893020",
          "900000153893019",
          "900000153891009",
          "900000153893017",
          "900000153893016",
          "900000153893015",
          "900000055586011",
          "900000153893013",
          "900000153893012",
          "900000072420036",
          "900000153893010",
          "900000039731017",
          "900000153891025",
          "900000153893007",
          "900000153893006",
          "900000153893004",
          "900000153893003",
          "900000153893002",
          "900000153893001"
        ]
      ]
    },
    {
      "id": "3401-7",
      "operatorId": "3401",
      "operatorName": "合肥地铁",
      "lineId": "7",
      "lineName": "7号线",
      "color": "#FCD600",
      "loop": false,
      "stations": [
        {
          "id": "900000152599001",
          "stationId": "900000152599001",
          "nameZh": "翡翠公园",
          "nameEn": "Feicui Gongyuan",
          "target": "feicui gongyuan",
          "pinyin": "feicuigongyuan",
          "lat": 31.782279,
          "lon": 117.196089,
          "sequence": 1
        },
        {
          "id": "900000055586005",
          "stationId": "900000055586005",
          "nameZh": "繁华大道",
          "nameEn": "Fanhua Dadao",
          "target": "fanhua dadao",
          "pinyin": "fanhuadadao",
          "lat": 31.781221,
          "lon": 117.209868,
          "sequence": 2
        },
        {
          "id": "900000152599003",
          "stationId": "900000152599003",
          "nameZh": "徽园",
          "nameEn": "Huiyuan",
          "target": "huiyuan",
          "pinyin": "huiyuan",
          "lat": 31.780804,
          "lon": 117.2216,
          "sequence": 3
        },
        {
          "id": "900000152599004",
          "stationId": "900000152599004",
          "nameZh": "明珠广场",
          "nameEn": "Mingzhu Guangchang",
          "target": "mingzhu guangchang",
          "pinyin": "mingzhuguangchang",
          "lat": 31.776342,
          "lon": 117.231333,
          "sequence": 4
        },
        {
          "id": "900000152599005",
          "stationId": "900000152599005",
          "nameZh": "天都路",
          "nameEn": "Tiandu Lu",
          "target": "tiandu lu",
          "pinyin": "tiandulu",
          "lat": 31.776324,
          "lon": 117.240379,
          "sequence": 5
        },
        {
          "id": "900000152599006",
          "stationId": "900000152599006",
          "nameZh": "南艳湖北",
          "nameEn": "Nanyan Hubei",
          "target": "nanyan hubei",
          "pinyin": "nanyanhubei",
          "lat": 31.770669,
          "lon": 117.250316,
          "sequence": 6
        },
        {
          "id": "900000152599007",
          "stationId": "900000152599007",
          "nameZh": "一六八中学",
          "nameEn": "Yiliuba Zhongxue",
          "target": "yiliuba zhongxue",
          "pinyin": "yiliubazhongxue",
          "lat": 31.759887,
          "lon": 117.250327,
          "sequence": 7
        },
        {
          "id": "900000152599008",
          "stationId": "900000152599008",
          "nameZh": "合肥大学",
          "nameEn": "Hefei Daxue",
          "target": "hefei daxue",
          "pinyin": "hefeidaxue",
          "lat": 31.753603,
          "lon": 117.260253,
          "sequence": 8
        },
        {
          "id": "900000152599009",
          "stationId": "900000152599009",
          "nameZh": "南艳湖南",
          "nameEn": "Nanyan Hunan",
          "target": "nanyan hunan",
          "pinyin": "nanyanhunan",
          "lat": 31.756144,
          "lon": 117.270551,
          "sequence": 9
        },
        {
          "id": "900000152599010",
          "stationId": "900000152599010",
          "nameZh": "要素大市场",
          "nameEn": "Yaosu Dashichang",
          "target": "yaosu dashichang",
          "pinyin": "yaosudashichang",
          "lat": 31.750455,
          "lon": 117.286386,
          "sequence": 10
        },
        {
          "id": "900000152599011",
          "stationId": "900000152599011",
          "nameZh": "滨湖医院",
          "nameEn": "Binhu Yiyuan",
          "target": "binhu yiyuan",
          "pinyin": "binhuyiyuan",
          "lat": 31.740864,
          "lon": 117.291578,
          "sequence": 11
        },
        {
          "id": "900000039731008",
          "stationId": "900000039731008",
          "nameZh": "紫庐",
          "nameEn": "Zilu",
          "target": "zilu",
          "pinyin": "zilu",
          "lat": 31.740745,
          "lon": 117.302627,
          "sequence": 12
        },
        {
          "id": "900000152599013",
          "stationId": "900000152599013",
          "nameZh": "嵩山路",
          "nameEn": "Songshan Lu",
          "target": "songshan lu",
          "pinyin": "songshanlu",
          "lat": 31.740849,
          "lon": 117.315272,
          "sequence": 13
        },
        {
          "id": "900000152599014",
          "stationId": "900000152599014",
          "nameZh": "省文化和非遗馆",
          "nameEn": "Sheng Wenhua Hefei Yiguan",
          "target": "sheng wenhua hefei yiguan",
          "pinyin": "shengwenhuahefeiyiguan",
          "lat": 31.740861,
          "lon": 117.324844,
          "sequence": 14
        }
      ],
      "segments": [
        [
          "900000152599001",
          "900000055586005",
          "900000152599003",
          "900000152599004",
          "900000152599005",
          "900000152599006",
          "900000152599007",
          "900000152599008",
          "900000152599009",
          "900000152599010",
          "900000152599011",
          "900000039731008",
          "900000152599013",
          "900000152599014"
        ]
      ]
    },
    {
      "id": "3401-8",
      "operatorId": "3401",
      "operatorName": "合肥地铁",
      "lineId": "8",
      "lineName": "8号线",
      "color": "#52A8C9",
      "loop": false,
      "stations": [
        {
          "id": "900000055586020",
          "stationId": "900000055586020",
          "nameZh": "一里井",
          "nameEn": "Yilijing",
          "target": "yilijing",
          "pinyin": "yilijing",
          "lat": 31.887032,
          "lon": 117.287184,
          "sequence": 1
        },
        {
          "id": "900000152690002",
          "stationId": "900000152690002",
          "nameZh": "杏林",
          "nameEn": "Xinglin",
          "target": "xinglin",
          "pinyin": "xinglin",
          "lat": 31.903508,
          "lon": 117.284403,
          "sequence": 2
        },
        {
          "id": "900000152690003",
          "stationId": "900000152690003",
          "nameZh": "庐阳经开区",
          "nameEn": "Luyang Jingkaiqu",
          "target": "luyang jingkaiqu",
          "pinyin": "luyangjingkaiqu",
          "lat": 31.922669,
          "lon": 117.280547,
          "sequence": 3
        },
        {
          "id": "900000072420045",
          "stationId": "900000072420045",
          "nameZh": "六中菱湖校区",
          "nameEn": "Liuzhong Linghu Xiaoqu",
          "target": "liuzhong linghu xiaoqu",
          "pinyin": "liuzhonglinghuxiaoqu",
          "lat": 31.930097,
          "lon": 117.269911,
          "sequence": 4
        },
        {
          "id": "900000152690005",
          "stationId": "900000152690005",
          "nameZh": "荷塘路",
          "nameEn": "Hetang Lu",
          "target": "hetang lu",
          "pinyin": "hetanglu",
          "lat": 31.936052,
          "lon": 117.259776,
          "sequence": 5
        },
        {
          "id": "900000152690006",
          "stationId": "900000152690006",
          "nameZh": "双凤",
          "nameEn": "Shuangfeng",
          "target": "shuangfeng",
          "pinyin": "shuangfeng",
          "lat": 31.956426,
          "lon": 117.256961,
          "sequence": 6
        },
        {
          "id": "900000152690007",
          "stationId": "900000152690007",
          "nameZh": "金梅路",
          "nameEn": "Jinmei Lu",
          "target": "jinmei lu",
          "pinyin": "jinmeilu",
          "lat": 31.975541,
          "lon": 117.254835,
          "sequence": 7
        },
        {
          "id": "900000152690008",
          "stationId": "900000152690008",
          "nameZh": "梅冲湖",
          "nameEn": "Meichonghu",
          "target": "meichonghu",
          "pinyin": "meichonghu",
          "lat": 31.994689,
          "lon": 117.254005,
          "sequence": 8
        },
        {
          "id": "900000152690009",
          "stationId": "900000152690009",
          "nameZh": "北城世纪城",
          "nameEn": "Beicheng Shijicheng",
          "target": "beicheng shijicheng",
          "pinyin": "beichengshijicheng",
          "lat": 32.01029,
          "lon": 117.24815,
          "sequence": 9
        },
        {
          "id": "900000152690010",
          "stationId": "900000152690010",
          "nameZh": "双墩",
          "nameEn": "Shuangdun",
          "target": "shuangdun",
          "pinyin": "shuangdun",
          "lat": 32.029493,
          "lon": 117.248598,
          "sequence": 10
        },
        {
          "id": "900000152690011",
          "stationId": "900000152690011",
          "nameZh": "省立医院北区",
          "nameEn": "Shengli Yiyuan Beiqu",
          "target": "shengli yiyuan beiqu",
          "pinyin": "shengliyiyuanbeiqu",
          "lat": 32.044498,
          "lon": 117.246105,
          "sequence": 11
        },
        {
          "id": "900000152690012",
          "stationId": "900000152690012",
          "nameZh": "北城高铁站",
          "nameEn": "Beicheng Gaotie Zhan",
          "target": "beicheng gaotie zhan",
          "pinyin": "beichenggaotiezhan",
          "lat": 32.062737,
          "lon": 117.256336,
          "sequence": 12
        }
      ],
      "segments": [
        [
          "900000055586020",
          "900000152690002",
          "900000152690003",
          "900000072420045",
          "900000152690005",
          "900000152690006",
          "900000152690007",
          "900000152690008",
          "900000152690009",
          "900000152690010",
          "900000152690011",
          "900000152690012"
        ]
      ]
    }
  ]
}