{
  "city": "hangzhou",
  "cityNameZh": "杭州",
  "cityNameEn": "Hangzhou",
  "source": "高德地图地铁数据（非官方接口）· 官方英文站名整理自 Wikipedia",
  "generatedAt": "2026-07-14T14:48:45.632Z",
  "lines": [
    {
      "id": "3301-1",
      "operatorId": "3301",
      "operatorName": "杭州地铁",
      "lineId": "1",
      "lineName": "1号线",
      "color": "#FC0601",
      "loop": false,
      "stations": [
        {
          "id": "330100023133026",
          "stationId": "330100023133026",
          "nameZh": "湘湖",
          "nameEn": "Xianghu",
          "target": "xianghu",
          "pinyin": "xianghu",
          "lat": 30.167585,
          "lon": 120.234391,
          "sequence": 1
        },
        {
          "id": "330100023133025",
          "stationId": "330100023133025",
          "nameZh": "滨康路",
          "nameEn": "Binkang Lu",
          "target": "binkang lu",
          "pinyin": "binkanglu",
          "lat": 30.183864,
          "lon": 120.231003,
          "sequence": 2
        },
        {
          "id": "330100023133024",
          "stationId": "330100023133024",
          "nameZh": "西兴",
          "nameEn": "Xixing",
          "target": "xixing",
          "pinyin": "xixing",
          "lat": 30.187295,
          "lon": 120.220429,
          "sequence": 3
        },
        {
          "id": "330100023133023",
          "stationId": "330100023133023",
          "nameZh": "滨和路",
          "nameEn": "Binhe Lu",
          "target": "binhe lu",
          "pinyin": "binhelu",
          "lat": 30.19955,
          "lon": 120.217552,
          "sequence": 4
        },
        {
          "id": "330100023133022",
          "stationId": "330100023133022",
          "nameZh": "江陵路",
          "nameEn": "Jiangling Lu",
          "target": "jiangling lu",
          "pinyin": "jianglinglu",
          "lat": 30.208999,
          "lon": 120.216603,
          "sequence": 5
        },
        {
          "id": "330100023133021",
          "stationId": "330100023133021",
          "nameZh": "近江",
          "nameEn": "Jinjiang",
          "target": "jinjiang",
          "pinyin": "jinjiang",
          "lat": 30.230791,
          "lon": 120.197851,
          "sequence": 6
        },
        {
          "id": "330100023133020",
          "stationId": "330100023133020",
          "nameZh": "婺江路",
          "nameEn": "Wujiang Lu",
          "target": "wujiang lu",
          "pinyin": "wujianglu",
          "lat": 30.236914,
          "lon": 120.191008,
          "sequence": 7
        },
        {
          "id": "330100023133019",
          "stationId": "330100023133019",
          "nameZh": "城站",
          "nameEn": "Chengzhan",
          "target": "chengzhan",
          "pinyin": "chengzhan",
          "lat": 30.244567,
          "lon": 120.18077,
          "sequence": 8
        },
        {
          "id": "330100023133018",
          "stationId": "330100023133018",
          "nameZh": "定安路",
          "nameEn": "Dingan Lu",
          "target": "dingan lu",
          "pinyin": "dinganlu",
          "lat": 30.245954,
          "lon": 120.167751,
          "sequence": 9
        },
        {
          "id": "330100023133017",
          "stationId": "330100023133017",
          "nameZh": "龙翔桥",
          "nameEn": "Longxiang Qiao",
          "target": "longxiang qiao",
          "pinyin": "longxiangqiao",
          "lat": 30.254642,
          "lon": 120.164052,
          "sequence": 10
        },
        {
          "id": "330100020003030",
          "stationId": "330100020003030",
          "nameZh": "凤起路",
          "nameEn": "Fengqi Lu",
          "target": "fengqi lu",
          "pinyin": "fengqilu",
          "lat": 30.263779,
          "lon": 120.162887,
          "sequence": 11
        },
        {
          "id": "330100023133015",
          "stationId": "330100023133015",
          "nameZh": "武林广场",
          "nameEn": "Wulin Guangchang",
          "target": "wulin guangchang",
          "pinyin": "wulinguangchang",
          "lat": 30.272368,
          "lon": 120.164324,
          "sequence": 12
        },
        {
          "id": "330100023133014",
          "stationId": "330100023133014",
          "nameZh": "西湖文化广场",
          "nameEn": "Xihu Wenhua Guangchang",
          "target": "xihu wenhua guangchang",
          "pinyin": "xihuwenhuaguangchang",
          "lat": 30.279585,
          "lon": 120.165639,
          "sequence": 13
        },
        {
          "id": "330100023133013",
          "stationId": "330100023133013",
          "nameZh": "打铁关",
          "nameEn": "Datieguan",
          "target": "datieguan",
          "pinyin": "datieguan",
          "lat": 30.285425,
          "lon": 120.176739,
          "sequence": 14
        },
        {
          "id": "330100023133012",
          "stationId": "330100023133012",
          "nameZh": "闸弄口",
          "nameEn": "Zha Long Kou",
          "target": "zha long kou",
          "pinyin": "zhalongkou",
          "lat": 30.284507,
          "lon": 120.192496,
          "sequence": 15
        },
        {
          "id": "330100023133011",
          "stationId": "330100023133011",
          "nameZh": "火车东站",
          "nameEn": "Huoche Dongzhan",
          "target": "huoche dongzhan",
          "pinyin": "huochedongzhan",
          "lat": 30.291124,
          "lon": 120.212892,
          "sequence": 16
        },
        {
          "id": "330100023133010",
          "stationId": "330100023133010",
          "nameZh": "彭埠",
          "nameEn": "Pengbu",
          "target": "pengbu",
          "pinyin": "pengbu",
          "lat": 30.294065,
          "lon": 120.223661,
          "sequence": 17
        },
        {
          "id": "330100023133009",
          "stationId": "330100023133009",
          "nameZh": "七堡",
          "nameEn": "Qibao",
          "target": "qibao",
          "pinyin": "qibao",
          "lat": 30.300002,
          "lon": 120.241065,
          "sequence": 18
        },
        {
          "id": "330100023133008",
          "stationId": "330100023133008",
          "nameZh": "九和路",
          "nameEn": "Jiuhe Lu",
          "target": "jiuhe lu",
          "pinyin": "jiuhelu",
          "lat": 30.305799,
          "lon": 120.252784,
          "sequence": 19
        },
        {
          "id": "330100023133007",
          "stationId": "330100023133007",
          "nameZh": "九堡",
          "nameEn": "Jiubao",
          "target": "jiubao",
          "pinyin": "jiubao",
          "lat": 30.30791,
          "lon": 120.266622,
          "sequence": 20
        },
        {
          "id": "330100023133006",
          "stationId": "330100023133006",
          "nameZh": "客运中心",
          "nameEn": "Keyun Zhongxin",
          "target": "keyun zhongxin",
          "pinyin": "keyunzhongxin",
          "lat": 30.311145,
          "lon": 120.278837,
          "sequence": 21
        },
        {
          "id": "330100023133005",
          "stationId": "330100023133005",
          "nameZh": "下沙西",
          "nameEn": "Xiasha Xi",
          "target": "xiasha xi",
          "pinyin": "xiashaxi",
          "lat": 30.309918,
          "lon": 120.312534,
          "sequence": 22
        },
        {
          "id": "330100023133004",
          "stationId": "330100023133004",
          "nameZh": "金沙湖",
          "nameEn": "Jinsha Hu",
          "target": "jinsha hu",
          "pinyin": "jinshahu",
          "lat": 30.309246,
          "lon": 120.32572,
          "sequence": 23
        },
        {
          "id": "330100023133003",
          "stationId": "330100023133003",
          "nameZh": "高沙路",
          "nameEn": "Gaosha Lu",
          "target": "gaosha lu",
          "pinyin": "gaoshalu",
          "lat": 30.30942,
          "lon": 120.335408,
          "sequence": 24
        },
        {
          "id": "330100023133002",
          "stationId": "330100023133002",
          "nameZh": "文泽路",
          "nameEn": "Wenze Lu",
          "target": "wenze lu",
          "pinyin": "wenzelu",
          "lat": 30.310059,
          "lon": 120.350055,
          "sequence": 25
        },
        {
          "id": "330100023133029",
          "stationId": "330100023133029",
          "nameZh": "文海南路",
          "nameEn": "Wenhai Nanlu",
          "target": "wenhai nanlu",
          "pinyin": "wenhainanlu",
          "lat": 30.310983,
          "lon": 120.375052,
          "sequence": 26
        },
        {
          "id": "330100023133028",
          "stationId": "330100023133028",
          "nameZh": "云水",
          "nameEn": "Yunshui",
          "target": "yunshui",
          "pinyin": "yunshui",
          "lat": 30.302893,
          "lon": 120.381787,
          "sequence": 27
        },
        {
          "id": "330100023133027",
          "stationId": "330100023133027",
          "nameZh": "下沙江滨",
          "nameEn": "Xiasha Jiangbin",
          "target": "xiasha jiangbin",
          "pinyin": "xiashajiangbin",
          "lat": 30.286768,
          "lon": 120.381725,
          "sequence": 28
        },
        {
          "id": "330100023133034",
          "stationId": "330100023133034",
          "nameZh": "杭州大会展中心",
          "nameEn": "Hangzhou Dahuizhan Zhongxin",
          "target": "hangzhou dahuizhan zhongxin",
          "pinyin": "hangzhoudahuizhanzhongxin",
          "lat": 30.271186,
          "lon": 120.411964,
          "sequence": 29
        },
        {
          "id": "330100023133033",
          "stationId": "330100023133033",
          "nameZh": "港城大道",
          "nameEn": "Gangcheng Dadao",
          "target": "gangcheng dadao",
          "pinyin": "gangchengdadao",
          "lat": 30.270715,
          "lon": 120.425429,
          "sequence": 30
        },
        {
          "id": "330100023133032",
          "stationId": "330100023133032",
          "nameZh": "南阳",
          "nameEn": "Nanyang",
          "target": "nanyang",
          "pinyin": "nanyang",
          "lat": 30.270138,
          "lon": 120.435738,
          "sequence": 31
        },
        {
          "id": "330100023133031",
          "stationId": "330100023133031",
          "nameZh": "向阳路",
          "nameEn": "Xiangyang Lu",
          "target": "xiangyang lu",
          "pinyin": "xiangyanglu",
          "lat": 30.260328,
          "lon": 120.442553,
          "sequence": 32
        },
        {
          "id": "330100023133030",
          "stationId": "330100023133030",
          "nameZh": "萧山国际机场",
          "nameEn": "Xiaoshan Guoji Jichang",
          "target": "xiaoshan guoji jichang",
          "pinyin": "xiaoshanguojijichang",
          "lat": 30.235568,
          "lon": 120.433114,
          "sequence": 33
        }
      ],
      "segments": [
        [
          "330100023133026",
          "330100023133025",
          "330100023133024",
          "330100023133023",
          "330100023133022",
          "330100023133021",
          "330100023133020",
          "330100023133019",
          "330100023133018",
          "330100023133017",
          "330100020003030",
          "330100023133015",
          "330100023133014",
          "330100023133013",
          "330100023133012",
          "330100023133011",
          "330100023133010",
          "330100023133009",
          "330100023133008",
          "330100023133007",
          "330100023133006",
          "330100023133005",
          "330100023133004",
          "330100023133003",
          "330100023133002",
          "330100023133029",
          "330100023133028",
          "330100023133027",
          "330100023133034",
          "330100023133033",
          "330100023133032",
          "330100023133031",
          "330100023133030"
        ]
      ]
    },
    {
      "id": "3301-绍兴",
      "operatorId": "3301",
      "operatorName": "杭州地铁",
      "lineId": "绍兴",
      "lineName": "绍兴1号线",
      "color": "#E3002A",
      "loop": false,
      "stations": [
        {
          "id": "900000065767067",
          "stationId": "900000065767067",
          "nameZh": "姑娘桥",
          "nameEn": "Guniang Qiao",
          "target": "guniang qiao",
          "pinyin": "guniangqiao",
          "lat": 30.176001,
          "lon": 120.330313,
          "sequence": 1
        },
        {
          "id": "900000150789030",
          "stationId": "900000150789030",
          "nameZh": "衙前",
          "nameEn": "Yaqian",
          "target": "yaqian",
          "pinyin": "yaqian",
          "lat": 30.163186,
          "lon": 120.359979,
          "sequence": 2
        },
        {
          "id": "900000150789031",
          "stationId": "900000150789031",
          "nameZh": "杨汛桥",
          "nameEn": "Yangxun Qiao",
          "target": "yangxun qiao",
          "pinyin": "yangxunqiao",
          "lat": 30.144413,
          "lon": 120.365385,
          "sequence": 3
        },
        {
          "id": "900000150789032",
          "stationId": "900000150789032",
          "nameZh": "前梅",
          "nameEn": "Qianmei",
          "target": "qianmei",
          "pinyin": "qianmei",
          "lat": 30.123976,
          "lon": 120.394114,
          "sequence": 4
        },
        {
          "id": "900000150789033",
          "stationId": "900000150789033",
          "nameZh": "钱清",
          "nameEn": "Qianqing",
          "target": "qianqing",
          "pinyin": "qianqing",
          "lat": 30.122089,
          "lon": 120.411309,
          "sequence": 5
        },
        {
          "id": "900000150789034",
          "stationId": "900000150789034",
          "nameZh": "西沙路",
          "nameEn": "Xisha Lu",
          "target": "xisha lu",
          "pinyin": "xishalu",
          "lat": 30.117483,
          "lon": 120.426351,
          "sequence": 6
        },
        {
          "id": "900000150789035",
          "stationId": "900000150789035",
          "nameZh": "临杭大道",
          "nameEn": "Linhang Dadao",
          "target": "linhang dadao",
          "pinyin": "linhangdadao",
          "lat": 30.110425,
          "lon": 120.440676,
          "sequence": 7
        },
        {
          "id": "900000150789037",
          "stationId": "900000150789037",
          "nameZh": "鉴水路",
          "nameEn": "Jianshui Lu",
          "target": "jianshui lu",
          "pinyin": "jianshuilu",
          "lat": 30.098638,
          "lon": 120.457067,
          "sequence": 8
        },
        {
          "id": "900000150789038",
          "stationId": "900000150789038",
          "nameZh": "越州大道",
          "nameEn": "Yuezhou Dadao",
          "target": "yuezhou dadao",
          "pinyin": "yuezhoudadao",
          "lat": 30.087067,
          "lon": 120.480306,
          "sequence": 9
        },
        {
          "id": "900000150789039",
          "stationId": "900000150789039",
          "nameZh": "中国轻纺城",
          "nameEn": "Zhongguo Qingfangcheng",
          "target": "zhongguo qingfangcheng",
          "pinyin": "zhongguoqingfangcheng",
          "lat": 30.082548,
          "lon": 120.487887,
          "sequence": 10
        },
        {
          "id": "900000150789040",
          "stationId": "900000150789040",
          "nameZh": "明珠广场",
          "nameEn": "Mingzhu Guangchang",
          "target": "mingzhu guangchang",
          "pinyin": "mingzhuguangchang",
          "lat": 30.079374,
          "lon": 120.49588,
          "sequence": 11
        },
        {
          "id": "900000150789041",
          "stationId": "900000150789041",
          "nameZh": "瓜渚湖",
          "nameEn": "Guazhuhu",
          "target": "guazhuhu",
          "pinyin": "guazhuhu",
          "lat": 30.074421,
          "lon": 120.508816,
          "sequence": 12
        },
        {
          "id": "900000150789042",
          "stationId": "900000150789042",
          "nameZh": "镜水路",
          "nameEn": "Jingshui Lu",
          "target": "jingshui lu",
          "pinyin": "jingshuilu",
          "lat": 30.068623,
          "lon": 120.521504,
          "sequence": 13
        },
        {
          "id": "900000150789043",
          "stationId": "900000150789043",
          "nameZh": "黄酒小镇",
          "nameEn": "Huangjiu Xiaozhen",
          "target": "huangjiu xiaozhen",
          "pinyin": "huangjiuxiaozhen",
          "lat": 30.058074,
          "lon": 120.539694,
          "sequence": 14
        },
        {
          "id": "900000150789044",
          "stationId": "900000150789044",
          "nameZh": "张墅",
          "nameEn": "Zhangshu",
          "target": "zhangshu",
          "pinyin": "zhangshu",
          "lat": 30.053156,
          "lon": 120.554367,
          "sequence": 15
        },
        {
          "id": "900000150789045",
          "stationId": "900000150789045",
          "nameZh": "奥体中心",
          "nameEn": "Aoti Zhongxin",
          "target": "aoti zhongxin",
          "pinyin": "aotizhongxin",
          "lat": 30.056241,
          "lon": 120.569815,
          "sequence": 16
        },
        {
          "id": "900000150789046",
          "stationId": "900000150789046",
          "nameZh": "梅山广场",
          "nameEn": "Meishan Guangchang",
          "target": "meishan guangchang",
          "pinyin": "meishanguangchang",
          "lat": 30.050004,
          "lon": 120.577799,
          "sequence": 17
        },
        {
          "id": "900000150789047",
          "stationId": "900000150789047",
          "nameZh": "凤林",
          "nameEn": "Fenglin",
          "target": "fenglin",
          "pinyin": "fenglin",
          "lat": 30.037045,
          "lon": 120.581681,
          "sequence": 18
        },
        {
          "id": "900000150789048",
          "stationId": "900000150789048",
          "nameZh": "大滩",
          "nameEn": "Datan",
          "target": "datan",
          "pinyin": "datan",
          "lat": 30.023425,
          "lon": 120.582573,
          "sequence": 19
        },
        {
          "id": "900000150789049",
          "stationId": "900000150789049",
          "nameZh": "火车站",
          "nameEn": "Huochezhan",
          "target": "huochezhan",
          "pinyin": "huochezhan",
          "lat": 30.013147,
          "lon": 120.581237,
          "sequence": 20
        },
        {
          "id": "900000150789050",
          "stationId": "900000150789050",
          "nameZh": "城市广场",
          "nameEn": "Chengshi Guangchang",
          "target": "chengshi guangchang",
          "pinyin": "chengshiguangchang",
          "lat": 30.004095,
          "lon": 120.581296,
          "sequence": 21
        },
        {
          "id": "900000150789051",
          "stationId": "900000150789051",
          "nameZh": "鲁迅故里",
          "nameEn": "Luxun Guli",
          "target": "luxun guli",
          "pinyin": "luxunguli",
          "lat": 29.991606,
          "lon": 120.580562,
          "sequence": 22
        },
        {
          "id": "900000150789052",
          "stationId": "900000150789052",
          "nameZh": "城南大道",
          "nameEn": "Chengnan Dadao",
          "target": "chengnan dadao",
          "pinyin": "chengnandadao",
          "lat": 29.97586,
          "lon": 120.580411,
          "sequence": 23
        },
        {
          "id": "900000150789053",
          "stationId": "900000150789053",
          "nameZh": "凤凰山",
          "nameEn": "Fenghuangshan",
          "target": "fenghuangshan",
          "pinyin": "fenghuangshan",
          "lat": 29.962525,
          "lon": 120.577787,
          "sequence": 24
        },
        {
          "id": "900000150789054",
          "stationId": "900000150789054",
          "nameZh": "劳家葑",
          "nameEn": "Laojiafeng",
          "target": "laojiafeng",
          "pinyin": "laojiafeng",
          "lat": 29.951881,
          "lon": 120.577039,
          "sequence": 25
        },
        {
          "id": "900000150789055",
          "stationId": "900000150789055",
          "nameZh": "南池",
          "nameEn": "Nanchi",
          "target": "nanchi",
          "pinyin": "nanchi",
          "lat": 29.939312,
          "lon": 120.575807,
          "sequence": 26
        },
        {
          "id": "900000150789056",
          "stationId": "900000150789056",
          "nameZh": "栖湖",
          "nameEn": "Qihu",
          "target": "qihu",
          "pinyin": "qihu",
          "lat": 29.928799,
          "lon": 120.575395,
          "sequence": 27
        },
        {
          "id": "900000150789057",
          "stationId": "900000150789057",
          "nameZh": "芳泉",
          "nameEn": "Fangquan",
          "target": "fangquan",
          "pinyin": "fangquan",
          "lat": 29.918247,
          "lon": 120.570951,
          "sequence": 28
        }
      ],
      "segments": [
        [
          "900000065767067",
          "900000150789030",
          "900000150789031",
          "900000150789032",
          "900000150789033",
          "900000150789034",
          "900000150789035",
          "900000150789037",
          "900000150789038",
          "900000150789039",
          "900000150789040",
          "900000150789041",
          "900000150789042",
          "900000150789043",
          "900000150789044",
          "900000150789045",
          "900000150789046",
          "900000150789047",
          "900000150789048",
          "900000150789049",
          "900000150789050",
          "900000150789051",
          "900000150789052",
          "900000150789053",
          "900000150789054",
          "900000150789055",
          "900000150789056",
          "900000150789057"
        ]
      ]
    },
    {
      "id": "3301-2",
      "operatorId": "3301",
      "operatorName": "杭州地铁",
      "lineId": "2",
      "lineName": "2号线",
      "color": "#EE782E",
      "loop": false,
      "stations": [
        {
          "id": "330100020003002",
          "stationId": "330100020003002",
          "nameZh": "朝阳",
          "nameEn": "Chaoyang",
          "target": "chaoyang",
          "pinyin": "chaoyang",
          "lat": 30.122219,
          "lon": 120.268228,
          "sequence": 1
        },
        {
          "id": "330100020003003",
          "stationId": "330100020003003",
          "nameZh": "曹家桥",
          "nameEn": "Caojia Qiao",
          "target": "caojia qiao",
          "pinyin": "caojiaqiao",
          "lat": 30.134524,
          "lon": 120.267867,
          "sequence": 2
        },
        {
          "id": "330100020003004",
          "stationId": "330100020003004",
          "nameZh": "潘水",
          "nameEn": "Panshui",
          "target": "panshui",
          "pinyin": "panshui",
          "lat": 30.148186,
          "lon": 120.267644,
          "sequence": 3
        },
        {
          "id": "330100020003005",
          "stationId": "330100020003005",
          "nameZh": "人民路",
          "nameEn": "Renmin Lu",
          "target": "renmin lu",
          "pinyin": "renminlu",
          "lat": 30.159176,
          "lon": 120.267502,
          "sequence": 4
        },
        {
          "id": "330100020003006",
          "stationId": "330100020003006",
          "nameZh": "杭发厂",
          "nameEn": "Hangfachang",
          "target": "hangfachang",
          "pinyin": "hangfachang",
          "lat": 30.170619,
          "lon": 120.267205,
          "sequence": 5
        },
        {
          "id": "330100020003007",
          "stationId": "330100020003007",
          "nameZh": "人民广场",
          "nameEn": "Renmin Guangchang",
          "target": "renmin guangchang",
          "pinyin": "renminguangchang",
          "lat": 30.181086,
          "lon": 120.266803,
          "sequence": 6
        },
        {
          "id": "330100020003008",
          "stationId": "330100020003008",
          "nameZh": "建设一路",
          "nameEn": "Jianshe Yilu",
          "target": "jianshe yilu",
          "pinyin": "jiansheyilu",
          "lat": 30.194046,
          "lon": 120.266538,
          "sequence": 7
        },
        {
          "id": "330100020003009",
          "stationId": "330100020003009",
          "nameZh": "建设三路",
          "nameEn": "Jianshe San Lu",
          "target": "jianshe san lu",
          "pinyin": "jianshesanlu",
          "lat": 30.204512,
          "lon": 120.268252,
          "sequence": 8
        },
        {
          "id": "330100020003010",
          "stationId": "330100020003010",
          "nameZh": "振宁路",
          "nameEn": "Zhenning Lu",
          "target": "zhenning lu",
          "pinyin": "zhenninglu",
          "lat": 30.217695,
          "lon": 120.269215,
          "sequence": 9
        },
        {
          "id": "330100020003011",
          "stationId": "330100020003011",
          "nameZh": "飞虹路",
          "nameEn": "Feihong Lu",
          "target": "feihong lu",
          "pinyin": "feihonglu",
          "lat": 30.230955,
          "lon": 120.263328,
          "sequence": 10
        },
        {
          "id": "330100020003012",
          "stationId": "330100020003012",
          "nameZh": "盈丰路",
          "nameEn": "Yingfeng Lu",
          "target": "yingfeng lu",
          "pinyin": "yingfenglu",
          "lat": 30.236997,
          "lon": 120.252501,
          "sequence": 11
        },
        {
          "id": "330100020003013",
          "stationId": "330100020003013",
          "nameZh": "钱江世纪城",
          "nameEn": "Qianjiang Shijicheng",
          "target": "qianjiang shijicheng",
          "pinyin": "qianjiangshijicheng",
          "lat": 30.240379,
          "lon": 120.244477,
          "sequence": 12
        },
        {
          "id": "330100020003014",
          "stationId": "330100020003014",
          "nameZh": "钱江路",
          "nameEn": "Qianjiang Lu",
          "target": "qianjiang lu",
          "pinyin": "qianjianglu",
          "lat": 30.255978,
          "lon": 120.213387,
          "sequence": 13
        },
        {
          "id": "330100020003026",
          "stationId": "330100020003026",
          "nameZh": "庆春广场",
          "nameEn": "Qingchun Guangchang",
          "target": "qingchun guangchang",
          "pinyin": "qingchunguangchang",
          "lat": 30.257602,
          "lon": 120.204748,
          "sequence": 14
        },
        {
          "id": "330100020003027",
          "stationId": "330100020003027",
          "nameZh": "庆菱路",
          "nameEn": "Qingling Lu",
          "target": "qingling lu",
          "pinyin": "qinglinglu",
          "lat": 30.257613,
          "lon": 120.193077,
          "sequence": 15
        },
        {
          "id": "330100020003028",
          "stationId": "330100020003028",
          "nameZh": "建国北路",
          "nameEn": "Jianguo Beilu",
          "target": "jianguo beilu",
          "pinyin": "jianguobeilu",
          "lat": 30.264552,
          "lon": 120.180761,
          "sequence": 16
        },
        {
          "id": "330100020003029",
          "stationId": "330100020003029",
          "nameZh": "中河北路",
          "nameEn": "Zhonghe Beilu",
          "target": "zhonghe beilu",
          "pinyin": "zhonghebeilu",
          "lat": 30.264596,
          "lon": 120.172436,
          "sequence": 17
        },
        {
          "id": "330100020003030",
          "stationId": "330100020003030",
          "nameZh": "凤起路",
          "nameEn": "Fengqi Lu",
          "target": "fengqi lu",
          "pinyin": "fengqilu",
          "lat": 30.263779,
          "lon": 120.162887,
          "sequence": 18
        },
        {
          "id": "330100020003031",
          "stationId": "330100020003031",
          "nameZh": "武林门",
          "nameEn": "Wulinmen",
          "target": "wulinmen",
          "pinyin": "wulinmen",
          "lat": 30.269668,
          "lon": 120.155365,
          "sequence": 19
        },
        {
          "id": "330100020003032",
          "stationId": "330100020003032",
          "nameZh": "沈塘桥",
          "nameEn": "Shen Tangqiao",
          "target": "shen tangqiao",
          "pinyin": "shentangqiao",
          "lat": 30.280146,
          "lon": 120.150223,
          "sequence": 20
        },
        {
          "id": "330100020003046",
          "stationId": "330100020003046",
          "nameZh": "下宁桥",
          "nameEn": "Xianingqiao",
          "target": "xianingqiao",
          "pinyin": "xianingqiao",
          "lat": 30.283325,
          "lon": 120.140128,
          "sequence": 21
        },
        {
          "id": "330100020003034",
          "stationId": "330100020003034",
          "nameZh": "学院路",
          "nameEn": "Xueyuan Lu",
          "target": "xueyuan lu",
          "pinyin": "xueyuanlu",
          "lat": 30.282745,
          "lon": 120.129577,
          "sequence": 22
        },
        {
          "id": "330100020003035",
          "stationId": "330100020003035",
          "nameZh": "古翠路",
          "nameEn": "Gucui Lu",
          "target": "gucui lu",
          "pinyin": "gucuilu",
          "lat": 30.282192,
          "lon": 120.117918,
          "sequence": 23
        },
        {
          "id": "330100020003036",
          "stationId": "330100020003036",
          "nameZh": "丰潭路",
          "nameEn": "Fengtan Lu",
          "target": "fengtan lu",
          "pinyin": "fengtanlu",
          "lat": 30.281911,
          "lon": 120.109629,
          "sequence": 24
        },
        {
          "id": "330100020003037",
          "stationId": "330100020003037",
          "nameZh": "文新",
          "nameEn": "Wenxin",
          "target": "wenxin",
          "pinyin": "wenxin",
          "lat": 30.289251,
          "lon": 120.098193,
          "sequence": 25
        },
        {
          "id": "330100020003038",
          "stationId": "330100020003038",
          "nameZh": "三坝",
          "nameEn": "Sanba",
          "target": "sanba",
          "pinyin": "sanba",
          "lat": 30.30002,
          "lon": 120.0979,
          "sequence": 26
        },
        {
          "id": "330100020003039",
          "stationId": "330100020003039",
          "nameZh": "虾龙圩",
          "nameEn": "Xialongwei",
          "target": "xialongwei",
          "pinyin": "xialongwei",
          "lat": 30.309587,
          "lon": 120.096383,
          "sequence": 27
        },
        {
          "id": "330100020003040",
          "stationId": "330100020003040",
          "nameZh": "三墩",
          "nameEn": "Sandun",
          "target": "sandun",
          "pinyin": "sandun",
          "lat": 30.320033,
          "lon": 120.093014,
          "sequence": 28
        },
        {
          "id": "330100020003041",
          "stationId": "330100020003041",
          "nameZh": "墩祥街",
          "nameEn": "Dunxiang Jie",
          "target": "dunxiang jie",
          "pinyin": "dunxiangjie",
          "lat": 30.331667,
          "lon": 120.087615,
          "sequence": 29
        },
        {
          "id": "330100020003042",
          "stationId": "330100020003042",
          "nameZh": "金家渡",
          "nameEn": "Jinjiadu",
          "target": "jinjiadu",
          "pinyin": "jinjiadu",
          "lat": 30.339103,
          "lon": 120.083937,
          "sequence": 30
        },
        {
          "id": "330100020003043",
          "stationId": "330100020003043",
          "nameZh": "白洋",
          "nameEn": "Baiyang",
          "target": "baiyang",
          "pinyin": "baiyang",
          "lat": 30.351155,
          "lon": 120.072905,
          "sequence": 31
        },
        {
          "id": "330100020003044",
          "stationId": "330100020003044",
          "nameZh": "杜甫村",
          "nameEn": "Dufucun",
          "target": "dufucun",
          "pinyin": "dufucun",
          "lat": 30.359033,
          "lon": 120.056549,
          "sequence": 32
        },
        {
          "id": "330100020003045",
          "stationId": "330100020003045",
          "nameZh": "良渚",
          "nameEn": "Liangzhu",
          "target": "liangzhu",
          "pinyin": "liangzhu",
          "lat": 30.358992,
          "lon": 120.041654,
          "sequence": 33
        }
      ],
      "segments": [
        [
          "330100020003002",
          "330100020003003",
          "330100020003004",
          "330100020003005",
          "330100020003006",
          "330100020003007",
          "330100020003008",
          "330100020003009",
          "330100020003010",
          "330100020003011",
          "330100020003012",
          "330100020003013",
          "330100020003014",
          "330100020003026",
          "330100020003027",
          "330100020003028",
          "330100020003029",
          "330100020003030",
          "330100020003031",
          "330100020003032",
          "330100020003046",
          "330100020003034",
          "330100020003035",
          "330100020003036",
          "330100020003037",
          "330100020003038",
          "330100020003039",
          "330100020003040",
          "330100020003041",
          "330100020003042",
          "330100020003043",
          "330100020003044",
          "330100020003045"
        ]
      ]
    },
    {
      "id": "3301-3",
      "operatorId": "3301",
      "operatorName": "杭州地铁",
      "lineId": "3",
      "lineName": "3号线",
      "color": "#FFA500",
      "loop": false,
      "stations": [
        {
          "id": "900000092651050",
          "stationId": "900000092651050",
          "nameZh": "吴山前村",
          "nameEn": "Wushan Qiancun",
          "target": "wushan qiancun",
          "pinyin": "wushanqiancun",
          "lat": 30.311359,
          "lon": 119.980178,
          "sequence": 1
        },
        {
          "id": "900000092651051",
          "stationId": "900000092651051",
          "nameZh": "汤家村",
          "nameEn": "Tangjiacun",
          "target": "tangjiacun",
          "pinyin": "tangjiacun",
          "lat": 30.305485,
          "lon": 119.981929,
          "sequence": 2
        },
        {
          "id": "900000092651052",
          "stationId": "900000092651052",
          "nameZh": "火车西站",
          "nameEn": "Huoche Xizhan",
          "target": "huoche xizhan",
          "pinyin": "huochexizhan",
          "lat": 30.297877,
          "lon": 119.986523,
          "sequence": 3
        },
        {
          "id": "900000092651053",
          "stationId": "900000092651053",
          "nameZh": "龙舟北路",
          "nameEn": "Longzhou Beilu",
          "target": "longzhou beilu",
          "pinyin": "longzhoubeilu",
          "lat": 30.288001,
          "lon": 119.983435,
          "sequence": 4
        },
        {
          "id": "900000092651032",
          "stationId": "900000092651032",
          "nameZh": "文一西路",
          "nameEn": "Wenyi Xilu",
          "target": "wenyi xilu",
          "pinyin": "wenyixilu",
          "lat": 30.27499,
          "lon": 119.98065,
          "sequence": 5
        },
        {
          "id": "900000065767042",
          "stationId": "900000065767042",
          "nameZh": "绿汀路",
          "nameEn": "Lvting Lu",
          "target": "lvting lu",
          "pinyin": "lvtinglu",
          "lat": 30.26014,
          "lon": 119.992062,
          "sequence": 6
        },
        {
          "id": "900000092651035",
          "stationId": "900000092651035",
          "nameZh": "全丰",
          "nameEn": "Quanfeng",
          "target": "quanfeng",
          "pinyin": "quanfeng",
          "lat": 30.246863,
          "lon": 120.008123,
          "sequence": 7
        },
        {
          "id": "900000092651036",
          "stationId": "900000092651036",
          "nameZh": "高教路",
          "nameEn": "Gaojiao Lu",
          "target": "gaojiao lu",
          "pinyin": "gaojiaolu",
          "lat": 30.242871,
          "lon": 120.019406,
          "sequence": 8
        },
        {
          "id": "900000092651037",
          "stationId": "900000092651037",
          "nameZh": "联胜路",
          "nameEn": "Liansheng Lu",
          "target": "liansheng lu",
          "pinyin": "lianshenglu",
          "lat": 30.244061,
          "lon": 120.032497,
          "sequence": 9
        },
        {
          "id": "900000092651038",
          "stationId": "900000092651038",
          "nameZh": "洪园",
          "nameEn": "Hongyuan",
          "target": "hongyuan",
          "pinyin": "hongyuan",
          "lat": 30.24829,
          "lon": 120.050372,
          "sequence": 10
        },
        {
          "id": "900000092651039",
          "stationId": "900000092651039",
          "nameZh": "西溪湿地南",
          "nameEn": "Xixi Shidi Nan",
          "target": "xixi shidi nan",
          "pinyin": "xixishidinan",
          "lat": 30.253858,
          "lon": 120.061779,
          "sequence": 11
        },
        {
          "id": "900000092651040",
          "stationId": "900000092651040",
          "nameZh": "花坞",
          "nameEn": "Huawu",
          "target": "huawu",
          "pinyin": "huawu",
          "lat": 30.26075,
          "lon": 120.076724,
          "sequence": 12
        },
        {
          "id": "900000092651041",
          "stationId": "900000092651041",
          "nameZh": "东岳",
          "nameEn": "Dongyue",
          "target": "dongyue",
          "pinyin": "dongyue",
          "lat": 30.262171,
          "lon": 120.089527,
          "sequence": 13
        },
        {
          "id": "900000092651042",
          "stationId": "900000092651042",
          "nameZh": "古墩路",
          "nameEn": "Gudun Lu",
          "target": "gudun lu",
          "pinyin": "gudunlu",
          "lat": 30.265363,
          "lon": 120.101975,
          "sequence": 14
        },
        {
          "id": "900000092651043",
          "stationId": "900000092651043",
          "nameZh": "古荡新村",
          "nameEn": "Gudang Xincun",
          "target": "gudang xincun",
          "pinyin": "gudangxincun",
          "lat": 30.269789,
          "lon": 120.111229,
          "sequence": 15
        },
        {
          "id": "900000092651044",
          "stationId": "900000092651044",
          "nameZh": "古荡",
          "nameEn": "Gudang",
          "target": "gudang",
          "pinyin": "gudang",
          "lat": 30.270848,
          "lon": 120.122457,
          "sequence": 16
        },
        {
          "id": "900000092651045",
          "stationId": "900000092651045",
          "nameZh": "黄龙体育中心",
          "nameEn": "Huanglong Tiyuzhongxin",
          "target": "huanglong tiyuzhongxin",
          "pinyin": "huanglongtiyuzhongxin",
          "lat": 30.26819,
          "lon": 120.129899,
          "sequence": 17
        },
        {
          "id": "900000092651046",
          "stationId": "900000092651046",
          "nameZh": "黄龙洞",
          "nameEn": "Huanglongdong",
          "target": "huanglongdong",
          "pinyin": "huanglongdong",
          "lat": 30.265387,
          "lon": 120.140449,
          "sequence": 18
        },
        {
          "id": "330100020003031",
          "stationId": "330100020003031",
          "nameZh": "武林门",
          "nameEn": "Wulinmen",
          "target": "wulinmen",
          "pinyin": "wulinmen",
          "lat": 30.269668,
          "lon": 120.155365,
          "sequence": 19
        },
        {
          "id": "330100023133015",
          "stationId": "330100023133015",
          "nameZh": "武林广场",
          "nameEn": "Wulin Guangchang",
          "target": "wulin guangchang",
          "pinyin": "wulinguangchang",
          "lat": 30.272368,
          "lon": 120.164324,
          "sequence": 20
        },
        {
          "id": "330100023133014",
          "stationId": "330100023133014",
          "nameZh": "西湖文化广场",
          "nameEn": "Xihu Wenhua Guangchang",
          "target": "xihu wenhua guangchang",
          "pinyin": "xihuwenhuaguangchang",
          "lat": 30.279585,
          "lon": 120.165639,
          "sequence": 21
        },
        {
          "id": "900000092651019",
          "stationId": "900000092651019",
          "nameZh": "潮王路",
          "nameEn": "Chaowang Lu",
          "target": "chaowang lu",
          "pinyin": "chaowanglu",
          "lat": 30.290314,
          "lon": 120.158795,
          "sequence": 22
        },
        {
          "id": "900000092651020",
          "stationId": "900000092651020",
          "nameZh": "香积寺",
          "nameEn": "Xiangjisi",
          "target": "xiangjisi",
          "pinyin": "xiangjisi",
          "lat": 30.299974,
          "lon": 120.148795,
          "sequence": 23
        },
        {
          "id": "900000092651021",
          "stationId": "900000092651021",
          "nameZh": "大关",
          "nameEn": "Daguan",
          "target": "daguan",
          "pinyin": "daguan",
          "lat": 30.307815,
          "lon": 120.149143,
          "sequence": 24
        },
        {
          "id": "900000065767015",
          "stationId": "900000065767015",
          "nameZh": "善贤",
          "nameEn": "Shanxian",
          "target": "shanxian",
          "pinyin": "shanxian",
          "lat": 30.317478,
          "lon": 120.160651,
          "sequence": 25
        },
        {
          "id": "900000029624037",
          "stationId": "900000029624037",
          "nameZh": "新天地街",
          "nameEn": "Xintiandi Jie",
          "target": "xintiandi jie",
          "pinyin": "xintiandijie",
          "lat": 30.321168,
          "lon": 120.179584,
          "sequence": 26
        },
        {
          "id": "900000092651024",
          "stationId": "900000092651024",
          "nameZh": "汽轮广场",
          "nameEn": "Qilun Guangchang",
          "target": "qilun guangchang",
          "pinyin": "qilunguangchang",
          "lat": 30.334899,
          "lon": 120.188317,
          "sequence": 27
        },
        {
          "id": "900000092651025",
          "stationId": "900000092651025",
          "nameZh": "华丰路",
          "nameEn": "Huafeng Lu",
          "target": "huafeng lu",
          "pinyin": "huafenglu",
          "lat": 30.34005,
          "lon": 120.204384,
          "sequence": 28
        },
        {
          "id": "900000092651026",
          "stationId": "900000092651026",
          "nameZh": "同协路",
          "nameEn": "Tongxie Lu",
          "target": "tongxie lu",
          "pinyin": "tongxielu",
          "lat": 30.344386,
          "lon": 120.211873,
          "sequence": 29
        },
        {
          "id": "900000092651027",
          "stationId": "900000092651027",
          "nameZh": "桃花湖公园",
          "nameEn": "Tao Huahu Gongyuan",
          "target": "tao huahu gongyuan",
          "pinyin": "taohuahugongyuan",
          "lat": 30.351468,
          "lon": 120.221315,
          "sequence": 30
        },
        {
          "id": "900000092651028",
          "stationId": "900000092651028",
          "nameZh": "丁桥",
          "nameEn": "Dingqiao",
          "target": "dingqiao",
          "pinyin": "dingqiao",
          "lat": 30.355786,
          "lon": 120.234606,
          "sequence": 31
        },
        {
          "id": "900000092651029",
          "stationId": "900000092651029",
          "nameZh": "华鹤街",
          "nameEn": "Huahe Jie",
          "target": "huahe jie",
          "pinyin": "huahejie",
          "lat": 30.370397,
          "lon": 120.237758,
          "sequence": 32
        },
        {
          "id": "900000092651030",
          "stationId": "900000092651030",
          "nameZh": "黄鹤山",
          "nameEn": "Huang Heshan",
          "target": "huang heshan",
          "pinyin": "huangheshan",
          "lat": 30.380952,
          "lon": 120.246438,
          "sequence": 33
        },
        {
          "id": "900000092651031",
          "stationId": "900000092651031",
          "nameZh": "星桥",
          "nameEn": "Xingqiao",
          "target": "xingqiao",
          "pinyin": "xingqiao",
          "lat": 30.389241,
          "lon": 120.263582,
          "sequence": 34
        },
        {
          "id": "900000096933004",
          "stationId": "900000096933004",
          "nameZh": "留下",
          "nameEn": "Liuxia",
          "target": "liuxia",
          "pinyin": "liuxia",
          "lat": 30.241056,
          "lon": 120.052093,
          "sequence": 35
        },
        {
          "id": "900000096933003",
          "stationId": "900000096933003",
          "nameZh": "屏峰",
          "nameEn": "Pingfeng",
          "target": "pingfeng",
          "pinyin": "pingfeng",
          "lat": 30.222908,
          "lon": 120.037251,
          "sequence": 36
        },
        {
          "id": "900000096933002",
          "stationId": "900000096933002",
          "nameZh": "小和山",
          "nameEn": "Xiao Heshan",
          "target": "xiao heshan",
          "pinyin": "xiaoheshan",
          "lat": 30.211893,
          "lon": 120.021049,
          "sequence": 37
        },
        {
          "id": "900000096933001",
          "stationId": "900000096933001",
          "nameZh": "石马",
          "nameEn": "Shima",
          "target": "shima",
          "pinyin": "shima",
          "lat": 30.206719,
          "lon": 120.010966,
          "sequence": 38
        }
      ],
      "segments": [
        [
          "900000092651050",
          "900000092651051",
          "900000092651052",
          "900000092651053",
          "900000092651032",
          "900000065767042",
          "900000092651035",
          "900000092651036",
          "900000092651037",
          "900000092651038",
          "900000092651039",
          "900000092651040",
          "900000092651041",
          "900000092651042",
          "900000092651043",
          "900000092651044",
          "900000092651045",
          "900000092651046",
          "330100020003031",
          "330100023133015",
          "330100023133014",
          "900000092651019",
          "900000092651020",
          "900000092651021",
          "900000065767015",
          "900000029624037",
          "900000092651024",
          "900000092651025",
          "900000092651026",
          "900000092651027",
          "900000092651028",
          "900000092651029",
          "900000092651030",
          "900000092651031"
        ],
        [
          "900000092651031",
          "900000092651030",
          "900000092651029",
          "900000092651028",
          "900000092651027",
          "900000092651026",
          "900000092651025",
          "900000092651024",
          "900000029624037",
          "900000065767015",
          "900000092651021",
          "900000092651020",
          "900000092651019",
          "330100023133014",
          "330100023133015",
          "330100020003031",
          "900000092651046",
          "900000092651045",
          "900000092651044",
          "900000092651043",
          "900000092651042",
          "900000092651041",
          "900000092651040",
          "900000092651039",
          "900000096933004",
          "900000096933003",
          "900000096933002",
          "900000096933001"
        ]
      ]
    },
    {
      "id": "3301-4",
      "operatorId": "3301",
      "operatorName": "杭州地铁",
      "lineId": "4",
      "lineName": "4号线",
      "color": "#00AB4F",
      "loop": false,
      "stations": [
        {
          "id": "900000029624026",
          "stationId": "900000029624026",
          "nameZh": "浦沿",
          "nameEn": "Puyan",
          "target": "puyan",
          "pinyin": "puyan",
          "lat": 30.159703,
          "lon": 120.15338,
          "sequence": 1
        },
        {
          "id": "900000029624025",
          "stationId": "900000029624025",
          "nameZh": "杨家墩",
          "nameEn": "Yangjiadun",
          "target": "yangjiadun",
          "pinyin": "yangjiadun",
          "lat": 30.16782,
          "lon": 120.14886,
          "sequence": 2
        },
        {
          "id": "900000029624024",
          "stationId": "900000029624024",
          "nameZh": "中医药大学",
          "nameEn": "Zhongyiyao Daxue",
          "target": "zhongyiyao daxue",
          "pinyin": "zhongyiyaodaxue",
          "lat": 30.175802,
          "lon": 120.146432,
          "sequence": 3
        },
        {
          "id": "900000029624023",
          "stationId": "900000029624023",
          "nameZh": "联庄",
          "nameEn": "Lianzhuang",
          "target": "lianzhuang",
          "pinyin": "lianzhuang",
          "lat": 30.186648,
          "lon": 120.152024,
          "sequence": 4
        },
        {
          "id": "900000029624022",
          "stationId": "900000029624022",
          "nameZh": "水澄桥",
          "nameEn": "Shuicheng Qiao",
          "target": "shuicheng qiao",
          "pinyin": "shuichengqiao",
          "lat": 30.204075,
          "lon": 120.151946,
          "sequence": 5
        },
        {
          "id": "900000029624021",
          "stationId": "900000029624021",
          "nameZh": "复兴路",
          "nameEn": "Fuxing Lu",
          "target": "fuxing lu",
          "pinyin": "fuxinglu",
          "lat": 30.210287,
          "lon": 120.163407,
          "sequence": 6
        },
        {
          "id": "900000029624020",
          "stationId": "900000029624020",
          "nameZh": "南星桥",
          "nameEn": "Nanxingqiao",
          "target": "nanxingqiao",
          "pinyin": "nanxingqiao",
          "lat": 30.217295,
          "lon": 120.177384,
          "sequence": 7
        },
        {
          "id": "900000029624019",
          "stationId": "900000029624019",
          "nameZh": "甬江路",
          "nameEn": "Yongjiang Lu",
          "target": "yongjiang lu",
          "pinyin": "yongjianglu",
          "lat": 30.224098,
          "lon": 120.190213,
          "sequence": 8
        },
        {
          "id": "330100023133021",
          "stationId": "330100023133021",
          "nameZh": "近江",
          "nameEn": "Jinjiang",
          "target": "jinjiang",
          "pinyin": "jinjiang",
          "lat": 30.230791,
          "lon": 120.197851,
          "sequence": 9
        },
        {
          "id": "900000029624009",
          "stationId": "900000029624009",
          "nameZh": "城星路",
          "nameEn": "Chengxing Lu",
          "target": "chengxing lu",
          "pinyin": "chengxinglu",
          "lat": 30.239643,
          "lon": 120.206954,
          "sequence": 10
        },
        {
          "id": "900000029624008",
          "stationId": "900000029624008",
          "nameZh": "市民中心",
          "nameEn": "Shimin Zhongxin",
          "target": "shimin zhongxin",
          "pinyin": "shiminzhongxin",
          "lat": 30.244809,
          "lon": 120.211213,
          "sequence": 11
        },
        {
          "id": "900000029624007",
          "stationId": "900000029624007",
          "nameZh": "江锦路",
          "nameEn": "Jiangjin Lu",
          "target": "jiangjin lu",
          "pinyin": "jiangjinlu",
          "lat": 30.249727,
          "lon": 120.215568,
          "sequence": 12
        },
        {
          "id": "330100020003014",
          "stationId": "330100020003014",
          "nameZh": "钱江路",
          "nameEn": "Qianjiang Lu",
          "target": "qianjiang lu",
          "pinyin": "qianjianglu",
          "lat": 30.255978,
          "lon": 120.213387,
          "sequence": 13
        },
        {
          "id": "900000029624005",
          "stationId": "900000029624005",
          "nameZh": "景芳",
          "nameEn": "Jingfang",
          "target": "jingfang",
          "pinyin": "jingfang",
          "lat": 30.264903,
          "lon": 120.207708,
          "sequence": 14
        },
        {
          "id": "900000029624004",
          "stationId": "900000029624004",
          "nameZh": "新塘",
          "nameEn": "Xintang",
          "target": "xintang",
          "pinyin": "xintang",
          "lat": 30.276171,
          "lon": 120.207386,
          "sequence": 15
        },
        {
          "id": "900000029624003",
          "stationId": "900000029624003",
          "nameZh": "新风",
          "nameEn": "Xinfeng",
          "target": "xinfeng",
          "pinyin": "xinfeng",
          "lat": 30.287244,
          "lon": 120.20808,
          "sequence": 16
        },
        {
          "id": "330100023133011",
          "stationId": "330100023133011",
          "nameZh": "火车东站",
          "nameEn": "Huoche Dongzhan",
          "target": "huoche dongzhan",
          "pinyin": "huochedongzhan",
          "lat": 30.291124,
          "lon": 120.212892,
          "sequence": 17
        },
        {
          "id": "330100023133010",
          "stationId": "330100023133010",
          "nameZh": "彭埠",
          "nameEn": "Pengbu",
          "target": "pengbu",
          "pinyin": "pengbu",
          "lat": 30.294065,
          "lon": 120.223661,
          "sequence": 18
        },
        {
          "id": "900000029624041",
          "stationId": "900000029624041",
          "nameZh": "明石路",
          "nameEn": "Mingshi Lu",
          "target": "mingshi lu",
          "pinyin": "mingshilu",
          "lat": 30.303573,
          "lon": 120.22742,
          "sequence": 19
        },
        {
          "id": "900000029624040",
          "stationId": "900000029624040",
          "nameZh": "黎明",
          "nameEn": "Liming",
          "target": "liming",
          "pinyin": "liming",
          "lat": 30.315246,
          "lon": 120.223611,
          "sequence": 20
        },
        {
          "id": "900000029624039",
          "stationId": "900000029624039",
          "nameZh": "笕桥老街",
          "nameEn": "Jianqiao Laojie",
          "target": "jianqiao laojie",
          "pinyin": "jianqiaolaojie",
          "lat": 30.323009,
          "lon": 120.219652,
          "sequence": 21
        },
        {
          "id": "900000029624038",
          "stationId": "900000029624038",
          "nameZh": "华中南路",
          "nameEn": "Huazhong Nanlu",
          "target": "huazhong nanlu",
          "pinyin": "huazhongnanlu",
          "lat": 30.323978,
          "lon": 120.200064,
          "sequence": 22
        },
        {
          "id": "900000029624037",
          "stationId": "900000029624037",
          "nameZh": "新天地街",
          "nameEn": "Xintiandi Jie",
          "target": "xintiandi jie",
          "pinyin": "xintiandijie",
          "lat": 30.321168,
          "lon": 120.179584,
          "sequence": 23
        },
        {
          "id": "900000029624036",
          "stationId": "900000029624036",
          "nameZh": "皋亭坝",
          "nameEn": "Gaotingba",
          "target": "gaotingba",
          "pinyin": "gaotingba",
          "lat": 30.330407,
          "lon": 120.172197,
          "sequence": 24
        },
        {
          "id": "900000029624035",
          "stationId": "900000029624035",
          "nameZh": "桃源街",
          "nameEn": "Taoyuan Jie",
          "target": "taoyuan jie",
          "pinyin": "taoyuanjie",
          "lat": 30.341489,
          "lon": 120.178545,
          "sequence": 25
        },
        {
          "id": "900000029624034",
          "stationId": "900000029624034",
          "nameZh": "吴家角港",
          "nameEn": "Wujia Jiaogang",
          "target": "wujia jiaogang",
          "pinyin": "wujiajiaogang",
          "lat": 30.351086,
          "lon": 120.169305,
          "sequence": 26
        },
        {
          "id": "900000029624033",
          "stationId": "900000029624033",
          "nameZh": "独城生态公园",
          "nameEn": "Ducheng Shengtaigongyuan",
          "target": "ducheng shengtaigongyuan",
          "pinyin": "duchengshengtaigongyuan",
          "lat": 30.357109,
          "lon": 120.161388,
          "sequence": 27
        },
        {
          "id": "900000029624032",
          "stationId": "900000029624032",
          "nameZh": "平安桥",
          "nameEn": "Pingan Qiao",
          "target": "pingan qiao",
          "pinyin": "pinganqiao",
          "lat": 30.357189,
          "lon": 120.143808,
          "sequence": 28
        },
        {
          "id": "900000029624031",
          "stationId": "900000029624031",
          "nameZh": "储运路",
          "nameEn": "Chuyun Lu",
          "target": "chuyun lu",
          "pinyin": "chuyunlu",
          "lat": 30.353879,
          "lon": 120.128247,
          "sequence": 29
        },
        {
          "id": "900000029624030",
          "stationId": "900000029624030",
          "nameZh": "杭行路",
          "nameEn": "Hangxing Lu",
          "target": "hangxing lu",
          "pinyin": "hangxinglu",
          "lat": 30.353535,
          "lon": 120.114455,
          "sequence": 30
        },
        {
          "id": "900000029624029",
          "stationId": "900000029624029",
          "nameZh": "好运街",
          "nameEn": "Haoyun Jie",
          "target": "haoyun jie",
          "pinyin": "haoyunjie",
          "lat": 30.350198,
          "lon": 120.100048,
          "sequence": 31
        },
        {
          "id": "330100020003042",
          "stationId": "330100020003042",
          "nameZh": "金家渡",
          "nameEn": "Jinjiadu",
          "target": "jinjiadu",
          "pinyin": "jinjiadu",
          "lat": 30.339103,
          "lon": 120.083937,
          "sequence": 32
        },
        {
          "id": "900000029624027",
          "stationId": "900000029624027",
          "nameZh": "池华街",
          "nameEn": "Chihua Jie",
          "target": "chihua jie",
          "pinyin": "chihuajie",
          "lat": 30.327626,
          "lon": 120.068507,
          "sequence": 33
        }
      ],
      "segments": [
        [
          "900000029624026",
          "900000029624025",
          "900000029624024",
          "900000029624023",
          "900000029624022",
          "900000029624021",
          "900000029624020",
          "900000029624019",
          "330100023133021",
          "900000029624009",
          "900000029624008",
          "900000029624007",
          "330100020003014",
          "900000029624005",
          "900000029624004",
          "900000029624003",
          "330100023133011",
          "330100023133010",
          "900000029624041",
          "900000029624040",
          "900000029624039",
          "900000029624038",
          "900000029624037",
          "900000029624036",
          "900000029624035",
          "900000029624034",
          "900000029624033",
          "900000029624032",
          "900000029624031",
          "900000029624030",
          "900000029624029",
          "330100020003042",
          "900000029624027"
        ]
      ]
    },
    {
      "id": "3301-5",
      "operatorId": "3301",
      "operatorName": "杭州地铁",
      "lineId": "5",
      "lineName": "5号线",
      "color": "#008FA5",
      "loop": false,
      "stations": [
        {
          "id": "900000065767068",
          "stationId": "900000065767068",
          "nameZh": "南湖东",
          "nameEn": "Nan Hudong",
          "target": "nan hudong",
          "pinyin": "nanhudong",
          "lat": 30.260024,
          "lon": 119.946993,
          "sequence": 1
        },
        {
          "id": "900000065767041",
          "stationId": "900000065767041",
          "nameZh": "金星",
          "nameEn": "Jinxing",
          "target": "jinxing",
          "pinyin": "jinxing",
          "lat": 30.265041,
          "lon": 119.966536,
          "sequence": 2
        },
        {
          "id": "900000065767042",
          "stationId": "900000065767042",
          "nameZh": "绿汀路",
          "nameEn": "Lvting Lu",
          "target": "lvting lu",
          "pinyin": "lvtinglu",
          "lat": 30.26014,
          "lon": 119.992062,
          "sequence": 3
        },
        {
          "id": "900000065767043",
          "stationId": "900000065767043",
          "nameZh": "葛巷",
          "nameEn": "Ge Xiang",
          "target": "ge xiang",
          "pinyin": "gexiang",
          "lat": 30.270354,
          "lon": 119.99882,
          "sequence": 4
        },
        {
          "id": "900000065767044",
          "stationId": "900000065767044",
          "nameZh": "创景路",
          "nameEn": "Chuangjing Lu",
          "target": "chuangjing lu",
          "pinyin": "chuangjinglu",
          "lat": 30.278112,
          "lon": 119.998033,
          "sequence": 5
        },
        {
          "id": "900000065767004",
          "stationId": "900000065767004",
          "nameZh": "良睦路",
          "nameEn": "Liangmu Lu",
          "target": "liangmu lu",
          "pinyin": "liangmulu",
          "lat": 30.285682,
          "lon": 120.007357,
          "sequence": 6
        },
        {
          "id": "900000065767005",
          "stationId": "900000065767005",
          "nameZh": "杭师大仓前",
          "nameEn": "Hangshida Cangqian",
          "target": "hangshida cangqian",
          "pinyin": "hangshidacangqian",
          "lat": 30.288592,
          "lon": 120.01721,
          "sequence": 7
        },
        {
          "id": "900000065767006",
          "stationId": "900000065767006",
          "nameZh": "永福",
          "nameEn": "Yongfu",
          "target": "yongfu",
          "pinyin": "yongfu",
          "lat": 30.291577,
          "lon": 120.027057,
          "sequence": 8
        },
        {
          "id": "900000065767007",
          "stationId": "900000065767007",
          "nameZh": "五常",
          "nameEn": "Wuchang",
          "target": "wuchang",
          "pinyin": "wuchang",
          "lat": 30.296279,
          "lon": 120.044889,
          "sequence": 9
        },
        {
          "id": "900000065767008",
          "stationId": "900000065767008",
          "nameZh": "蒋村",
          "nameEn": "Jiangcun",
          "target": "jiangcun",
          "pinyin": "jiangcun",
          "lat": 30.29484,
          "lon": 120.067353,
          "sequence": 10
        },
        {
          "id": "900000065767009",
          "stationId": "900000065767009",
          "nameZh": "浙大紫金港",
          "nameEn": "Zheda Zijingang",
          "target": "zheda zijingang",
          "pinyin": "zhedazijingang",
          "lat": 30.294167,
          "lon": 120.07671,
          "sequence": 11
        },
        {
          "id": "330100020003038",
          "stationId": "330100020003038",
          "nameZh": "三坝",
          "nameEn": "Sanba",
          "target": "sanba",
          "pinyin": "sanba",
          "lat": 30.30002,
          "lon": 120.0979,
          "sequence": 12
        },
        {
          "id": "900000065767011",
          "stationId": "900000065767011",
          "nameZh": "萍水街",
          "nameEn": "Pingshui Jie",
          "target": "pingshui jie",
          "pinyin": "pingshuijie",
          "lat": 30.302806,
          "lon": 120.112745,
          "sequence": 13
        },
        {
          "id": "900000065767012",
          "stationId": "900000065767012",
          "nameZh": "和睦",
          "nameEn": "Hemu",
          "target": "hemu",
          "pinyin": "hemu",
          "lat": 30.308544,
          "lon": 120.119367,
          "sequence": 14
        },
        {
          "id": "900000065767013",
          "stationId": "900000065767013",
          "nameZh": "大运河",
          "nameEn": "Dayunhe",
          "target": "dayunhe",
          "pinyin": "dayunhe",
          "lat": 30.319279,
          "lon": 120.131341,
          "sequence": 15
        },
        {
          "id": "900000065767014",
          "stationId": "900000065767014",
          "nameZh": "拱宸桥东",
          "nameEn": "Gongchenqiao Dong",
          "target": "gongchenqiao dong",
          "pinyin": "gongchenqiaodong",
          "lat": 30.317061,
          "lon": 120.147977,
          "sequence": 16
        },
        {
          "id": "900000065767015",
          "stationId": "900000065767015",
          "nameZh": "善贤",
          "nameEn": "Shanxian",
          "target": "shanxian",
          "pinyin": "shanxian",
          "lat": 30.317478,
          "lon": 120.160651,
          "sequence": 17
        },
        {
          "id": "900000065767045",
          "stationId": "900000065767045",
          "nameZh": "西文街",
          "nameEn": "Xiwen Jie",
          "target": "xiwen jie",
          "pinyin": "xiwenjie",
          "lat": 30.31603,
          "lon": 120.169934,
          "sequence": 18
        },
        {
          "id": "900000065767046",
          "stationId": "900000065767046",
          "nameZh": "东新园",
          "nameEn": "Dong Xinyuan",
          "target": "dong xinyuan",
          "pinyin": "dongxinyuan",
          "lat": 30.308325,
          "lon": 120.175849,
          "sequence": 19
        },
        {
          "id": "900000065767047",
          "stationId": "900000065767047",
          "nameZh": "杭氧",
          "nameEn": "Hangyang",
          "target": "hangyang",
          "pinyin": "hangyang",
          "lat": 30.295539,
          "lon": 120.178913,
          "sequence": 20
        },
        {
          "id": "330100023133013",
          "stationId": "330100023133013",
          "nameZh": "打铁关",
          "nameEn": "Datieguan",
          "target": "datieguan",
          "pinyin": "datieguan",
          "lat": 30.285425,
          "lon": 120.176739,
          "sequence": 21
        },
        {
          "id": "900000065767049",
          "stationId": "900000065767049",
          "nameZh": "宝善桥",
          "nameEn": "Baoshan Qiao",
          "target": "baoshan qiao",
          "pinyin": "baoshanqiao",
          "lat": 30.271799,
          "lon": 120.179868,
          "sequence": 22
        },
        {
          "id": "330100020003028",
          "stationId": "330100020003028",
          "nameZh": "建国北路",
          "nameEn": "Jianguo Beilu",
          "target": "jianguo beilu",
          "pinyin": "jianguobeilu",
          "lat": 30.264552,
          "lon": 120.180761,
          "sequence": 23
        },
        {
          "id": "900000065767051",
          "stationId": "900000065767051",
          "nameZh": "万安桥",
          "nameEn": "Wanan Qiao",
          "target": "wanan qiao",
          "pinyin": "wananqiao",
          "lat": 30.254052,
          "lon": 120.180595,
          "sequence": 24
        },
        {
          "id": "330100023133019",
          "stationId": "330100023133019",
          "nameZh": "城站",
          "nameEn": "Chengzhan",
          "target": "chengzhan",
          "pinyin": "chengzhan",
          "lat": 30.244567,
          "lon": 120.18077,
          "sequence": 25
        },
        {
          "id": "900000065767053",
          "stationId": "900000065767053",
          "nameZh": "江城路",
          "nameEn": "Jiangcheng Lu",
          "target": "jiangcheng lu",
          "pinyin": "jiangchenglu",
          "lat": 30.238561,
          "lon": 120.178205,
          "sequence": 26
        },
        {
          "id": "900000065767054",
          "stationId": "900000065767054",
          "nameZh": "候潮门",
          "nameEn": "Houchaomen",
          "target": "houchaomen",
          "pinyin": "houchaomen",
          "lat": 30.226616,
          "lon": 120.173019,
          "sequence": 27
        },
        {
          "id": "900000029624020",
          "stationId": "900000029624020",
          "nameZh": "南星桥",
          "nameEn": "Nanxingqiao",
          "target": "nanxingqiao",
          "pinyin": "nanxingqiao",
          "lat": 30.217295,
          "lon": 120.177384,
          "sequence": 28
        },
        {
          "id": "900000062493012",
          "stationId": "900000062493012",
          "nameZh": "长河",
          "nameEn": "Changhe",
          "target": "changhe",
          "pinyin": "changhe",
          "lat": 30.197248,
          "lon": 120.193941,
          "sequence": 29
        },
        {
          "id": "900000065767057",
          "stationId": "900000065767057",
          "nameZh": "聚才路",
          "nameEn": "Jucai Lu",
          "target": "jucai lu",
          "pinyin": "jucailu",
          "lat": 30.182426,
          "lon": 120.198803,
          "sequence": 30
        },
        {
          "id": "900000065767058",
          "stationId": "900000065767058",
          "nameZh": "江晖路",
          "nameEn": "Jianghui Lu",
          "target": "jianghui lu",
          "pinyin": "jianghuilu",
          "lat": 30.181579,
          "lon": 120.212417,
          "sequence": 31
        },
        {
          "id": "330100023133025",
          "stationId": "330100023133025",
          "nameZh": "滨康路",
          "nameEn": "Binkang Lu",
          "target": "binkang lu",
          "pinyin": "binkanglu",
          "lat": 30.183864,
          "lon": 120.231003,
          "sequence": 32
        },
        {
          "id": "900000065767060",
          "stationId": "900000065767060",
          "nameZh": "博奥路",
          "nameEn": "Boao Lu",
          "target": "boao lu",
          "pinyin": "boaolu",
          "lat": 30.182338,
          "lon": 120.244164,
          "sequence": 33
        },
        {
          "id": "900000065767061",
          "stationId": "900000065767061",
          "nameZh": "金鸡路",
          "nameEn": "Jinji Lu",
          "target": "jinji lu",
          "pinyin": "jinjilu",
          "lat": 30.181697,
          "lon": 120.253402,
          "sequence": 34
        },
        {
          "id": "330100020003007",
          "stationId": "330100020003007",
          "nameZh": "人民广场",
          "nameEn": "Renmin Guangchang",
          "target": "renmin guangchang",
          "pinyin": "renminguangchang",
          "lat": 30.181086,
          "lon": 120.266803,
          "sequence": 35
        },
        {
          "id": "900000065767063",
          "stationId": "900000065767063",
          "nameZh": "育才北路",
          "nameEn": "Yucai Beilu",
          "target": "yucai beilu",
          "pinyin": "yucaibeilu",
          "lat": 30.180823,
          "lon": 120.277897,
          "sequence": 36
        },
        {
          "id": "900000065767064",
          "stationId": "900000065767064",
          "nameZh": "通惠中路",
          "nameEn": "Tonghui Zhonglu",
          "target": "tonghui zhonglu",
          "pinyin": "tonghuizhonglu",
          "lat": 30.180485,
          "lon": 120.285183,
          "sequence": 37
        },
        {
          "id": "900000065767065",
          "stationId": "900000065767065",
          "nameZh": "火车南站",
          "nameEn": "Huoche Nanzhan",
          "target": "huoche nanzhan",
          "pinyin": "huochenanzhan",
          "lat": 30.17267,
          "lon": 120.297331,
          "sequence": 38
        },
        {
          "id": "900000065767066",
          "stationId": "900000065767066",
          "nameZh": "双桥",
          "nameEn": "Shuangqiao",
          "target": "shuangqiao",
          "pinyin": "shuangqiao",
          "lat": 30.173139,
          "lon": 120.30877,
          "sequence": 39
        },
        {
          "id": "900000065767067",
          "stationId": "900000065767067",
          "nameZh": "姑娘桥",
          "nameEn": "Guniang Qiao",
          "target": "guniang qiao",
          "pinyin": "guniangqiao",
          "lat": 30.176001,
          "lon": 120.330313,
          "sequence": 40
        }
      ],
      "segments": [
        [
          "900000065767068",
          "900000065767041",
          "900000065767042",
          "900000065767043",
          "900000065767044",
          "900000065767004",
          "900000065767005",
          "900000065767006",
          "900000065767007",
          "900000065767008",
          "900000065767009",
          "330100020003038",
          "900000065767011",
          "900000065767012",
          "900000065767013",
          "900000065767014",
          "900000065767015",
          "900000065767045",
          "900000065767046",
          "900000065767047",
          "330100023133013",
          "900000065767049",
          "330100020003028",
          "900000065767051",
          "330100023133019",
          "900000065767053",
          "900000065767054",
          "900000029624020",
          "900000062493012",
          "900000065767057",
          "900000065767058",
          "330100023133025",
          "900000065767060",
          "900000065767061",
          "330100020003007",
          "900000065767063",
          "900000065767064",
          "900000065767065",
          "900000065767066",
          "900000065767067"
        ]
      ]
    },
    {
      "id": "3301-6",
      "operatorId": "3301",
      "operatorName": "杭州地铁",
      "lineId": "6",
      "lineName": "6号线",
      "color": "#2249A3",
      "loop": false,
      "stations": [
        {
          "id": "900000062493026",
          "stationId": "900000062493026",
          "nameZh": "枸桔弄",
          "nameEn": "Goujielong",
          "target": "goujielong",
          "pinyin": "goujielong",
          "lat": 30.301238,
          "lon": 120.206547,
          "sequence": 1
        },
        {
          "id": "900000062493025",
          "stationId": "900000062493025",
          "nameZh": "火车东站(东广场)",
          "nameEn": "Huoche Dongzhan (dong Guangchang)",
          "target": "huoche dongzhan dong guangchang",
          "pinyin": "huochedongzhandongguangchang",
          "lat": 30.294056,
          "lon": 120.215915,
          "sequence": 2
        },
        {
          "id": "900000062493024",
          "stationId": "900000062493024",
          "nameZh": "元宝塘",
          "nameEn": "Yuanbao Tang",
          "target": "yuanbao tang",
          "pinyin": "yuanbaotang",
          "lat": 30.284007,
          "lon": 120.220572,
          "sequence": 3
        },
        {
          "id": "900000062493023",
          "stationId": "900000062493023",
          "nameZh": "昙花庵路",
          "nameEn": "Tanhuaan Lu",
          "target": "tanhuaan lu",
          "pinyin": "tanhuaanlu",
          "lat": 30.276397,
          "lon": 120.222845,
          "sequence": 4
        },
        {
          "id": "900000062493022",
          "stationId": "900000062493022",
          "nameZh": "三堡",
          "nameEn": "Sanbao",
          "target": "sanbao",
          "pinyin": "sanbao",
          "lat": 30.266822,
          "lon": 120.227958,
          "sequence": 5
        },
        {
          "id": "900000062493021",
          "stationId": "900000062493021",
          "nameZh": "亚运村",
          "nameEn": "Yayuncun",
          "target": "yayuncun",
          "pinyin": "yayuncun",
          "lat": 30.257688,
          "lon": 120.247398,
          "sequence": 6
        },
        {
          "id": "900000062493020",
          "stationId": "900000062493020",
          "nameZh": "丰北",
          "nameEn": "Fengbei",
          "target": "fengbei",
          "pinyin": "fengbei",
          "lat": 30.250049,
          "lon": 120.250235,
          "sequence": 7
        },
        {
          "id": "330100020003013",
          "stationId": "330100020003013",
          "nameZh": "钱江世纪城",
          "nameEn": "Qianjiang Shijicheng",
          "target": "qianjiang shijicheng",
          "pinyin": "qianjiangshijicheng",
          "lat": 30.240379,
          "lon": 120.244477,
          "sequence": 8
        },
        {
          "id": "900000062493017",
          "stationId": "900000062493017",
          "nameZh": "博览中心",
          "nameEn": "Bolan Zhongxin",
          "target": "bolan zhongxin",
          "pinyin": "bolanzhongxin",
          "lat": 30.232448,
          "lon": 120.236506,
          "sequence": 9
        },
        {
          "id": "900000062493016",
          "stationId": "900000062493016",
          "nameZh": "奥体中心",
          "nameEn": "Aoti Zhongxin",
          "target": "aoti zhongxin",
          "pinyin": "aotizhongxin",
          "lat": 30.224071,
          "lon": 120.232974,
          "sequence": 10
        },
        {
          "id": "900000062493015",
          "stationId": "900000062493015",
          "nameZh": "星民",
          "nameEn": "Xingmin",
          "target": "xingmin",
          "pinyin": "xingmin",
          "lat": 30.213218,
          "lon": 120.22386,
          "sequence": 11
        },
        {
          "id": "330100023133022",
          "stationId": "330100023133022",
          "nameZh": "江陵路",
          "nameEn": "Jiangling Lu",
          "target": "jiangling lu",
          "pinyin": "jianglinglu",
          "lat": 30.208999,
          "lon": 120.216603,
          "sequence": 12
        },
        {
          "id": "900000062493013",
          "stationId": "900000062493013",
          "nameZh": "江汉路",
          "nameEn": "Jianghan Lu",
          "target": "jianghan lu",
          "pinyin": "jianghanlu",
          "lat": 30.202836,
          "lon": 120.204943,
          "sequence": 13
        },
        {
          "id": "900000062493012",
          "stationId": "900000062493012",
          "nameZh": "长河",
          "nameEn": "Changhe",
          "target": "changhe",
          "pinyin": "changhe",
          "lat": 30.197248,
          "lon": 120.193941,
          "sequence": 14
        },
        {
          "id": "900000062493011",
          "stationId": "900000062493011",
          "nameZh": "建业路",
          "nameEn": "Jianye Lu",
          "target": "jianye lu",
          "pinyin": "jianyelu",
          "lat": 30.190474,
          "lon": 120.178743,
          "sequence": 15
        },
        {
          "id": "900000062493010",
          "stationId": "900000062493010",
          "nameZh": "诚业路",
          "nameEn": "Chengye Lu",
          "target": "chengye lu",
          "pinyin": "chengyelu",
          "lat": 30.186693,
          "lon": 120.170027,
          "sequence": 16
        },
        {
          "id": "900000062493009",
          "stationId": "900000062493009",
          "nameZh": "伟业路",
          "nameEn": "Weiye Lu",
          "target": "weiye lu",
          "pinyin": "weiyelu",
          "lat": 30.182364,
          "lon": 120.159056,
          "sequence": 17
        },
        {
          "id": "900000029624024",
          "stationId": "900000029624024",
          "nameZh": "中医药大学",
          "nameEn": "Zhongyiyao Daxue",
          "target": "zhongyiyao daxue",
          "pinyin": "zhongyiyaodaxue",
          "lat": 30.175802,
          "lon": 120.146432,
          "sequence": 18
        },
        {
          "id": "900000062493007",
          "stationId": "900000062493007",
          "nameZh": "西浦路",
          "nameEn": "Xipu Lu",
          "target": "xipu lu",
          "pinyin": "xipulu",
          "lat": 30.168709,
          "lon": 120.137629,
          "sequence": 19
        },
        {
          "id": "900000062493006",
          "stationId": "900000062493006",
          "nameZh": "之江文化中心",
          "nameEn": "Zhijiang Wenhua Zhongxin",
          "target": "zhijiang wenhua zhongxin",
          "pinyin": "zhijiangwenhuazhongxin",
          "lat": 30.157966,
          "lon": 120.107708,
          "sequence": 20
        },
        {
          "id": "900000062493005",
          "stationId": "900000062493005",
          "nameZh": "枫桦西路",
          "nameEn": "Fenghua Xilu",
          "target": "fenghua xilu",
          "pinyin": "fenghuaxilu",
          "lat": 30.155201,
          "lon": 120.098501,
          "sequence": 21
        },
        {
          "id": "900000062493004",
          "stationId": "900000062493004",
          "nameZh": "美院象山",
          "nameEn": "Meiyuan Xiangshan",
          "target": "meiyuan xiangshan",
          "pinyin": "meiyuanxiangshan",
          "lat": 30.151172,
          "lon": 120.081328,
          "sequence": 22
        },
        {
          "id": "900000073754002",
          "stationId": "900000073754002",
          "nameZh": "音乐学院",
          "nameEn": "Yinyue Xueyuan",
          "target": "yinyue xueyuan",
          "pinyin": "yinyuexueyuan",
          "lat": 30.147699,
          "lon": 120.057994,
          "sequence": 23
        },
        {
          "id": "900000073754003",
          "stationId": "900000073754003",
          "nameZh": "中村",
          "nameEn": "Zhongcun",
          "target": "zhongcun",
          "pinyin": "zhongcun",
          "lat": 30.147281,
          "lon": 120.038784,
          "sequence": 24
        },
        {
          "id": "900000073754004",
          "stationId": "900000073754004",
          "nameZh": "野生动物园东",
          "nameEn": "Yesheng Dongwu Yuandong",
          "target": "yesheng dongwu yuandong",
          "pinyin": "yeshengdongwuyuandong",
          "lat": 30.146815,
          "lon": 120.001641,
          "sequence": 25
        },
        {
          "id": "900000073754005",
          "stationId": "900000073754005",
          "nameZh": "银湖",
          "nameEn": "Yinhu",
          "target": "yinhu",
          "pinyin": "yinhu",
          "lat": 30.13963,
          "lon": 119.988607,
          "sequence": 26
        },
        {
          "id": "900000073754012",
          "stationId": "900000073754012",
          "nameZh": "虎啸杏",
          "nameEn": "Huxiaoxing",
          "target": "huxiaoxing",
          "pinyin": "huxiaoxing",
          "lat": 30.130942,
          "lon": 119.97108,
          "sequence": 27
        },
        {
          "id": "900000073754006",
          "stationId": "900000073754006",
          "nameZh": "受降",
          "nameEn": "Shouxiang",
          "target": "shouxiang",
          "pinyin": "shouxiang",
          "lat": 30.12226,
          "lon": 119.960606,
          "sequence": 28
        },
        {
          "id": "900000073754007",
          "stationId": "900000073754007",
          "nameZh": "富阳客运中心",
          "nameEn": "Fuyang Keyun Zhongxin",
          "target": "fuyang keyun zhongxin",
          "pinyin": "fuyangkeyunzhongxin",
          "lat": 30.111197,
          "lon": 119.936705,
          "sequence": 29
        },
        {
          "id": "900000073754008",
          "stationId": "900000073754008",
          "nameZh": "高桥",
          "nameEn": "Gaoqiao",
          "target": "gaoqiao",
          "pinyin": "gaoqiao",
          "lat": 30.094878,
          "lon": 119.931422,
          "sequence": 30
        },
        {
          "id": "900000073754009",
          "stationId": "900000073754009",
          "nameZh": "阳陂湖",
          "nameEn": "Yangpihu",
          "target": "yangpihu",
          "pinyin": "yangpihu",
          "lat": 30.081727,
          "lon": 119.932134,
          "sequence": 31
        },
        {
          "id": "900000073754010",
          "stationId": "900000073754010",
          "nameZh": "公望街",
          "nameEn": "Gongwang Jie",
          "target": "gongwang jie",
          "pinyin": "gongwangjie",
          "lat": 30.065493,
          "lon": 119.93339,
          "sequence": 32
        },
        {
          "id": "900000073754011",
          "stationId": "900000073754011",
          "nameZh": "桂花西路",
          "nameEn": "Guihua Xilu",
          "target": "guihua xilu",
          "pinyin": "guihuaxilu",
          "lat": 30.048389,
          "lon": 119.9343,
          "sequence": 33
        },
        {
          "id": "900000062493003",
          "stationId": "900000062493003",
          "nameZh": "霞鸣街",
          "nameEn": "Xiaming Jie",
          "target": "xiaming jie",
          "pinyin": "xiamingjie",
          "lat": 30.14323,
          "lon": 120.073174,
          "sequence": 34
        },
        {
          "id": "900000062493002",
          "stationId": "900000062493002",
          "nameZh": "科海路",
          "nameEn": "Kehai Lu",
          "target": "kehai lu",
          "pinyin": "kehailu",
          "lat": 30.129544,
          "lon": 120.08702,
          "sequence": 35
        },
        {
          "id": "900000062493001",
          "stationId": "900000062493001",
          "nameZh": "双浦",
          "nameEn": "Shuangpu",
          "target": "shuangpu",
          "pinyin": "shuangpu",
          "lat": 30.115971,
          "lon": 120.08378,
          "sequence": 36
        }
      ],
      "segments": [
        [
          "900000062493026",
          "900000062493025",
          "900000062493024",
          "900000062493023",
          "900000062493022",
          "900000062493021",
          "900000062493020",
          "330100020003013",
          "900000062493017",
          "900000062493016",
          "900000062493015",
          "330100023133022",
          "900000062493013",
          "900000062493012",
          "900000062493011",
          "900000062493010",
          "900000062493009",
          "900000029624024",
          "900000062493007",
          "900000062493006",
          "900000062493005",
          "900000062493004",
          "900000073754002",
          "900000073754003",
          "900000073754004",
          "900000073754005",
          "900000073754012",
          "900000073754006",
          "900000073754007",
          "900000073754008",
          "900000073754009",
          "900000073754010",
          "900000073754011"
        ],
        [
          "900000062493026",
          "900000062493025",
          "900000062493024",
          "900000062493023",
          "900000062493022",
          "900000062493021",
          "900000062493020",
          "330100020003013",
          "900000062493017",
          "900000062493016",
          "900000062493015",
          "330100023133022",
          "900000062493013",
          "900000062493012",
          "900000062493011",
          "900000062493010",
          "900000062493009",
          "900000029624024",
          "900000062493007",
          "900000062493006",
          "900000062493005",
          "900000062493004",
          "900000062493003",
          "900000062493002",
          "900000062493001"
        ]
      ]
    },
    {
      "id": "3301-7",
      "operatorId": "3301",
      "operatorName": "杭州地铁",
      "lineId": "7",
      "lineName": "7号线",
      "color": "#793E8C",
      "loop": false,
      "stations": [
        {
          "id": "900000099060024",
          "stationId": "900000099060024",
          "nameZh": "江东二路",
          "nameEn": "Jiangdong Erlu",
          "target": "jiangdong erlu",
          "pinyin": "jiangdongerlu",
          "lat": 30.32362,
          "lon": 120.494724,
          "sequence": 1
        },
        {
          "id": "900000099060023",
          "stationId": "900000099060023",
          "nameZh": "启成路",
          "nameEn": "Qicheng Lu",
          "target": "qicheng lu",
          "pinyin": "qichenglu",
          "lat": 30.311968,
          "lon": 120.494397,
          "sequence": 2
        },
        {
          "id": "900000099060022",
          "stationId": "900000099060022",
          "nameZh": "青六中路",
          "nameEn": "Qingliu Zhonglu",
          "target": "qingliu zhonglu",
          "pinyin": "qingliuzhonglu",
          "lat": 30.298788,
          "lon": 120.491818,
          "sequence": 3
        },
        {
          "id": "900000099060021",
          "stationId": "900000099060021",
          "nameZh": "塘新线",
          "nameEn": "Tangxin Xian",
          "target": "tangxin xian",
          "pinyin": "tangxinxian",
          "lat": 30.284492,
          "lon": 120.490308,
          "sequence": 4
        },
        {
          "id": "900000099060020",
          "stationId": "900000099060020",
          "nameZh": "义蓬",
          "nameEn": "Yipeng",
          "target": "yipeng",
          "pinyin": "yipeng",
          "lat": 30.273879,
          "lon": 120.487218,
          "sequence": 5
        },
        {
          "id": "900000099060026",
          "stationId": "900000099060026",
          "nameZh": "新镇路",
          "nameEn": "Xinzhen Lu",
          "target": "xinzhen lu",
          "pinyin": "xinzhenlu",
          "lat": 30.258395,
          "lon": 120.484197,
          "sequence": 6
        },
        {
          "id": "900000099060018",
          "stationId": "900000099060018",
          "nameZh": "永盛路",
          "nameEn": "Yongsheng Lu",
          "target": "yongsheng lu",
          "pinyin": "yongshenglu",
          "lat": 30.236479,
          "lon": 120.473016,
          "sequence": 7
        },
        {
          "id": "330100023133030",
          "stationId": "330100023133030",
          "nameZh": "萧山国际机场",
          "nameEn": "Xiaoshan Guoji Jichang",
          "target": "xiaoshan guoji jichang",
          "pinyin": "xiaoshanguojijichang",
          "lat": 30.235568,
          "lon": 120.433114,
          "sequence": 8
        },
        {
          "id": "900000099060016",
          "stationId": "900000099060016",
          "nameZh": "新港",
          "nameEn": "Xingang",
          "target": "xingang",
          "pinyin": "xingang",
          "lat": 30.219239,
          "lon": 120.408416,
          "sequence": 9
        },
        {
          "id": "900000099060015",
          "stationId": "900000099060015",
          "nameZh": "坎山",
          "nameEn": "Kanshan",
          "target": "kanshan",
          "pinyin": "kanshan",
          "lat": 30.197785,
          "lon": 120.395099,
          "sequence": 10
        },
        {
          "id": "900000099060014",
          "stationId": "900000099060014",
          "nameZh": "盈中",
          "nameEn": "Yingzhong",
          "target": "yingzhong",
          "pinyin": "yingzhong",
          "lat": 30.197715,
          "lon": 120.363029,
          "sequence": 11
        },
        {
          "id": "900000099060013",
          "stationId": "900000099060013",
          "nameZh": "合欢路",
          "nameEn": "Hehuan Lu",
          "target": "hehuan lu",
          "pinyin": "hehuanlu",
          "lat": 30.198105,
          "lon": 120.343647,
          "sequence": 12
        },
        {
          "id": "900000099060012",
          "stationId": "900000099060012",
          "nameZh": "新街",
          "nameEn": "Xinjie",
          "target": "xinjie",
          "pinyin": "xinjie",
          "lat": 30.199369,
          "lon": 120.330917,
          "sequence": 13
        },
        {
          "id": "900000099060011",
          "stationId": "900000099060011",
          "nameZh": "新汉路",
          "nameEn": "Xinhan Lu",
          "target": "xinhan lu",
          "pinyin": "xinhanlu",
          "lat": 30.202985,
          "lon": 120.306507,
          "sequence": 14
        },
        {
          "id": "900000099060010",
          "stationId": "900000099060010",
          "nameZh": "新兴路",
          "nameEn": "Xinxing Lu",
          "target": "xinxing lu",
          "pinyin": "xinxinglu",
          "lat": 30.204808,
          "lon": 120.295186,
          "sequence": 15
        },
        {
          "id": "330100020003009",
          "stationId": "330100020003009",
          "nameZh": "建设三路",
          "nameEn": "Jianshe San Lu",
          "target": "jianshe san lu",
          "pinyin": "jianshesanlu",
          "lat": 30.204512,
          "lon": 120.268252,
          "sequence": 16
        },
        {
          "id": "900000099060008",
          "stationId": "900000099060008",
          "nameZh": "明星路",
          "nameEn": "Mingxing Lu",
          "target": "mingxing lu",
          "pinyin": "mingxinglu",
          "lat": 30.204718,
          "lon": 120.248729,
          "sequence": 17
        },
        {
          "id": "900000099060007",
          "stationId": "900000099060007",
          "nameZh": "兴议",
          "nameEn": "Xingyi",
          "target": "xingyi",
          "pinyin": "xingyi",
          "lat": 30.212135,
          "lon": 120.23859,
          "sequence": 18
        },
        {
          "id": "900000062493016",
          "stationId": "900000062493016",
          "nameZh": "奥体中心",
          "nameEn": "Aoti Zhongxin",
          "target": "aoti zhongxin",
          "pinyin": "aotizhongxin",
          "lat": 30.224071,
          "lon": 120.232974,
          "sequence": 19
        },
        {
          "id": "900000029624008",
          "stationId": "900000029624008",
          "nameZh": "市民中心",
          "nameEn": "Shimin Zhongxin",
          "target": "shimin zhongxin",
          "pinyin": "shiminzhongxin",
          "lat": 30.244809,
          "lon": 120.211213,
          "sequence": 20
        },
        {
          "id": "900000099060031",
          "stationId": "900000099060031",
          "nameZh": "观音塘",
          "nameEn": "Guanyintang",
          "target": "guanyintang",
          "pinyin": "guanyintang",
          "lat": 30.247079,
          "lon": 120.201609,
          "sequence": 21
        },
        {
          "id": "900000099060030",
          "stationId": "900000099060030",
          "nameZh": "莫邪塘",
          "nameEn": "Moyetang",
          "target": "moyetang",
          "pinyin": "moyetang",
          "lat": 30.243319,
          "lon": 120.187043,
          "sequence": 22
        },
        {
          "id": "900000065767053",
          "stationId": "900000065767053",
          "nameZh": "江城路",
          "nameEn": "Jiangcheng Lu",
          "target": "jiangcheng lu",
          "pinyin": "jiangchenglu",
          "lat": 30.238561,
          "lon": 120.178205,
          "sequence": 23
        },
        {
          "id": "900000099060028",
          "stationId": "900000099060028",
          "nameZh": "吴山广场",
          "nameEn": "Wushan Guangchang",
          "target": "wushan guangchang",
          "pinyin": "wushanguangchang",
          "lat": 30.239816,
          "lon": 120.163244,
          "sequence": 24
        }
      ],
      "segments": [
        [
          "900000099060024",
          "900000099060023",
          "900000099060022",
          "900000099060021",
          "900000099060020",
          "900000099060026",
          "900000099060018",
          "330100023133030",
          "900000099060016",
          "900000099060015",
          "900000099060014",
          "900000099060013",
          "900000099060012",
          "900000099060011",
          "900000099060010",
          "330100020003009",
          "900000099060008",
          "900000099060007",
          "900000062493016",
          "900000029624008",
          "900000099060031",
          "900000099060030",
          "900000065767053",
          "900000099060028"
        ]
      ]
    },
    {
      "id": "3301-8",
      "operatorId": "3301",
      "operatorName": "杭州地铁",
      "lineId": "8",
      "lineName": "8号线",
      "color": "#741D51",
      "loop": false,
      "stations": [
        {
          "id": "330100023133029",
          "stationId": "330100023133029",
          "nameZh": "文海南路",
          "nameEn": "Wenhai Nanlu",
          "target": "wenhai nanlu",
          "pinyin": "wenhainanlu",
          "lat": 30.310983,
          "lon": 120.375052,
          "sequence": 1
        },
        {
          "id": "900000099066001",
          "stationId": "900000099066001",
          "nameZh": "工商大学云滨",
          "nameEn": "Gongshang Daxue Yunbin",
          "target": "gongshang daxue yunbin",
          "pinyin": "gongshangdaxueyunbin",
          "lat": 30.310979,
          "lon": 120.393007,
          "sequence": 2
        },
        {
          "id": "900000099066002",
          "stationId": "900000099066002",
          "nameZh": "桥头堡",
          "nameEn": "Qiaotoubao",
          "target": "qiaotoubao",
          "pinyin": "qiaotoubao",
          "lat": 30.303231,
          "lon": 120.432254,
          "sequence": 3
        },
        {
          "id": "900000099066003",
          "stationId": "900000099066003",
          "nameZh": "河庄路",
          "nameEn": "Hezhuang Lu",
          "target": "hezhuang lu",
          "pinyin": "hezhuanglu",
          "lat": 30.298731,
          "lon": 120.456961,
          "sequence": 4
        },
        {
          "id": "900000099066004",
          "stationId": "900000099066004",
          "nameZh": "青西三路",
          "nameEn": "Qingxi San Lu",
          "target": "qingxi san lu",
          "pinyin": "qingxisanlu",
          "lat": 30.29891,
          "lon": 120.477685,
          "sequence": 5
        },
        {
          "id": "900000099060022",
          "stationId": "900000099060022",
          "nameZh": "青六中路",
          "nameEn": "Qingliu Zhonglu",
          "target": "qingliu zhonglu",
          "pinyin": "qingliuzhonglu",
          "lat": 30.298788,
          "lon": 120.491818,
          "sequence": 6
        },
        {
          "id": "900000099066006",
          "stationId": "900000099066006",
          "nameZh": "仓北村",
          "nameEn": "Cang Beicun",
          "target": "cang beicun",
          "pinyin": "cangbeicun",
          "lat": 30.293839,
          "lon": 120.507671,
          "sequence": 7
        },
        {
          "id": "900000099066007",
          "stationId": "900000099066007",
          "nameZh": "冯娄村",
          "nameEn": "Fengloucun",
          "target": "fengloucun",
          "pinyin": "fengloucun",
          "lat": 30.294148,
          "lon": 120.521327,
          "sequence": 8
        },
        {
          "id": "900000099066008",
          "stationId": "900000099066008",
          "nameZh": "新湾路",
          "nameEn": "Xinwan Lu",
          "target": "xinwan lu",
          "pinyin": "xinwanlu",
          "lat": 30.294649,
          "lon": 120.540407,
          "sequence": 9
        }
      ],
      "segments": [
        [
          "330100023133029",
          "900000099066001",
          "900000099066002",
          "900000099066003",
          "900000099066004",
          "900000099060022",
          "900000099066006",
          "900000099066007",
          "900000099066008"
        ]
      ]
    },
    {
      "id": "3301-9",
      "operatorId": "3301",
      "operatorName": "杭州地铁",
      "lineId": "9",
      "lineName": "9号线",
      "color": "#B35A1F",
      "loop": false,
      "stations": [
        {
          "id": "900000166808008",
          "stationId": "900000166808008",
          "nameZh": "龙安",
          "nameEn": "Longan",
          "target": "longan",
          "pinyin": "longan",
          "lat": 30.455958,
          "lon": 120.273183,
          "sequence": 1
        },
        {
          "id": "900000166808009",
          "stationId": "900000166808009",
          "nameZh": "五洲路",
          "nameEn": "Wuzhou Lu",
          "target": "wuzhou lu",
          "pinyin": "wuzhoulu",
          "lat": 30.444745,
          "lon": 120.278916,
          "sequence": 2
        },
        {
          "id": "900000166808010",
          "stationId": "900000166808010",
          "nameZh": "荷禹路",
          "nameEn": "Heyu Lu",
          "target": "heyu lu",
          "pinyin": "heyulu",
          "lat": 30.434063,
          "lon": 120.284569,
          "sequence": 3
        },
        {
          "id": "900000166808011",
          "stationId": "900000166808011",
          "nameZh": "邱山大街",
          "nameEn": "Qiushan Dajie",
          "target": "qiushan dajie",
          "pinyin": "qiushandajie",
          "lat": 30.420768,
          "lon": 120.295189,
          "sequence": 4
        },
        {
          "id": "900000166808001",
          "stationId": "900000166808001",
          "nameZh": "临平",
          "nameEn": "Linping",
          "target": "linping",
          "pinyin": "linping",
          "lat": 30.406793,
          "lon": 120.304068,
          "sequence": 5
        },
        {
          "id": "900000166808002",
          "stationId": "900000166808002",
          "nameZh": "南苑",
          "nameEn": "Nanyuan",
          "target": "nanyuan",
          "pinyin": "nanyuan",
          "lat": 30.394918,
          "lon": 120.302396,
          "sequence": 6
        },
        {
          "id": "900000150702001",
          "stationId": "900000150702001",
          "nameZh": "临平南高铁站",
          "nameEn": "Lin Pingnan Gaotie Zhan",
          "target": "lin pingnan gaotie zhan",
          "pinyin": "linpingnangaotiezhan",
          "lat": 30.382057,
          "lon": 120.297858,
          "sequence": 7
        },
        {
          "id": "900000166808004",
          "stationId": "900000166808004",
          "nameZh": "翁梅",
          "nameEn": "Wengmei",
          "target": "wengmei",
          "pinyin": "wengmei",
          "lat": 30.364832,
          "lon": 120.295006,
          "sequence": 8
        },